$GNRMC,020930.00,A,4442.99498,S,16910.70723,E,0.046,,220525,,,A,V*0C
$GNVTG,,T,,M,0.046,N,0.085,K,A*32
$GNGGA,020930.00,4442.99498,S,16910.70723,E,1,12,0.55,342.3,M,4.6,M,,*6D
$GNGSA,A,3,04,07,08,09,16,20,26,27,,,,,0.99,0.55,0.82,1*0D
$GNGSA,A,3,78,77,79,69,87,67,68,,,,,,0.99,0.55,0.82,2*06
$GNGSA,A,3,07,21,27,29,,,,,,,,,0.99,0.55,0.82,3*03
$GNGSA,A,3,01,03,06,08,13,16,,,,,,,0.99,0.55,0.82,4*07
$GPGSV,4,1,14,04,58,024,42,07,43,252,45,08,29,029,39,09,74,275,41,1*64
$GPGSV,4,2,14,16,48,126,39,20,11,220,39,26,19,126,37,27,40,074,42,1*62
$GPGSV,4,3,14,30,10,261,,31,01,089,,42,33,327,27,44,03,078,,1*6A
$GPGSV,4,4,14,46,11,069,38,50,24,308,38,1*64
$GLGSV,3,1,09,67,24,010,47,68,69,325,47,69,44,221,49,77,19,130,37,1*7D
$GLGSV,3,2,09,78,71,185,40,79,39,285,46,86,08,163,,87,14,121,40,1*76
$GLGSV,3,3,09,88,01,067,,1*41
$GAGSV,2,1,07,07,20,041,35,19,53,234,37,21,49,327,44,23,01,318,,7*7C
$GAGSV,2,2,07,27,71,111,42,29,73,016,39,30,20,132,,7*43
$GBGSV,4,1,15,01,34,327,36,03,14,292,32,04,38,347,,06,21,261,35,1*75
$GBGSV,4,2,15,08,36,285,34,09,06,265,,11,14,119,,12,00,165,,1*72
$GBGSV,4,3,15,13,35,266,38,16,26,259,38,19,17,219,,20,52,262,,1*79
$GBGSV,4,4,15,23,50,120,,25,02,110,,28,03,039,,1*43
$GNGLL,4442.99498,S,16910.70723,E,020930.00,A,A*6F


$GNRMC,020931.00,A,4442.99510,S,16910.70734,E,0.023,,220525,,,A,V*09
$GNVTG,,T,,M,0.023,N,0.043,K,A*3B
$GNGGA,020931.00,4442.99510,S,16910.70734,E,1,12,0.54,342.1,M,4.6,M,,*68
$GNGSA,A,3,04,07,08,09,16,20,26,27,,,,,0.97,0.54,0.81,1*01
$GNGSA,A,3,78,77,79,69,87,67,68,,,,,,0.97,0.54,0.81,2*0A
$GNGSA,A,3,07,19,21,27,29,,,,,,,,0.97,0.54,0.81,3*07
$GNGSA,A,3,01,03,06,08,13,16,,,,,,,0.97,0.54,0.81,4*0B
$GPGSV,4,1,13,04,58,024,44,07,43,252,47,08,29,029,40,09,74,275,43,1*6B
$GPGSV,4,2,13,16,48,126,41,20,11,220,40,26,19,126,38,27,40,074,43,1*6A
$GPGSV,4,3,13,30,10,261,,31,01,089,,44,03,078,,46,11,069,39,1*6F
$GPGSV,4,4,13,50,24,308,39,1*54
$GLGSV,3,1,09,67,24,010,47,68,69,325,48,69,44,221,49,77,19,130,36,1*73
$GLGSV,3,2,09,78,71,185,40,79,39,285,46,86,08,163,,87,14,121,39,1*78
$GLGSV,3,3,09,88,01,067,,1*41
$GAGSV,2,1,07,07,20,041,36,19,53,234,36,21,49,327,45,23,01,318,,7*7F
$GAGSV,2,2,07,27,71,111,43,29,73,016,39,30,20,132,,7*42
$GBGSV,4,1,15,01,34,327,38,03,14,292,34,04,38,347,,06,21,261,36,1*7E
$GBGSV,4,2,15,08,36,285,34,09,06,265,,11,14,119,,12,00,165,,1*72
$GBGSV,4,3,15,13,35,266,38,16,26,259,39,19,17,219,41,20,52,262,,1*7D
$GBGSV,4,4,15,23,50,120,,25,02,110,,28,03,039,,1*43
$GNGLL,4442.99510,S,16910.70734,E,020931.00,A,A*69


$GNRMC,020932.00,A,4442.99523,S,16910.70738,E,0.030,,220525,,,A,V*04
$GNVTG,,T,,M,0.030,N,0.055,K,A*3E
$GNGGA,020932.00,4442.99523,S,16910.70738,E,1,12,0.53,341.9,M,4.6,M,,*6B
$GNGSA,A,3,04,07,08,09,16,20,26,27,,,,,0.96,0.53,0.81,1*07
$GNGSA,A,3,78,77,79,69,87,67,68,,,,,,0.96,0.53,0.81,2*0C
$GNGSA,A,3,07,19,21,27,29,,,,,,,,0.96,0.53,0.81,3*01
$GNGSA,A,3,01,03,06,08,19,13,16,,,,,,0.96,0.53,0.81,4*05
$GPGSV,4,1,13,04,58,024,46,07,43,252,48,08,29,029,42,09,74,275,44,1*63
$GPGSV,4,2,13,16,48,126,42,20,11,220,42,26,19,126,39,27,40,074,44,1*6D
$GPGSV,4,3,13,30,10,261,,31,01,089,,44,03,078,,46,11,069,40,1*61
$GPGSV,4,4,13,50,24,308,41,1*5B
$GLGSV,3,1,09,67,24,010,46,68,69,325,47,69,44,221,49,77,19,130,36,1*7D
$GLGSV,3,2,09,78,71,185,41,79,39,285,46,86,08,163,,87,14,121,39,1*79
$GLGSV,3,3,09,88,01,067,,1*41
$GAGSV,2,1,07,07,20,041,36,19,53,234,37,21,49,327,45,23,01,318,,7*7E
$GAGSV,2,2,07,27,71,111,43,29,73,016,40,30,20,132,,7*4C
$GBGSV,4,1,15,01,34,327,41,03,14,292,38,04,38,347,,06,21,261,40,1*7D
$GBGSV,4,2,15,08,36,285,37,09,06,265,,11,14,119,,12,00,165,,1*71
$GBGSV,4,3,15,13,35,266,42,16,26,259,41,19,17,219,44,20,52,262,,1*7A
$GBGSV,4,4,15,23,50,120,,25,02,110,,28,03,039,,1*43
$GNGLL,4442.99523,S,16910.70738,E,020932.00,A,A*66


$GNRMC,020933.00,A,4442.99533,S,16910.70741,E,0.134,,220525,,,A,V*0F
$GNVTG,,T,,M,0.134,N,0.248,K,A*35
$GNGGA,020933.00,4442.99533,S,16910.70741,E,1,12,0.52,341.6,M,4.6,M,,*6B
$GNGSA,A,3,04,07,08,09,16,20,26,27,,,,,0.95,0.52,0.79,1*02
$GNGSA,A,3,78,77,79,69,87,67,68,,,,,,0.95,0.52,0.79,2*09
$GNGSA,A,3,07,19,21,27,29,,,,,,,,0.95,0.52,0.79,3*04
$GNGSA,A,3,01,03,06,08,19,13,16,23,,,,,0.95,0.52,0.79,4*01
$GPGSV,4,1,13,04,58,024,45,07,43,252,48,08,29,029,41,09,74,275,43,1*64
$GPGSV,4,2,13,16,48,126,41,20,11,220,41,26,19,126,39,27,40,074,43,1*6A
$GPGSV,4,3,13,30,10,261,,31,01,089,,44,03,078,,46,11,069,39,1*6F
$GPGSV,4,4,13,50,24,308,40,1*5A
$GLGSV,3,1,09,67,24,010,46,68,69,326,47,69,44,221,49,77,19,130,36,1*7E
$GLGSV,3,2,09,78,71,185,42,79,39,285,46,86,08,163,42,87,14,121,39,1*7C
$GLGSV,3,3,09,88,01,067,,1*41
$GAGSV,2,1,07,07,20,041,37,19,53,234,37,21,49,327,45,23,01,318,,7*7F
$GAGSV,2,2,07,27,71,111,43,29,73,016,40,30,20,132,,7*4C
$GBGSV,4,1,15,01,34,327,40,03,14,292,37,04,38,347,,06,21,261,39,1*7D
$GBGSV,4,2,15,08,36,285,36,09,06,265,,11,14,119,,12,00,165,,1*70
$GBGSV,4,3,15,13,35,266,41,16,26,259,41,19,17,219,43,20,52,262,,1*7E
$GBGSV,4,4,15,23,50,120,45,25,02,110,,28,03,039,,1*42
$GNGLL,4442.99533,S,16910.70741,E,020933.00,A,A*68


$GNRMC,020934.00,A,4442.99536,S,16910.70737,E,0.027,,220525,,,A,V*0F
$GNVTG,,T,,M,0.027,N,0.050,K,A*3D
$GNGGA,020934.00,4442.99536,S,16910.70737,E,1,12,0.50,341.1,M,4.6,M,,*6D
$GNGSA,A,3,04,07,08,09,16,20,26,27,,,,,0.90,0.50,0.75,1*09
$GNGSA,A,3,78,77,79,69,87,67,68,86,,,,,0.90,0.50,0.75,2*0C
$GNGSA,A,3,07,19,21,27,29,,,,,,,,0.90,0.50,0.75,3*0F
$GNGSA,A,3,01,03,06,08,19,13,16,23,,,,,0.90,0.50,0.75,4*0A
$GPGSV,4,1,13,04,58,024,45,07,43,252,48,08,29,029,41,09,74,276,43,1*67
$GPGSV,4,2,13,16,48,126,41,20,11,220,41,26,19,126,39,27,40,074,43,1*6A
$GPGSV,4,3,13,30,10,261,,31,01,089,,44,03,078,,46,11,069,39,1*6F
$GPGSV,4,4,13,50,24,308,40,1*5A
$GLGSV,3,1,09,67,24,010,46,68,69,326,47,69,44,221,49,77,19,130,37,1*7F
$GLGSV,3,2,09,78,71,185,42,79,39,285,46,86,08,163,42,87,14,121,39,1*7C
$GLGSV,3,3,09,88,01,067,,1*41
$GAGSV,2,1,07,07,20,041,37,19,53,234,37,21,49,327,45,23,01,318,,7*7F
$GAGSV,2,2,07,27,71,111,43,29,73,016,40,30,20,132,,7*4C
$GBGSV,4,1,15,01,34,327,40,03,14,292,37,04,38,347,,06,21,261,39,1*7D
$GBGSV,4,2,15,08,36,285,36,09,06,265,,11,14,119,,12,00,165,,1*70
$GBGSV,4,3,15,13,35,266,41,16,26,259,41,19,17,219,43,20,52,262,,1*7E
$GBGSV,4,4,15,23,50,120,45,25,02,110,,28,03,039,,1*42
$GNGLL,4442.99536,S,16910.70737,E,020934.00,A,A*6B


$GNRMC,020935.00,A,4442.99537,S,16910.70730,E,0.067,,220525,,,A,V*0C
$GNVTG,,T,,M,0.067,N,0.124,K,A*3B
$GNGGA,020935.00,4442.99537,S,16910.70730,E,1,12,0.50,340.7,M,4.6,M,,*6D
$GNGSA,A,3,04,07,08,09,16,20,26,27,,,,,0.92,0.50,0.77,1*09
$GNGSA,A,3,78,77,79,69,87,67,68,86,,,,,0.92,0.50,0.77,2*0C
$GNGSA,A,3,07,19,21,27,29,,,,,,,,0.92,0.50,0.77,3*0F
$GNGSA,A,3,01,03,06,08,19,13,16,23,,,,,0.92,0.50,0.77,4*0A
$GPGSV,4,1,13,04,58,024,45,07,43,252,48,08,29,029,41,09,74,276,43,1*67
$GPGSV,4,2,13,16,48,126,41,20,11,220,41,26,19,126,40,27,40,074,43,1*64
$GPGSV,4,3,13,30,10,261,,31,01,089,,44,03,078,,46,11,069,39,1*6F
$GPGSV,4,4,13,50,24,308,40,1*5A
$GLGSV,3,1,09,67,24,010,46,68,69,326,47,69,44,221,49,77,19,130,37,1*7F
$GLGSV,3,2,09,78,71,185,41,79,39,285,46,86,08,163,42,87,14,121,39,1*7F
$GLGSV,3,3,09,88,01,067,,1*41
$GAGSV,2,1,07,07,20,041,37,19,53,234,37,21,49,327,45,23,01,318,,7*7F
$GAGSV,2,2,07,27,71,111,43,29,73,016,40,30,20,132,,7*4C
$GBGSV,4,1,15,01,34,327,40,03,14,292,37,04,38,347,,06,21,261,39,1*7D
$GBGSV,4,2,15,08,36,285,36,09,06,265,,11,14,119,,12,00,165,,1*70
$GBGSV,4,3,15,13,35,266,41,16,26,259,41,19,17,219,43,20,52,262,,1*7E
$GBGSV,4,4,15,23,50,120,45,25,02,110,,28,03,039,,1*42
$GNGLL,4442.99537,S,16910.70730,E,020935.00,A,A*6C


$GNRMC,020936.00,A,4442.99535,S,16910.70724,E,0.005,,220525,,,A,V*0C
$GNVTG,,T,,M,0.005,N,0.009,K,A*31
$GNGGA,020936.00,4442.99535,S,16910.70724,E,1,12,0.50,340.6,M,4.6,M,,*68
$GNGSA,A,3,04,07,08,09,16,20,26,27,,,,,0.90,0.50,0.75,1*09
$GNGSA,A,3,78,77,79,69,87,67,68,86,,,,,0.90,0.50,0.75,2*0C
$GNGSA,A,3,07,19,21,27,29,,,,,,,,0.90,0.50,0.75,3*0F
$GNGSA,A,3,01,03,06,08,19,13,16,23,,,,,0.90,0.50,0.75,4*0A
$GPGSV,4,1,13,04,58,024,45,07,43,252,48,08,29,029,41,09,74,276,44,1*60
$GPGSV,4,2,13,16,48,126,41,20,11,220,41,26,19,126,40,27,40,074,43,1*64
$GPGSV,4,3,13,30,10,261,,31,01,089,,44,03,078,,46,11,069,39,1*6F
$GPGSV,4,4,13,50,24,308,40,1*5A
$GLGSV,3,1,09,67,24,010,46,68,69,326,47,69,44,221,49,77,19,130,37,1*7F
$GLGSV,3,2,09,78,71,185,41,79,39,285,46,86,08,163,42,87,14,121,39,1*7F
$GLGSV,3,3,09,88,01,067,,1*41
$GAGSV,2,1,07,07,20,041,37,19,53,234,37,21,49,327,45,23,01,318,,7*7F
$GAGSV,2,2,07,27,71,111,43,29,73,016,40,30,20,132,,7*4C
$GBGSV,4,1,15,01,34,327,40,03,14,292,37,04,38,347,,06,21,261,39,1*7D
$GBGSV,4,2,15,08,36,285,36,09,06,265,,11,14,119,,12,00,165,,1*70
$GBGSV,4,3,15,13,35,266,41,16,26,259,41,19,17,219,43,20,52,262,,1*7E
$GBGSV,4,4,15,23,50,120,45,25,02,110,,28,03,039,,1*42
$GNGLL,4442.99535,S,16910.70724,E,020936.00,A,A*68


$GNRMC,020937.00,A,4442.99534,S,16910.70718,E,0.004,,220525,,,A,V*02
$GNVTG,,T,,M,0.004,N,0.008,K,A*31
$GNGGA,020937.00,4442.99534,S,16910.70718,E,1,12,0.50,340.6,M,4.6,M,,*67
$GNGSA,A,3,04,07,08,09,16,20,26,27,,,,,0.92,0.50,0.77,1*09
$GNGSA,A,3,78,77,79,69,87,67,68,86,,,,,0.92,0.50,0.77,2*0C
$GNGSA,A,3,07,19,21,27,29,,,,,,,,0.92,0.50,0.77,3*0F
$GNGSA,A,3,01,03,06,08,19,13,16,23,,,,,0.92,0.50,0.77,4*0A
$GPGSV,4,1,13,04,58,024,45,07,43,252,48,08,29,029,41,09,74,276,44,1*60
$GPGSV,4,2,13,16,48,126,41,20,11,220,41,26,19,126,40,27,40,074,43,1*64
$GPGSV,4,3,13,30,10,261,,31,01,089,,44,03,078,,46,11,069,39,1*6F
$GPGSV,4,4,13,50,24,308,40,1*5A
$GLGSV,3,1,09,67,24,010,46,68,69,326,47,69,44,221,49,77,19,130,37,1*7F
$GLGSV,3,2,09,78,71,185,41,79,39,285,46,86,08,163,42,87,14,121,39,1*7F
$GLGSV,3,3,09,88,01,067,,1*41
$GAGSV,2,1,07,07,20,041,37,19,53,234,37,21,49,327,45,23,01,318,,7*7F
$GAGSV,2,2,07,27,71,111,43,29,73,016,40,30,20,132,,7*4C
$GBGSV,4,1,15,01,34,327,40,03,14,292,37,04,38,347,,06,21,261,39,1*7D
$GBGSV,4,2,15,08,36,285,36,09,06,265,,11,14,119,,12,00,165,,1*70
$GBGSV,4,3,15,13,35,266,41,16,26,259,41,19,17,219,43,20,52,262,,1*7E
$GBGSV,4,4,15,23,50,120,45,25,02,110,,28,03,039,,1*42
$GNGLL,4442.99534,S,16910.70718,E,020937.00,A,A*67


$GNRMC,020938.00,A,4442.99534,S,16910.70713,E,0.001,,220525,,,A,V*03
$GNVTG,,T,,M,0.001,N,0.002,K,A*3E
$GNGGA,020938.00,4442.99534,S,16910.70713,E,1,12,0.50,340.6,M,4.6,M,,*63
$GNGSA,A,3,04,07,08,09,16,20,26,27,,,,,0.90,0.50,0.75,1*09
$GNGSA,A,3,78,77,79,69,87,67,68,86,,,,,0.90,0.50,0.75,2*0C
$GNGSA,A,3,07,19,21,27,29,,,,,,,,0.90,0.50,0.75,3*0F
$GNGSA,A,3,01,03,06,08,19,13,16,23,,,,,0.90,0.50,0.75,4*0A
$GPGSV,4,1,13,04,58,024,45,07,43,252,48,08,29,029,41,09,74,276,44,1*60
$GPGSV,4,2,13,16,48,126,41,20,11,220,41,26,19,126,40,27,40,074,43,1*64
$GPGSV,4,3,13,30,10,261,,31,01,089,,44,03,078,,46,11,069,39,1*6F
$GPGSV,4,4,13,50,24,308,40,1*5A
$GLGSV,3,1,09,67,24,010,46,68,69,326,47,69,44,221,48,77,19,130,37,1*7E
$GLGSV,3,2,09,78,71,185,41,79,39,285,47,86,08,163,41,87,14,121,39,1*7D
$GLGSV,3,3,09,88,01,067,,1*41
$GAGSV,2,1,07,07,20,041,37,19,53,234,37,21,49,327,45,23,01,318,,7*7F
$GAGSV,2,2,07,27,71,111,43,29,73,016,40,30,20,132,,7*4C
$GBGSV,4,1,15,01,34,327,40,03,14,292,37,04,38,347,,06,21,261,39,1*7D
$GBGSV,4,2,15,08,36,285,35,09,06,265,,11,14,119,,12,00,165,,1*73
$GBGSV,4,3,15,13,35,266,41,16,26,259,41,19,17,219,43,20,52,262,,1*7E
$GBGSV,4,4,15,23,50,120,45,25,02,110,,28,03,039,,1*42
$GNGLL,4442.99534,S,16910.70713,E,020938.00,A,A*63


$GNRMC,020939.00,A,4442.99535,S,16910.70707,E,0.077,,220525,,,A,V*07
$GNVTG,,T,,M,0.077,N,0.142,K,A*3A
$GNGGA,020939.00,4442.99535,S,16910.70707,E,1,12,0.50,340.7,M,4.6,M,,*67
$GNGSA,A,3,04,07,08,09,16,20,26,27,,,,,0.92,0.50,0.77,1*09
$GNGSA,A,3,78,77,79,69,87,67,68,86,,,,,0.92,0.50,0.77,2*0C
$GNGSA,A,3,07,19,21,27,29,,,,,,,,0.92,0.50,0.77,3*0F
$GNGSA,A,3,01,03,06,08,19,13,16,23,,,,,0.92,0.50,0.77,4*0A
$GPGSV,4,1,13,04,58,024,45,07,43,252,48,08,29,029,41,09,74,276,44,1*60
$GPGSV,4,2,13,16,48,126,42,20,11,220,41,26,19,126,40,27,40,074,43,1*67
$GPGSV,4,3,13,30,10,261,,31,01,089,,44,03,078,,46,11,069,39,1*6F
$GPGSV,4,4,13,50,24,308,40,1*5A
$GLGSV,3,1,09,67,24,010,46,68,69,326,47,69,44,221,49,77,19,130,37,1*7F
$GLGSV,3,2,09,78,71,185,41,79,39,285,47,86,08,163,41,87,14,121,38,1*7C
$GLGSV,3,3,09,88,01,067,,1*41
$GAGSV,2,1,07,07,20,041,37,19,53,234,37,21,49,327,45,23,01,318,,7*7F
$GAGSV,2,2,07,27,71,111,43,29,73,016,40,30,20,132,,7*4C
$GBGSV,4,1,15,01,34,327,40,03,14,292,37,04,38,347,,06,21,261,39,1*7D
$GBGSV,4,2,15,08,36,285,35,09,06,265,,11,14,119,,12,00,165,,1*73
$GBGSV,4,3,15,13,35,266,41,16,26,259,41,19,17,219,43,20,52,262,,1*7E
$GBGSV,4,4,15,23,50,120,45,25,02,110,,28,03,039,,1*42
$GNGLL,4442.99535,S,16910.70707,E,020939.00,A,A*66


$GNRMC,020940.00,A,4442.99537,S,16910.70703,E,0.007,,220525,,,A,V*08
$GNVTG,,T,,M,0.007,N,0.013,K,A*38
$GNGGA,020940.00,4442.99537,S,16910.70703,E,1,12,0.50,340.7,M,4.6,M,,*6F
$GNGSA,A,3,04,07,08,09,16,20,26,27,,,,,0.90,0.50,0.75,1*09
$GNGSA,A,3,78,77,79,69,87,67,68,86,,,,,0.90,0.50,0.75,2*0C
$GNGSA,A,3,07,19,21,27,29,,,,,,,,0.90,0.50,0.75,3*0F
$GNGSA,A,3,01,03,06,08,19,13,16,23,,,,,0.90,0.50,0.75,4*0A
$GPGSV,4,1,13,04,58,024,45,07,43,252,48,08,29,029,41,09,74,276,44,1*60
$GPGSV,4,2,13,16,48,126,42,20,11,220,41,26,19,126,40,27,40,074,43,1*67
$GPGSV,4,3,13,30,10,261,,31,01,089,,44,03,078,,46,11,069,39,1*6F
$GPGSV,4,4,13,50,24,308,40,1*5A
$GLGSV,3,1,09,67,24,010,46,68,68,326,47,69,44,221,49,77,19,130,37,1*7E
$GLGSV,3,2,09,78,71,185,41,79,39,285,47,86,08,163,41,87,14,121,38,1*7C
$GLGSV,3,3,09,88,01,067,,1*41
$GAGSV,2,1,07,07,20,041,37,19,53,234,37,21,49,327,45,23,01,318,,7*7F
$GAGSV,2,2,07,27,71,111,43,29,73,016,40,30,20,132,,7*4C
$GBGSV,4,1,15,01,34,327,40,03,14,292,37,04,38,347,,06,21,261,39,1*7D
$GBGSV,4,2,15,08,36,285,35,09,06,265,,11,14,119,,12,00,165,,1*73
$GBGSV,4,3,15,13,35,266,41,16,26,259,41,19,17,219,43,20,52,262,,1*7E
$GBGSV,4,4,15,23,50,120,45,25,02,110,,28,03,039,,1*42
$GNGLL,4442.99537,S,16910.70703,E,020940.00,A,A*6E


$GNRMC,020941.00,A,4442.99538,S,16910.70701,E,0.004,,220525,,,A,V*07
$GNVTG,,T,,M,0.004,N,0.008,K,A*31
$GNGGA,020941.00,4442.99538,S,16910.70701,E,1,12,0.50,340.7,M,4.6,M,,*63
$GNGSA,A,3,04,07,08,09,16,20,26,27,,,,,0.92,0.50,0.77,1*09
$GNGSA,A,3,78,77,79,69,87,67,68,86,,,,,0.92,0.50,0.77,2*0C
$GNGSA,A,3,07,19,21,27,29,,,,,,,,0.92,0.50,0.77,3*0F
$GNGSA,A,3,01,03,06,08,19,13,16,23,,,,,0.92,0.50,0.77,4*0A
$GPGSV,4,1,13,04,58,024,45,07,43,252,48,08,29,029,41,09,74,276,44,1*60
$GPGSV,4,2,13,16,47,126,42,20,11,220,42,26,19,126,40,27,40,074,43,1*6B
$GPGSV,4,3,13,30,10,261,,31,01,089,,44,03,078,,46,11,069,39,1*6F
$GPGSV,4,4,13,50,24,308,40,1*5A
$GLGSV,3,1,09,67,24,010,46,68,68,326,47,69,44,221,49,77,19,130,37,1*7E
$GLGSV,3,2,09,78,71,185,41,79,39,285,46,86,08,163,41,87,14,121,38,1*7D
$GLGSV,3,3,09,88,01,067,,1*41
$GAGSV,2,1,07,07,20,041,37,19,53,234,36,21,49,327,45,23,01,318,,7*7E
$GAGSV,2,2,07,27,71,111,43,29,73,016,40,30,20,132,,7*4C
$GBGSV,4,1,15,01,34,327,40,03,14,292,37,04,38,347,,06,21,261,39,1*7D
$GBGSV,4,2,15,08,36,285,35,09,06,265,,11,14,119,,12,00,165,,1*73
$GBGSV,4,3,15,13,35,266,41,16,26,259,41,19,17,219,43,20,52,262,,1*7E
$GBGSV,4,4,15,23,50,120,45,25,02,110,,28,03,039,,1*42
$GNGLL,4442.99538,S,16910.70701,E,020941.00,A,A*62


$GNRMC,020942.00,A,4442.99538,S,16910.70699,E,0.006,,220525,,,A,V*06
$GNVTG,,T,,M,0.006,N,0.012,K,A*38
$GNGGA,020942.00,4442.99538,S,16910.70699,E,1,12,0.50,340.7,M,4.6,M,,*60
$GNGSA,A,3,04,07,08,09,16,20,26,27,,,,,0.90,0.50,0.75,1*09
$GNGSA,A,3,78,77,79,69,87,67,68,86,,,,,0.90,0.50,0.75,2*0C
$GNGSA,A,3,07,19,21,27,29,,,,,,,,0.90,0.50,0.75,3*0F
$GNGSA,A,3,01,03,06,08,19,13,16,23,,,,,0.90,0.50,0.75,4*0A
$GPGSV,4,1,13,04,58,024,45,07,43,252,48,08,29,029,41,09,74,276,44,1*60
$GPGSV,4,2,13,16,47,126,42,20,11,220,42,26,19,126,39,27,40,074,43,1*65
$GPGSV,4,3,13,30,10,261,,31,01,089,,44,03,078,,46,11,069,39,1*6F
$GPGSV,4,4,13,50,24,308,40,1*5A
$GLGSV,3,1,09,67,24,010,46,68,68,326,47,69,44,221,49,77,19,130,37,1*7E
$GLGSV,3,2,09,78,71,185,41,79,39,285,46,86,08,163,41,87,14,121,38,1*7D
$GLGSV,3,3,09,88,01,067,,1*41
$GAGSV,2,1,07,07,20,041,37,19,53,234,36,21,49,327,45,23,01,318,,7*7E
$GAGSV,2,2,07,27,71,111,43,29,73,016,40,30,20,132,,7*4C
$GBGSV,4,1,15,01,34,327,40,03,14,292,37,04,38,347,,06,21,261,39,1*7D
$GBGSV,4,2,15,08,36,285,35,09,06,265,,11,14,119,,12,00,165,,1*73
$GBGSV,4,3,15,13,35,266,41,16,26,259,41,19,17,219,43,20,52,262,,1*7E
$GBGSV,4,4,15,23,50,120,45,25,02,110,,28,03,039,,1*42
$GNGLL,4442.99538,S,16910.70699,E,020942.00,A,A*61


$GNRMC,020943.00,A,4442.99538,S,16910.70697,E,0.005,,220525,,,A,V*0A
$GNVTG,,T,,M,0.005,N,0.009,K,A*31
$GNGGA,020943.00,4442.99538,S,16910.70697,E,1,12,0.50,340.7,M,4.6,M,,*6F
$GNGSA,A,3,04,07,08,09,16,20,26,27,,,,,0.92,0.50,0.77,1*09
$GNGSA,A,3,78,77,79,69,87,67,68,86,,,,,0.92,0.50,0.77,2*0C
$GNGSA,A,3,07,19,21,27,29,,,,,,,,0.92,0.50,0.77,3*0F
$GNGSA,A,3,01,03,06,08,19,13,16,23,,,,,0.92,0.50,0.77,4*0A
$GPGSV,4,1,13,04,58,024,45,07,43,252,47,08,29,029,41,09,74,276,44,1*6F
$GPGSV,4,2,13,16,47,126,42,20,11,220,42,26,19,126,39,27,40,074,43,1*65
$GPGSV,4,3,13,30,10,261,,31,01,089,,44,03,078,,46,11,069,39,1*6F
$GPGSV,4,4,13,50,24,308,40,1*5A
$GLGSV,3,1,09,67,24,010,46,68,68,326,47,69,44,221,49,77,19,130,37,1*7E
$GLGSV,3,2,09,78,71,185,41,79,39,285,46,86,08,163,41,87,14,121,37,1*72
$GLGSV,3,3,09,88,01,067,,1*41
$GAGSV,2,1,07,07,20,041,37,19,53,234,37,21,49,327,45,23,01,318,,7*7F
$GAGSV,2,2,07,27,71,111,43,29,73,016,40,30,20,132,,7*4C
$GBGSV,4,1,15,01,34,327,40,03,14,292,37,04,38,347,,06,21,261,39,1*7D
$GBGSV,4,2,15,08,36,285,35,09,06,265,,11,14,119,,12,00,165,,1*73
$GBGSV,4,3,15,13,35,266,41,16,26,259,41,19,17,219,43,20,52,262,,1*7E
$GBGSV,4,4,15,23,50,120,46,25,02,110,,28,03,039,,1*41
$GNGLL,4442.99538,S,16910.70697,E,020943.00,A,A*6E


$GNRMC,020944.00,A,4442.99538,S,16910.70696,E,0.009,,220525,,,A,V*00
$GNVTG,,T,,M,0.009,N,0.017,K,A*32
$GNGGA,020944.00,4442.99538,S,16910.70696,E,1,12,0.50,340.7,M,4.6,M,,*69
$GNGSA,A,3,04,07,08,09,16,20,26,27,,,,,0.90,0.50,0.75,1*09
$GNGSA,A,3,78,77,79,69,87,67,68,86,,,,,0.90,0.50,0.75,2*0C
$GNGSA,A,3,07,19,21,27,29,,,,,,,,0.90,0.50,0.75,3*0F
$GNGSA,A,3,01,03,06,08,19,13,16,23,,,,,0.90,0.50,0.75,4*0A
$GPGSV,4,1,13,04,58,024,45,07,43,252,48,08,29,029,41,09,74,276,44,1*60
$GPGSV,4,2,13,16,47,126,42,20,11,220,41,26,19,126,39,27,40,074,43,1*66
$GPGSV,4,3,13,30,10,261,,31,01,089,,44,03,078,,46,11,069,39,1*6F
$GPGSV,4,4,13,50,24,308,40,1*5A
$GLGSV,3,1,09,67,24,010,46,68,68,326,47,69,44,221,49,77,19,130,36,1*7F
$GLGSV,3,2,09,78,71,185,41,79,39,285,47,86,08,163,41,87,14,121,38,1*7C
$GLGSV,3,3,09,88,01,067,,1*41
$GAGSV,2,1,07,07,20,041,37,19,53,234,37,21,49,327,45,23,01,318,,7*7F
$GAGSV,2,2,07,27,71,111,43,29,73,016,40,30,20,132,,7*4C
$GBGSV,4,1,15,01,34,327,40,03,14,292,37,04,38,347,,06,21,261,39,1*7D
$GBGSV,4,2,15,08,36,285,35,09,06,265,,11,14,119,,12,00,165,,1*73
$GBGSV,4,3,15,13,35,266,41,16,26,259,41,19,17,219,43,20,52,262,,1*7E
$GBGSV,4,4,15,23,50,120,46,25,02,110,,28,03,039,,1*41
$GNGLL,4442.99538,S,16910.70696,E,020944.00,A,A*68


$GNRMC,020945.00,A,4442.99538,S,16910.70696,E,0.005,,220525,,,A,V*0D
$GNVTG,,T,,M,0.005,N,0.009,K,A*31
$GNGGA,020945.00,4442.99538,S,16910.70696,E,1,12,0.50,340.7,M,4.6,M,,*68
$GNGSA,A,3,04,07,08,09,16,20,26,27,,,,,0.92,0.50,0.77,1*09
$GNGSA,A,3,78,77,79,69,87,67,68,86,,,,,0.92,0.50,0.77,2*0C
$GNGSA,A,3,07,19,21,27,29,,,,,,,,0.92,0.50,0.77,3*0F
$GNGSA,A,3,01,03,06,08,19,13,16,23,,,,,0.92,0.50,0.77,4*0A
$GPGSV,4,1,13,04,58,024,45,07,43,252,48,08,29,029,41,09,74,276,44,1*60
$GPGSV,4,2,13,16,47,126,42,20,11,220,41,26,19,126,39,27,40,074,43,1*66
$GPGSV,4,3,13,30,10,261,,31,01,089,,44,03,078,,46,11,069,39,1*6F
$GPGSV,4,4,13,50,24,308,40,1*5A
$GLGSV,3,1,09,67,24,010,46,68,68,326,47,69,44,221,48,77,19,130,37,1*7F
$GLGSV,3,2,09,78,71,185,41,79,39,285,47,86,08,163,41,87,14,121,38,1*7C
$GLGSV,3,3,09,88,01,067,,1*41
$GAGSV,2,1,07,07,20,041,37,19,53,234,37,21,49,327,45,23,01,318,,7*7F
$GAGSV,2,2,07,27,71,111,44,29,73,016,40,30,20,132,,7*4B
$GBGSV,4,1,15,01,34,327,40,03,14,292,37,04,38,347,,06,21,261,39,1*7D
$GBGSV,4,2,15,08,36,285,35,09,06,265,,11,14,119,,12,00,165,,1*73
$GBGSV,4,3,15,13,35,266,40,16,26,259,41,19,17,219,43,20,52,262,,1*7F
$GBGSV,4,4,15,23,50,120,46,25,02,110,,28,03,039,,1*41
$GNGLL,4442.99538,S,16910.70696,E,020945.00,A,A*69


$GNRMC,020946.00,A,4442.99537,S,16910.70695,E,0.002,,220525,,,A,V*05
$GNVTG,,T,,M,0.002,N,0.004,K,A*3B
$GNGGA,020946.00,4442.99537,S,16910.70695,E,1,12,0.50,340.7,M,4.6,M,,*67
$GNGSA,A,3,04,07,08,09,16,20,26,27,,,,,0.90,0.50,0.75,1*09
$GNGSA,A,3,78,77,79,69,87,67,68,86,,,,,0.90,0.50,0.75,2*0C
$GNGSA,A,3,07,19,21,27,29,,,,,,,,0.90,0.50,0.75,3*0F
$GNGSA,A,3,01,03,06,08,19,13,16,23,,,,,0.90,0.50,0.75,4*0A
$GPGSV,4,1,13,04,58,024,45,07,43,252,48,08,29,029,41,09,74,276,44,1*60
$GPGSV,4,2,13,16,47,126,42,20,11,220,42,26,19,126,40,27,40,074,43,1*6B
$GPGSV,4,3,13,30,10,261,,31,01,089,,44,03,078,,46,11,069,39,1*6F
$GPGSV,4,4,13,50,24,308,40,1*5A
$GLGSV,3,1,09,67,24,010,46,68,68,326,47,69,44,221,48,77,19,130,36,1*7E
$GLGSV,3,2,09,78,71,185,41,79,39,285,47,86,08,163,41,87,14,121,38,1*7C
$GLGSV,3,3,09,88,01,067,,1*41
$GAGSV,2,1,07,07,20,041,37,19,53,234,37,21,49,327,45,23,01,318,,7*7F
$GAGSV,2,2,07,27,71,111,44,29,73,016,40,30,20,132,,7*4B
$GBGSV,4,1,15,01,34,327,40,03,14,292,37,04,38,347,,06,21,261,39,1*7D
$GBGSV,4,2,15,08,36,285,36,09,06,265,,11,14,119,,12,00,165,,1*70
$GBGSV,4,3,15,13,35,266,41,16,26,259,41,19,17,219,43,20,52,262,,1*7E
$GBGSV,4,4,15,23,50,120,46,25,02,110,,28,03,039,,1*41
$GNGLL,4442.99537,S,16910.70695,E,020946.00,A,A*66


$GNRMC,020947.00,A,4442.99536,S,16910.70694,E,0.011,,220525,,,A,V*06
$GNVTG,,T,,M,0.011,N,0.020,K,A*3F
$GNGGA,020947.00,4442.99536,S,16910.70694,E,1,12,0.50,340.7,M,4.6,M,,*66
$GNGSA,A,3,04,07,08,09,16,20,26,27,,,,,0.92,0.50,0.77,1*09
$GNGSA,A,3,78,77,79,69,87,67,68,86,,,,,0.92,0.50,0.77,2*0C
$GNGSA,A,3,07,19,21,27,29,,,,,,,,0.92,0.50,0.77,3*0F
$GNGSA,A,3,01,03,06,08,19,13,16,23,,,,,0.92,0.50,0.77,4*0A
$GPGSV,4,1,13,04,58,024,45,07,43,252,48,08,29,029,41,09,74,276,44,1*60
$GPGSV,4,2,13,16,47,126,42,20,11,220,42,26,19,126,40,27,40,074,43,1*6B
$GPGSV,4,3,13,30,10,261,,31,01,089,,44,03,078,,46,11,069,39,1*6F
$GPGSV,4,4,13,50,24,308,40,1*5A
$GLGSV,3,1,09,67,24,010,46,68,68,326,47,69,44,221,49,77,19,130,36,1*7F
$GLGSV,3,2,09,78,71,185,41,79,39,285,47,86,08,163,41,87,14,121,38,1*7C
$GLGSV,3,3,09,88,01,067,,1*41
$GAGSV,2,1,07,07,20,041,37,19,53,234,37,21,49,327,45,23,01,318,,7*7F
$GAGSV,2,2,07,27,71,111,44,29,73,016,40,30,20,132,,7*4B
$GBGSV,4,1,15,01,34,327,40,03,14,292,37,04,38,347,,06,21,261,39,1*7D
$GBGSV,4,2,15,08,36,285,36,09,06,265,,11,14,119,,12,00,165,,1*70
$GBGSV,4,3,15,13,35,266,41,16,26,259,41,19,17,219,43,20,52,262,,1*7E
$GBGSV,4,4,15,23,50,120,46,25,02,110,,28,03,039,,1*41
$GNGLL,4442.99536,S,16910.70694,E,020947.00,A,A*67


$GNRMC,020948.00,A,4442.99535,S,16910.70692,E,0.016,,220525,,,A,V*0B
$GNVTG,,T,,M,0.016,N,0.029,K,A*31
$GNGGA,020948.00,4442.99535,S,16910.70692,E,1,12,0.50,340.7,M,4.6,M,,*6C
$GNGSA,A,3,04,07,08,09,16,20,26,27,,,,,0.90,0.50,0.75,1*09
$GNGSA,A,3,78,77,79,69,87,67,68,86,,,,,0.90,0.50,0.75,2*0C
$GNGSA,A,3,07,19,21,27,29,,,,,,,,0.90,0.50,0.75,3*0F
$GNGSA,A,3,01,03,06,08,19,13,16,23,,,,,0.90,0.50,0.75,4*0A
$GPGSV,4,1,13,04,58,024,45,07,43,252,48,08,29,029,41,09,74,276,44,1*60
$GPGSV,4,2,13,16,47,126,42,20,11,220,42,26,19,126,40,27,40,074,42,1*6A
$GPGSV,4,3,13,30,10,261,,31,01,089,,44,03,078,,46,11,069,39,1*6F
$GPGSV,4,4,13,50,24,308,40,1*5A
$GLGSV,3,1,09,67,24,010,46,68,68,326,47,69,44,221,49,77,19,130,36,1*7F
$GLGSV,3,2,09,78,71,185,41,79,39,285,47,86,08,163,41,87,14,121,39,1*7D
$GLGSV,3,3,09,88,01,067,,1*41
$GAGSV,2,1,07,07,20,041,38,19,53,234,36,21,49,327,45,23,01,318,,7*71
$GAGSV,2,2,07,27,71,111,44,29,73,016,40,30,20,132,,7*4B
$GBGSV,4,1,15,01,34,327,40,03,14,292,37,04,38,347,,06,21,261,39,1*7D
$GBGSV,4,2,15,08,36,285,36,09,06,265,,11,14,119,,12,00,165,,1*70
$GBGSV,4,3,15,13,35,266,41,16,26,259,41,19,17,219,43,20,52,262,,1*7E
$GBGSV,4,4,15,23,50,120,46,25,02,110,,28,03,039,,1*41
$GNGLL,4442.99535,S,16910.70692,E,020948.00,A,A*6D


$GNRMC,020949.00,A,4442.99535,S,16910.70691,E,0.015,,220525,,,A,V*0A
$GNVTG,,T,,M,0.015,N,0.029,K,A*32
$GNGGA,020949.00,4442.99535,S,16910.70691,E,1,12,0.50,340.7,M,4.6,M,,*6E
$GNGSA,A,3,04,07,08,09,16,20,26,27,,,,,0.90,0.50,0.75,1*09
$GNGSA,A,3,78,77,79,69,87,67,68,86,,,,,0.90,0.50,0.75,2*0C
$GNGSA,A,3,07,19,21,27,29,,,,,,,,0.90,0.50,0.75,3*0F
$GNGSA,A,3,01,03,06,08,19,13,16,23,,,,,0.90,0.50,0.75,4*0A
$GPGSV,4,1,13,04,58,024,45,07,43,252,48,08,29,029,41,09,74,276,44,1*60
$GPGSV,4,2,13,16,47,126,42,20,11,220,42,26,19,126,40,27,40,074,42,1*6A
$GPGSV,4,3,13,30,10,261,,31,01,089,,44,03,078,,46,11,069,39,1*6F
$GPGSV,4,4,13,50,24,308,40,1*5A
$GLGSV,3,1,09,67,24,010,46,68,68,326,47,69,44,221,49,77,19,130,36,1*7F
$GLGSV,3,2,09,78,71,185,41,79,39,285,47,86,08,163,41,87,14,121,39,1*7D
$GLGSV,3,3,09,88,01,067,,1*41
$GAGSV,2,1,07,07,20,041,38,19,53,235,36,21,49,327,45,23,01,318,,7*70
$GAGSV,2,2,07,27,71,111,43,29,73,016,40,30,20,132,,7*4C
$GBGSV,4,1,15,01,34,327,40,03,14,292,37,04,38,347,,06,21,261,39,1*7D
$GBGSV,4,2,15,08,36,285,36,09,06,265,,11,14,119,,12,00,165,,1*70
$GBGSV,4,3,15,13,35,266,41,16,26,259,41,19,17,219,43,20,52,262,,1*7E
$GBGSV,4,4,15,23,50,120,46,25,02,110,,28,03,039,,1*41
$GNGLL,4442.99535,S,16910.70691,E,020949.00,A,A*6F


$GNRMC,020950.00,A,4442.99534,S,16910.70690,E,0.009,,220525,,,A,V*0F
$GNVTG,,T,,M,0.009,N,0.016,K,A*33
$GNGGA,020950.00,4442.99534,S,16910.70690,E,1,12,0.50,340.8,M,4.6,M,,*69
$GNGSA,A,3,04,07,08,09,16,20,26,27,,,,,0.90,0.50,0.75,1*09
$GNGSA,A,3,78,77,79,69,87,67,68,86,,,,,0.90,0.50,0.75,2*0C
$GNGSA,A,3,07,19,21,27,29,,,,,,,,0.90,0.50,0.75,3*0F
$GNGSA,A,3,01,03,06,08,19,13,16,23,,,,,0.90,0.50,0.75,4*0A
$GPGSV,4,1,13,04,58,024,44,07,43,252,47,08,29,029,41,09,74,276,44,1*6E
$GPGSV,4,2,13,16,47,126,42,20,11,220,42,26,19,126,40,27,40,074,41,1*69
$GPGSV,4,3,13,30,10,261,,31,01,089,,44,03,078,,46,11,069,39,1*6F
$GPGSV,4,4,13,50,24,308,40,1*5A
$GLGSV,3,1,09,67,24,010,46,68,68,326,47,69,44,221,49,77,19,130,35,1*7C
$GLGSV,3,2,09,78,71,185,41,79,39,285,47,86,08,163,41,87,14,121,40,1*73
$GLGSV,3,3,09,88,01,067,,1*41
$GAGSV,2,1,07,07,20,041,38,19,53,235,36,21,49,327,45,23,01,318,,7*70
$GAGSV,2,2,07,27,71,111,43,29,73,016,40,30,20,132,,7*4C
$GBGSV,4,1,15,01,34,327,40,03,14,292,37,04,38,347,,06,21,261,39,1*7D
$GBGSV,4,2,15,08,36,285,36,09,06,265,,11,14,119,,12,00,165,,1*70
$GBGSV,4,3,15,13,35,266,41,16,26,259,41,19,17,219,43,20,52,262,,1*7E
$GBGSV,4,4,15,23,50,120,46,25,02,110,,28,03,039,,1*41
$GNGLL,4442.99534,S,16910.70690,E,020950.00,A,A*67


$GNRMC,020951.00,A,4442.99534,S,16910.70690,E,0.006,,220525,,,A,V*01
$GNVTG,,T,,M,0.006,N,0.011,K,A*3B
$GNGGA,020951.00,4442.99534,S,16910.70690,E,1,12,0.50,340.8,M,4.6,M,,*68
$GNGSA,A,3,04,07,08,09,16,20,26,27,,,,,0.90,0.50,0.75,1*09
$GNGSA,A,3,78,77,79,69,87,67,68,86,,,,,0.90,0.50,0.75,2*0C
$GNGSA,A,3,07,19,21,27,29,,,,,,,,0.90,0.50,0.75,3*0F
$GNGSA,A,3,01,03,06,08,19,13,16,23,,,,,0.90,0.50,0.75,4*0A
$GPGSV,4,1,13,04,58,024,44,07,43,252,47,08,29,029,41,09,74,276,44,1*6E
$GPGSV,4,2,13,16,47,126,42,20,11,220,42,26,19,126,40,27,40,075,41,1*68
$GPGSV,4,3,13,30,10,261,,31,01,089,,44,03,078,,46,11,069,39,1*6F
$GPGSV,4,4,13,50,24,308,40,1*5A
$GLGSV,3,1,09,67,24,010,45,68,68,326,47,69,44,221,49,77,19,130,35,1*7F
$GLGSV,3,2,09,78,71,185,41,79,39,285,47,86,08,163,41,87,14,121,40,1*73
$GLGSV,3,3,09,88,01,067,,1*41
$GAGSV,2,1,07,07,20,041,38,19,53,235,36,21,49,327,45,23,01,318,,7*70
$GAGSV,2,2,07,27,71,111,43,29,73,016,40,30,20,132,,7*4C
$GBGSV,4,1,15,01,34,327,40,03,14,292,37,04,38,347,,06,21,261,39,1*7D
$GBGSV,4,2,15,08,36,285,36,09,06,265,,11,14,119,,12,00,165,,1*70
$GBGSV,4,3,15,13,35,266,41,16,26,259,41,19,17,219,43,20,52,262,,1*7E
$GBGSV,4,4,15,23,50,120,46,25,02,110,,28,03,039,,1*41
$GNGLL,4442.99534,S,16910.70690,E,020951.00,A,A*66


$GNRMC,020952.00,A,4442.99533,S,16910.70689,E,0.003,,220525,,,A,V*08
$GNVTG,,T,,M,0.003,N,0.006,K,A*38
$GNGGA,020952.00,4442.99533,S,16910.70689,E,1,12,0.50,340.8,M,4.6,M,,*64
$GNGSA,A,3,04,07,08,09,16,20,26,27,,,,,0.90,0.50,0.75,1*09
$GNGSA,A,3,78,77,79,69,87,67,68,86,,,,,0.90,0.50,0.75,2*0C
$GNGSA,A,3,07,19,21,27,29,,,,,,,,0.90,0.50,0.75,3*0F
$GNGSA,A,3,01,03,06,08,19,13,16,23,,,,,0.90,0.50,0.75,4*0A
$GPGSV,4,1,13,04,58,024,44,07,43,252,47,08,29,029,41,09,74,276,44,1*6E
$GPGSV,4,2,13,16,47,126,42,20,11,220,42,26,19,126,40,27,40,075,42,1*6B
$GPGSV,4,3,13,30,10,261,,31,01,089,,44,03,078,,46,11,069,39,1*6F
$GPGSV,4,4,13,50,24,308,40,1*5A
$GLGSV,3,1,09,67,24,010,45,68,68,326,47,69,44,221,49,77,19,130,35,1*7F
$GLGSV,3,2,09,78,71,185,41,79,39,285,47,86,08,163,41,87,14,121,39,1*7D
$GLGSV,3,3,09,88,01,067,,1*41
$GAGSV,2,1,07,07,20,041,38,19,53,235,36,21,49,327,45,23,01,318,,7*70
$GAGSV,2,2,07,27,71,111,43,29,73,016,41,30,20,132,,7*4D
$GBGSV,4,1,15,01,34,327,40,03,14,292,37,04,38,347,,06,21,261,39,1*7D
$GBGSV,4,2,15,08,36,285,36,09,06,265,,11,14,119,,12,00,165,,1*70
$GBGSV,4,3,15,13,35,266,41,16,26,259,41,19,17,219,42,20,52,262,,1*7F
$GBGSV,4,4,15,23,50,120,46,25,02,110,,28,03,039,,1*41
$GNGLL,4442.99533,S,16910.70689,E,020952.00,A,A*6A


$GNRMC,020953.00,A,4442.99532,S,16910.70687,E,0.006,,220525,,,A,V*03
$GNVTG,,T,,M,0.006,N,0.010,K,A*3A
$GNGGA,020953.00,4442.99532,S,16910.70687,E,1,12,0.50,340.8,M,4.6,M,,*6A
$GNGSA,A,3,04,07,08,09,16,20,26,27,,,,,0.90,0.50,0.75,1*09
$GNGSA,A,3,78,77,79,69,87,67,68,86,,,,,0.90,0.50,0.75,2*0C
$GNGSA,A,3,07,19,21,27,29,,,,,,,,0.90,0.50,0.75,3*0F
$GNGSA,A,3,01,03,06,08,19,13,16,23,,,,,0.90,0.50,0.75,4*0A
$GPGSV,4,1,13,04,58,024,44,07,43,252,47,08,29,029,41,09,74,276,44,1*6E
$GPGSV,4,2,13,16,47,126,42,20,11,220,41,26,19,126,40,27,40,075,42,1*68
$GPGSV,4,3,13,30,10,261,,31,01,089,,44,03,078,,46,11,069,39,1*6F
$GPGSV,4,4,13,50,24,308,40,1*5A
$GLGSV,3,1,09,67,24,010,45,68,68,326,47,69,44,221,49,77,19,130,35,1*7F
$GLGSV,3,2,09,78,71,185,41,79,39,285,47,86,08,163,41,87,14,121,39,1*7D
$GLGSV,3,3,09,88,01,067,,1*41
$GAGSV,2,1,07,07,20,041,38,19,53,235,36,21,49,327,45,23,01,318,,7*70
$GAGSV,2,2,07,27,71,111,43,29,73,016,41,30,20,132,,7*4D
$GBGSV,4,1,15,01,34,327,40,03,14,292,37,04,38,347,,06,21,261,39,1*7D
$GBGSV,4,2,15,08,36,285,36,09,06,265,,11,14,119,,12,00,165,,1*70
$GBGSV,4,3,15,13,35,266,41,16,26,259,41,19,17,219,42,20,52,262,,1*7F
$GBGSV,4,4,15,23,50,120,46,25,02,110,,28,03,039,,1*41
$GNGLL,4442.99532,S,16910.70687,E,020953.00,A,A*64


$GNRMC,020954.00,A,4442.99531,S,16910.70686,E,0.003,,220525,,,A,V*03
$GNVTG,,T,,M,0.003,N,0.005,K,A*3B
$GNGGA,020954.00,4442.99531,S,16910.70686,E,1,12,0.50,340.8,M,4.6,M,,*6F
$GNGSA,A,3,04,07,08,09,16,20,26,27,,,,,0.90,0.50,0.75,1*09
$GNGSA,A,3,78,77,79,69,87,67,68,86,,,,,0.90,0.50,0.75,2*0C
$GNGSA,A,3,07,19,21,27,29,,,,,,,,0.90,0.50,0.75,3*0F
$GNGSA,A,3,01,03,06,08,19,13,16,23,,,,,0.90,0.50,0.75,4*0A
$GPGSV,4,1,13,04,58,024,44,07,43,252,47,08,29,029,41,09,74,276,44,1*6E
$GPGSV,4,2,13,16,47,126,42,20,11,220,41,26,19,126,40,27,40,075,43,1*69
$GPGSV,4,3,13,30,10,261,,31,01,089,,44,03,078,,46,11,069,39,1*6F
$GPGSV,4,4,13,50,24,308,40,1*5A
$GLGSV,3,1,09,67,24,010,45,68,68,326,48,69,44,221,49,77,19,130,35,1*70
$GLGSV,3,2,09,78,71,185,40,79,39,285,47,86,08,163,41,87,14,121,39,1*7C
$GLGSV,3,3,09,88,01,067,,1*41
$GAGSV,2,1,07,07,20,041,38,19,53,235,36,21,49,327,45,23,01,318,,7*70
$GAGSV,2,2,07,27,71,111,43,29,73,016,41,30,20,132,,7*4D
$GBGSV,4,1,15,01,34,327,40,03,14,292,37,04,38,347,,06,21,261,39,1*7D
$GBGSV,4,2,15,08,36,285,35,09,06,265,,11,14,119,,12,00,165,,1*73
$GBGSV,4,3,15,13,35,266,41,16,26,259,41,19,17,219,42,20,52,262,,1*7F
$GBGSV,4,4,15,23,50,120,46,25,02,110,,28,03,039,,1*41
$GNGLL,4442.99531,S,16910.70686,E,020954.00,A,A*61


$GNRMC,020955.00,A,4442.99531,S,16910.70685,E,0.002,,220525,,,A,V*00
$GNVTG,,T,,M,0.002,N,0.003,K,A*3C
$GNGGA,020955.00,4442.99531,S,16910.70685,E,1,12,0.50,340.8,M,4.6,M,,*6D
$GNGSA,A,3,04,07,08,09,16,20,26,27,,,,,0.90,0.50,0.75,1*09
$GNGSA,A,3,78,77,79,69,87,67,68,86,,,,,0.90,0.50,0.75,2*0C
$GNGSA,A,3,07,19,21,27,29,,,,,,,,0.90,0.50,0.75,3*0F
$GNGSA,A,3,01,03,06,08,19,13,16,23,,,,,0.90,0.50,0.75,4*0A
$GPGSV,4,1,13,04,58,024,44,07,43,252,47,08,29,029,41,09,74,276,44,1*6E
$GPGSV,4,2,13,16,47,126,42,20,11,220,42,26,19,126,40,27,40,075,43,1*6A
$GPGSV,4,3,13,30,10,261,,31,00,089,,44,03,078,,46,11,069,39,1*6E
$GPGSV,4,4,13,50,24,308,40,1*5A
$GLGSV,3,1,09,67,24,010,45,68,68,326,48,69,44,221,49,77,19,130,35,1*70
$GLGSV,3,2,09,78,71,185,40,79,39,285,47,86,08,163,42,87,14,121,40,1*71
$GLGSV,3,3,09,88,01,067,,1*41
$GAGSV,2,1,07,07,20,041,38,19,53,235,36,21,49,327,45,23,01,318,,7*70
$GAGSV,2,2,07,27,71,111,43,29,73,016,41,30,20,132,,7*4D
$GBGSV,4,1,15,01,34,327,40,03,14,292,37,04,38,347,,06,21,261,39,1*7D
$GBGSV,4,2,15,08,36,285,36,09,06,265,,11,14,119,,12,00,165,,1*70
$GBGSV,4,3,15,13,35,266,41,16,26,259,41,19,17,219,42,20,52,262,,1*7F
$GBGSV,4,4,15,23,50,120,46,25,02,110,,28,03,039,,1*41
$GNGLL,4442.99531,S,16910.70685,E,020955.00,A,A*63


$GNRMC,020956.00,A,4442.99531,S,16910.70684,E,0.003,,220525,,,A,V*03
$GNVTG,,T,,M,0.003,N,0.006,K,A*38
$GNGGA,020956.00,4442.99531,S,16910.70684,E,1,12,0.50,340.7,M,4.6,M,,*60
$GNGSA,A,3,04,07,08,09,16,20,26,27,,,,,0.90,0.50,0.75,1*09
$GNGSA,A,3,78,77,79,69,87,67,68,86,,,,,0.90,0.50,0.75,2*0C
$GNGSA,A,3,07,19,21,27,29,,,,,,,,0.90,0.50,0.75,3*0F
$GNGSA,A,3,01,03,06,08,19,13,16,23,,,,,0.90,0.50,0.75,4*0A
$GPGSV,4,1,13,04,58,024,44,07,43,252,47,08,29,029,41,09,74,276,44,1*6E
$GPGSV,4,2,13,16,47,126,42,20,11,220,42,26,19,126,40,27,40,075,43,1*6A
$GPGSV,4,3,13,30,10,261,,31,00,089,,44,03,078,,46,11,069,39,1*6E
$GPGSV,4,4,13,50,24,308,40,1*5A
$GLGSV,3,1,09,67,24,010,45,68,68,326,47,69,44,221,49,77,19,130,35,1*7F
$GLGSV,3,2,09,78,71,185,40,79,39,285,47,86,08,163,42,87,14,121,39,1*7F
$GLGSV,3,3,09,88,01,067,,1*41
$GAGSV,2,1,07,07,20,041,39,19,53,235,36,21,49,327,45,23,01,318,,7*71
$GAGSV,2,2,07,27,71,111,43,29,73,016,41,30,20,132,,7*4D
$GBGSV,4,1,15,01,34,327,40,03,14,292,37,04,38,347,,06,21,261,39,1*7D
$GBGSV,4,2,15,08,36,285,35,09,06,265,,11,14,119,,12,00,165,,1*73
$GBGSV,4,3,15,13,35,266,41,16,26,259,40,19,17,219,42,20,52,262,,1*7E
$GBGSV,4,4,15,23,50,120,46,25,02,110,,28,03,039,,1*41
$GNGLL,4442.99531,S,16910.70684,E,020956.00,A,A*61


$GNRMC,020957.00,A,4442.99532,S,16910.70684,E,0.005,,220525,,,A,V*07
$GNVTG,,T,,M,0.005,N,0.010,K,A*39
$GNGGA,020957.00,4442.99532,S,16910.70684,E,1,12,0.50,340.8,M,4.6,M,,*6D
$GNGSA,A,3,04,07,08,09,16,20,26,27,,,,,0.90,0.50,0.75,1*09
$GNGSA,A,3,78,77,79,69,87,67,68,86,,,,,0.90,0.50,0.75,2*0C
$GNGSA,A,3,07,19,21,27,29,,,,,,,,0.90,0.50,0.75,3*0F
$GNGSA,A,3,01,03,06,08,19,13,16,23,,,,,0.90,0.50,0.75,4*0A
$GPGSV,4,1,13,04,58,024,44,07,43,252,47,08,29,029,41,09,74,276,44,1*6E
$GPGSV,4,2,13,16,47,126,42,20,11,220,42,26,19,126,40,27,40,075,43,1*6A
$GPGSV,4,3,13,30,10,261,,31,00,089,,44,03,078,,46,11,069,39,1*6E
$GPGSV,4,4,13,50,24,308,40,1*5A
$GLGSV,3,1,09,67,24,010,45,68,68,326,47,69,44,221,48,77,19,130,36,1*7D
$GLGSV,3,2,09,78,71,185,40,79,39,285,47,86,08,163,42,87,14,121,39,1*7F
$GLGSV,3,3,09,88,01,067,,1*41
$GAGSV,2,1,07,07,20,041,39,19,53,235,36,21,49,327,45,23,01,318,,7*71
$GAGSV,2,2,07,27,71,111,43,29,73,016,41,30,20,132,,7*4D
$GBGSV,4,1,15,01,34,327,40,03,14,292,37,04,38,347,,06,21,261,39,1*7D
$GBGSV,4,2,15,08,36,285,35,09,06,265,,11,14,119,,12,00,165,,1*73
$GBGSV,4,3,15,13,35,266,41,16,26,259,40,19,17,219,42,20,52,262,,1*7E
$GBGSV,4,4,15,23,50,120,46,25,02,110,,28,03,039,,1*41
$GNGLL,4442.99532,S,16910.70684,E,020957.00,A,A*63


$GNRMC,020958.00,A,4442.99533,S,16910.70684,E,0.003,,220525,,,A,V*0F
$GNVTG,,T,,M,0.003,N,0.006,K,A*38
$GNGGA,020958.00,4442.99533,S,16910.70684,E,1,12,0.50,340.8,M,4.6,M,,*63
$GNGSA,A,3,04,07,08,09,16,20,26,27,,,,,0.90,0.50,0.75,1*09
$GNGSA,A,3,78,77,79,69,87,67,68,86,,,,,0.90,0.50,0.75,2*0C
$GNGSA,A,3,07,19,21,27,29,,,,,,,,0.90,0.50,0.75,3*0F
$GNGSA,A,3,01,03,06,08,19,13,16,23,,,,,0.90,0.50,0.75,4*0A
$GPGSV,4,1,13,04,58,024,44,07,43,252,47,08,29,029,41,09,74,276,44,1*6E
$GPGSV,4,2,13,16,47,126,42,20,11,220,41,26,19,126,40,27,40,075,43,1*69
$GPGSV,4,3,13,30,10,261,,31,00,089,,44,03,078,,46,11,069,39,1*6E
$GPGSV,4,4,13,50,24,308,40,1*5A
$GLGSV,3,1,09,67,24,010,45,68,68,326,48,69,44,221,48,77,19,130,36,1*72
$GLGSV,3,2,09,78,71,185,40,79,39,285,47,86,08,163,42,87,14,121,39,1*7F
$GLGSV,3,3,09,88,01,067,,1*41
$GAGSV,2,1,07,07,20,041,39,19,53,235,36,21,49,327,45,23,01,318,,7*71
$GAGSV,2,2,07,27,71,111,43,29,73,016,40,30,20,132,,7*4C
$GBGSV,4,1,15,01,34,327,40,03,14,292,37,04,38,347,,06,21,261,39,1*7D
$GBGSV,4,2,15,08,36,285,35,09,06,265,,11,14,119,,12,00,165,,1*73
$GBGSV,4,3,15,13,35,266,41,16,26,259,41,19,17,219,42,20,52,262,,1*7F
$GBGSV,4,4,15,23,50,120,46,25,02,110,,28,03,039,,1*41
$GNGLL,4442.99533,S,16910.70684,E,020958.00,A,A*6D


$GNRMC,020959.00,A,4442.99533,S,16910.70683,E,0.011,,220525,,,A,V*0A
$GNVTG,,T,,M,0.011,N,0.020,K,A*3F
$GNGGA,020959.00,4442.99533,S,16910.70683,E,1,12,0.50,340.8,M,4.6,M,,*65
$GNGSA,A,3,04,07,08,09,16,20,26,27,,,,,0.90,0.50,0.75,1*09
$GNGSA,A,3,78,77,79,69,87,67,68,86,,,,,0.90,0.50,0.75,2*0C
$GNGSA,A,3,07,19,21,27,29,,,,,,,,0.90,0.50,0.75,3*0F
$GNGSA,A,3,01,03,06,08,19,13,16,23,,,,,0.90,0.50,0.75,4*0A
$GPGSV,4,1,13,04,58,024,44,07,43,252,47,08,29,029,41,09,74,276,44,1*6E
$GPGSV,4,2,13,16,47,126,42,20,11,220,41,26,19,126,40,27,40,075,43,1*69
$GPGSV,4,3,13,30,10,261,,31,00,089,,44,03,078,,46,11,069,39,1*6E
$GPGSV,4,4,13,50,24,308,40,1*5A
$GLGSV,3,1,09,67,24,010,45,68,68,326,47,69,44,221,48,77,19,130,35,1*7E
$GLGSV,3,2,09,78,71,185,40,79,39,285,47,86,08,163,42,87,14,121,39,1*7F
$GLGSV,3,3,09,88,01,067,,1*41
$GAGSV,2,1,07,07,20,041,39,19,53,235,36,21,49,327,44,23,01,318,,7*70
$GAGSV,2,2,07,27,71,111,43,29,73,016,40,30,20,132,,7*4C
$GBGSV,4,1,15,01,34,327,40,03,14,292,37,04,38,347,,06,21,261,39,1*7D
$GBGSV,4,2,15,08,36,285,35,09,06,265,,11,14,119,,12,00,165,,1*73
$GBGSV,4,3,15,13,35,266,41,16,26,259,40,19,17,219,42,20,52,262,,1*7E
$GBGSV,4,4,15,23,50,120,46,25,02,110,,28,03,039,,1*41
$GNGLL,4442.99533,S,16910.70683,E,020959.00,A,A*6B


$GNRMC,021000.00,A,4442.99533,S,16910.70683,E,0.014,,220525,,,A,V*0B
$GNVTG,,T,,M,0.014,N,0.025,K,A*3F
$GNGGA,021000.00,4442.99533,S,16910.70683,E,1,12,0.50,340.9,M,4.6,M,,*60
$GNGSA,A,3,04,07,08,09,16,20,26,27,,,,,0.90,0.50,0.75,1*09
$GNGSA,A,3,78,77,79,69,87,67,68,86,,,,,0.90,0.50,0.75,2*0C
$GNGSA,A,3,07,19,21,27,29,,,,,,,,0.90,0.50,0.75,3*0F
$GNGSA,A,3,01,03,06,08,19,13,16,23,,,,,0.90,0.50,0.75,4*0A
$GPGSV,4,1,13,04,58,024,44,07,43,252,47,08,29,029,41,09,74,276,44,1*6E
$GPGSV,4,2,13,16,47,126,42,20,11,220,41,26,19,126,41,27,40,075,42,1*69
$GPGSV,4,3,13,30,10,261,,31,00,089,,44,03,078,,46,11,069,39,1*6E
$GPGSV,4,4,13,50,24,308,40,1*5A
$GLGSV,3,1,09,67,24,010,45,68,68,326,48,69,44,221,48,77,19,130,35,1*71
$GLGSV,3,2,09,78,71,185,40,79,39,285,47,86,08,163,42,87,14,121,39,1*7F
$GLGSV,3,3,09,88,01,067,,1*41
$GAGSV,2,1,07,07,20,041,39,19,53,235,36,21,49,327,44,23,01,318,,7*70
$GAGSV,2,2,07,27,71,111,43,29,73,016,40,30,20,132,,7*4C
$GBGSV,4,1,15,01,34,327,40,03,14,292,37,04,38,347,,06,21,261,39,1*7D
$GBGSV,4,2,15,08,36,285,35,09,06,265,,11,14,119,,12,00,165,,1*73
$GBGSV,4,3,15,13,35,266,41,16,26,259,40,19,17,219,42,20,52,262,,1*7E
$GBGSV,4,4,15,23,50,120,46,25,02,110,,28,03,039,,1*41
$GNGLL,4442.99533,S,16910.70683,E,021000.00,A,A*6F


$GNRMC,021001.00,A,4442.99532,S,16910.70682,E,0.037,,220525,,,A,V*0B
$GNVTG,,T,,M,0.037,N,0.068,K,A*37
$GNGGA,021001.00,4442.99532,S,16910.70682,E,1,12,0.48,340.9,M,4.6,M,,*68
$GNGSA,A,3,04,07,08,09,16,20,26,27,,,,,0.86,0.48,0.72,1*00
$GNGSA,A,3,78,77,79,69,87,67,68,86,,,,,0.86,0.48,0.72,2*05
$GNGSA,A,3,07,19,21,27,29,,,,,,,,0.86,0.48,0.72,3*06
$GNGSA,A,3,01,03,06,08,19,13,16,23,,,,,0.86,0.48,0.72,4*03
$GPGSV,4,1,13,04,58,024,44,07,43,252,47,08,29,029,41,09,74,276,44,1*6E
$GPGSV,4,2,13,16,47,126,42,20,11,220,41,26,19,126,41,27,40,075,42,1*69
$GPGSV,4,3,13,30,10,261,,31,00,089,,44,03,078,,46,11,069,39,1*6E
$GPGSV,4,4,13,50,24,308,40,1*5A
$GLGSV,3,1,09,67,24,010,45,68,68,326,48,69,44,221,48,77,19,130,35,1*71
$GLGSV,3,2,09,78,71,185,40,79,39,285,48,86,08,163,42,87,14,121,39,1*70
$GLGSV,3,3,09,88,01,067,,1*41
$GAGSV,2,1,07,07,20,041,39,19,53,235,36,21,49,327,44,23,01,318,,7*70
$GAGSV,2,2,07,27,71,111,43,29,73,016,40,30,20,132,,7*4C
$GBGSV,4,1,15,01,34,327,40,03,14,292,37,04,38,347,,06,21,261,39,1*7D
$GBGSV,4,2,15,08,36,285,35,09,06,265,,11,14,119,,12,00,165,,1*73
$GBGSV,4,3,15,13,35,266,41,16,26,259,40,19,17,219,41,20,52,262,,1*7D
$GBGSV,4,4,15,23,50,120,46,25,02,110,,28,03,039,,1*41
$GNGLL,4442.99532,S,16910.70682,E,021001.00,A,A*6E


$GNRMC,021002.00,A,4442.99533,S,16910.70682,E,0.006,,220525,,,A,V*0B
$GNVTG,,T,,M,0.006,N,0.012,K,A*38
$GNGGA,021002.00,4442.99533,S,16910.70682,E,1,12,0.48,340.9,M,4.6,M,,*6A
$GNGSA,A,3,04,07,08,09,16,20,26,27,,,,,0.86,0.48,0.72,1*00
$GNGSA,A,3,78,77,79,69,87,67,68,86,,,,,0.86,0.48,0.72,2*05
$GNGSA,A,3,07,19,21,27,29,,,,,,,,0.86,0.48,0.72,3*06
$GNGSA,A,3,01,03,06,08,19,13,16,23,,,,,0.86,0.48,0.72,4*03
$GPGSV,4,1,13,04,58,024,44,07,43,252,47,08,30,029,41,09,74,276,44,1*66
$GPGSV,4,2,13,16,47,126,42,20,11,221,41,26,19,126,41,27,40,075,42,1*68
$GPGSV,4,3,13,30,10,261,,31,00,089,,44,03,078,,46,11,069,39,1*6E
$GPGSV,4,4,13,50,24,308,40,1*5A
$GLGSV,3,1,09,67,24,010,45,68,68,326,47,69,44,221,49,77,19,130,35,1*7F
$GLGSV,3,2,09,78,71,185,40,79,39,285,48,86,08,163,42,87,14,121,39,1*70
$GLGSV,3,3,09,88,01,067,,1*41
$GAGSV,2,1,07,07,20,041,39,19,53,235,36,21,49,327,44,23,01,318,,7*70
$GAGSV,2,2,07,27,71,111,43,29,73,016,41,30,20,132,,7*4D
$GBGSV,4,1,15,01,34,327,40,03,14,292,37,04,38,347,,06,21,261,39,1*7D
$GBGSV,4,2,15,08,36,285,35,09,06,265,,11,14,119,,12,00,165,,1*73
$GBGSV,4,3,15,13,35,266,41,16,26,259,40,19,17,219,41,20,52,262,,1*7D
$GBGSV,4,4,15,23,50,120,46,25,02,110,,28,03,039,,1*41
$GNGLL,4442.99533,S,16910.70682,E,021002.00,A,A*6C


$GNRMC,021003.00,A,4442.99533,S,16910.70683,E,0.045,,220525,,,A,V*0C
$GNVTG,,T,,M,0.045,N,0.084,K,A*30
$GNGGA,021003.00,4442.99533,S,16910.70683,E,1,12,0.48,340.9,M,4.6,M,,*6A
$GNGSA,A,3,04,07,08,09,16,20,26,27,,,,,0.86,0.48,0.72,1*00
$GNGSA,A,3,78,77,79,69,87,67,68,86,,,,,0.86,0.48,0.72,2*05
$GNGSA,A,3,07,19,21,27,29,,,,,,,,0.86,0.48,0.72,3*06
$GNGSA,A,3,01,03,06,08,19,13,16,23,,,,,0.86,0.48,0.72,4*03
$GPGSV,4,1,13,04,58,024,44,07,43,252,48,08,30,029,42,09,74,276,44,1*6A
$GPGSV,4,2,13,16,47,126,42,20,11,221,41,26,19,126,41,27,40,075,42,1*68
$GPGSV,4,3,13,30,10,261,,31,00,089,,44,03,078,,46,11,069,39,1*6E
$GPGSV,4,4,13,50,24,308,40,1*5A
$GLGSV,3,1,09,67,24,010,45,68,68,326,47,69,44,221,49,77,19,130,34,1*7E
$GLGSV,3,2,09,78,71,185,40,79,39,285,47,86,08,163,42,87,14,121,39,1*7F
$GLGSV,3,3,09,88,01,067,,1*41
$GAGSV,2,1,07,07,20,041,39,19,53,235,36,21,49,327,44,23,01,318,,7*70
$GAGSV,2,2,07,27,71,111,43,29,73,016,41,30,20,132,,7*4D
$GBGSV,4,1,15,01,34,327,40,03,14,292,36,04,38,347,,06,21,261,39,1*7C
$GBGSV,4,2,15,08,36,285,35,09,06,265,,11,14,119,,12,00,165,,1*73
$GBGSV,4,3,15,13,35,266,41,16,26,259,40,19,17,219,41,20,52,262,,1*7D
$GBGSV,4,4,15,23,50,120,46,25,02,110,,28,03,039,,1*41
$GNGLL,4442.99533,S,16910.70683,E,021003.00,A,A*6C


$GNRMC,021004.00,A,4442.99533,S,16910.70685,E,0.003,,220525,,,A,V*0F
$GNVTG,,T,,M,0.003,N,0.006,K,A*38
$GNGGA,021004.00,4442.99533,S,16910.70685,E,1,12,0.48,340.9,M,4.6,M,,*6B
$GNGSA,A,3,04,07,08,09,16,20,26,27,,,,,0.86,0.48,0.72,1*00
$GNGSA,A,3,78,77,79,69,87,67,68,86,,,,,0.86,0.48,0.72,2*05
$GNGSA,A,3,07,19,21,27,29,,,,,,,,0.86,0.48,0.72,3*06
$GNGSA,A,3,01,03,06,08,19,13,16,23,,,,,0.86,0.48,0.72,4*03
$GPGSV,4,1,13,04,58,024,44,07,43,252,47,08,30,029,42,09,74,276,44,1*65
$GPGSV,4,2,13,16,47,126,42,20,11,221,41,26,19,126,41,27,40,075,42,1*68
$GPGSV,4,3,13,30,10,261,,31,00,089,,44,03,078,,46,11,069,39,1*6E
$GPGSV,4,4,13,50,24,308,40,1*5A
$GLGSV,3,1,09,67,24,010,45,68,68,326,47,69,44,221,49,77,19,130,34,1*7E
$GLGSV,3,2,09,78,71,185,40,79,39,285,47,86,08,163,42,87,14,121,39,1*7F
$GLGSV,3,3,09,88,01,067,,1*41
$GAGSV,2,1,07,07,20,041,40,19,53,235,36,21,49,327,45,23,01,318,,7*7F
$GAGSV,2,2,07,27,71,111,43,29,73,016,41,30,20,132,,7*4D
$GBGSV,4,1,15,01,34,327,40,03,14,292,37,04,38,347,,06,21,261,39,1*7D
$GBGSV,4,2,15,08,36,285,35,09,06,265,,11,14,119,,12,00,165,,1*73
$GBGSV,4,3,15,13,35,266,41,16,26,259,40,19,17,219,41,20,52,262,,1*7D
$GBGSV,4,4,15,23,50,120,46,25,02,110,,28,03,039,,1*41
$GNGLL,4442.99533,S,16910.70685,E,021004.00,A,A*6D


$GNRMC,021005.00,A,4442.99534,S,16910.70687,E,0.004,,220525,,,A,V*0C
$GNVTG,,T,,M,0.004,N,0.008,K,A*31
$GNGGA,021005.00,4442.99534,S,16910.70687,E,1,12,0.48,341.0,M,4.6,M,,*67
$GNGSA,A,3,04,07,08,09,16,20,26,27,,,,,0.86,0.48,0.72,1*00
$GNGSA,A,3,78,77,79,69,87,67,68,86,,,,,0.86,0.48,0.72,2*05
$GNGSA,A,3,07,19,21,27,29,,,,,,,,0.86,0.48,0.72,3*06
$GNGSA,A,3,01,03,06,08,19,13,16,23,,,,,0.86,0.48,0.72,4*03
$GPGSV,4,1,13,04,58,024,44,07,43,252,47,08,30,029,42,09,74,276,44,1*65
$GPGSV,4,2,13,16,47,126,42,20,11,221,41,26,19,126,41,27,40,075,42,1*68
$GPGSV,4,3,13,30,10,261,,31,00,089,,44,03,078,,46,11,069,39,1*6E
$GPGSV,4,4,13,50,24,308,40,1*5A
$GLGSV,3,1,09,67,24,010,45,68,68,326,47,69,44,221,49,77,19,130,34,1*7E
$GLGSV,3,2,09,78,71,185,40,79,39,285,47,86,08,163,42,87,14,121,39,1*7F
$GLGSV,3,3,09,88,01,067,,1*41
$GAGSV,2,1,07,07,20,041,40,19,53,235,36,21,49,327,45,23,01,318,,7*7F
$GAGSV,2,2,07,27,71,111,43,29,73,016,41,30,20,132,,7*4D
$GBGSV,4,1,15,01,34,327,40,03,14,292,37,04,38,347,,06,21,261,39,1*7D
$GBGSV,4,2,15,08,36,285,35,09,06,265,,11,14,119,,12,00,165,,1*73
$GBGSV,4,3,15,13,35,266,41,16,26,259,40,19,17,219,41,20,52,262,,1*7D
$GBGSV,4,4,15,23,50,120,46,25,02,110,,28,03,039,,1*41
$GNGLL,4442.99534,S,16910.70687,E,021005.00,A,A*69


$GNRMC,021006.00,A,4442.99534,S,16910.70689,E,0.006,,220525,,,A,V*03
$GNVTG,,T,,M,0.006,N,0.011,K,A*3B
$GNGGA,021006.00,4442.99534,S,16910.70689,E,1,12,0.48,341.0,M,4.6,M,,*6A
$GNGSA,A,3,04,07,08,09,16,20,26,27,,,,,0.86,0.48,0.72,1*00
$GNGSA,A,3,78,77,79,69,87,67,68,86,,,,,0.86,0.48,0.72,2*05
$GNGSA,A,3,07,19,21,27,29,,,,,,,,0.86,0.48,0.72,3*06
$GNGSA,A,3,01,03,06,08,19,13,16,23,,,,,0.86,0.48,0.72,4*03
$GPGSV,4,1,13,04,58,024,44,07,43,252,47,08,30,029,41,09,74,276,44,1*66
$GPGSV,4,2,13,16,47,126,42,20,11,221,41,26,19,126,41,27,40,075,42,1*68
$GPGSV,4,3,13,30,10,261,,31,00,089,,44,03,078,,46,11,069,39,1*6E
$GPGSV,4,4,13,50,24,308,40,1*5A
$GLGSV,3,1,09,67,24,010,45,68,68,326,47,69,44,221,48,77,19,130,34,1*7F
$GLGSV,3,2,09,78,71,185,40,79,39,285,47,86,08,163,42,87,14,121,39,1*7F
$GLGSV,3,3,09,88,01,067,,1*41
$GAGSV,2,1,07,07,20,041,40,19,53,235,35,21,49,327,45,23,01,318,,7*7C
$GAGSV,2,2,07,27,71,111,43,29,73,016,41,30,20,132,,7*4D
$GBGSV,4,1,15,01,34,327,40,03,14,292,37,04,38,347,,06,21,261,39,1*7D
$GBGSV,4,2,15,08,36,285,35,09,06,265,,11,14,119,,12,00,165,,1*73
$GBGSV,4,3,15,13,35,266,41,16,26,259,40,19,17,219,41,20,52,262,,1*7D
$GBGSV,4,4,15,23,50,120,46,25,02,110,,28,03,039,,1*41
$GNGLL,4442.99534,S,16910.70689,E,021006.00,A,A*64


$GNRMC,021007.00,A,4442.99534,S,16910.70691,E,0.002,,220525,,,A,V*0F
$GNVTG,,T,,M,0.002,N,0.004,K,A*3B
$GNGGA,021007.00,4442.99534,S,16910.70691,E,1,12,0.48,341.1,M,4.6,M,,*63
$GNGSA,A,3,04,07,08,09,16,20,26,27,,,,,0.86,0.48,0.72,1*00
$GNGSA,A,3,78,77,79,69,87,67,68,86,,,,,0.86,0.48,0.72,2*05
$GNGSA,A,3,07,19,21,27,29,,,,,,,,0.86,0.48,0.72,3*06
$GNGSA,A,3,01,03,06,08,19,13,16,23,,,,,0.86,0.48,0.72,4*03
$GPGSV,4,1,13,04,58,024,43,07,43,252,47,08,30,029,41,09,74,276,44,1*61
$GPGSV,4,2,13,16,47,126,42,20,11,221,41,26,19,126,41,27,40,075,42,1*68
$GPGSV,4,3,13,30,10,261,,31,00,089,,44,03,078,,46,11,069,40,1*60
$GPGSV,4,4,13,50,24,308,40,1*5A
$GLGSV,3,1,09,67,24,010,45,68,68,326,47,69,44,221,48,77,19,130,34,1*7F
$GLGSV,3,2,09,78,71,185,40,79,39,285,47,86,08,163,42,87,14,121,39,1*7F
$GLGSV,3,3,09,88,01,067,,1*41
$GAGSV,2,1,07,07,20,041,40,19,53,235,35,21,49,327,44,23,01,318,,7*7D
$GAGSV,2,2,07,27,71,111,44,29,73,016,41,30,20,132,,7*4A
$GBGSV,4,1,15,01,34,327,41,03,14,292,37,04,38,347,,06,21,261,39,1*7C
$GBGSV,4,2,15,08,36,285,35,09,06,265,,11,14,119,,12,00,165,,1*73
$GBGSV,4,3,15,13,35,266,40,16,26,259,40,19,17,219,41,20,52,262,,1*7C
$GBGSV,4,4,15,23,50,120,46,25,02,110,,28,03,039,,1*41
$GNGLL,4442.99534,S,16910.70691,E,021007.00,A,A*6C


$GNRMC,021008.00,A,4442.99534,S,16910.70692,E,0.004,,220525,,,A,V*05
$GNVTG,,T,,M,0.004,N,0.007,K,A*3E
$GNGGA,021008.00,4442.99534,S,16910.70692,E,1,12,0.48,341.1,M,4.6,M,,*6F
$GNGSA,A,3,04,07,08,09,16,20,26,27,,,,,0.86,0.48,0.72,1*00
$GNGSA,A,3,78,77,79,69,87,67,68,86,,,,,0.86,0.48,0.72,2*05
$GNGSA,A,3,07,19,21,27,29,,,,,,,,0.86,0.48,0.72,3*06
$GNGSA,A,3,01,03,06,08,19,13,16,23,,,,,0.86,0.48,0.72,4*03
$GPGSV,4,1,13,04,58,024,43,07,43,252,47,08,30,029,41,09,74,276,44,1*61
$GPGSV,4,2,13,16,47,126,42,20,11,221,41,26,19,126,41,27,40,075,42,1*68
$GPGSV,4,3,13,30,10,261,,31,00,089,,44,03,078,,46,11,069,40,1*60
$GPGSV,4,4,13,50,24,308,40,1*5A
$GLGSV,3,1,09,67,24,010,45,68,68,326,47,69,44,221,48,77,19,130,34,1*7F
$GLGSV,3,2,09,78,71,185,40,79,39,285,47,86,08,163,42,87,14,121,39,1*7F
$GLGSV,3,3,09,88,01,067,,1*41
$GAGSV,2,1,07,07,20,041,40,19,53,235,35,21,49,327,44,23,01,318,,7*7D
$GAGSV,2,2,07,27,71,111,43,29,73,016,41,30,20,132,,7*4D
$GBGSV,4,1,15,01,34,327,41,03,14,292,37,04,38,347,,06,21,261,39,1*7C
$GBGSV,4,2,15,08,36,285,35,09,06,265,,11,14,119,,12,00,165,,1*73
$GBGSV,4,3,15,13,35,266,40,16,26,259,40,19,17,219,40,20,52,262,,1*7D
$GBGSV,4,4,15,23,50,120,46,25,02,110,,28,03,039,,1*41
$GNGLL,4442.99534,S,16910.70692,E,021008.00,A,A*60


$GNRMC,021009.00,A,4442.99535,S,16910.70695,E,0.074,,220525,,,A,V*05
$GNVTG,,T,,M,0.074,N,0.136,K,A*3A
$GNGGA,021009.00,4442.99535,S,16910.70695,E,1,12,0.48,341.1,M,4.6,M,,*68
$GNGSA,A,3,04,07,08,09,16,20,26,27,,,,,0.86,0.48,0.72,1*00
$GNGSA,A,3,78,77,79,69,87,67,68,86,,,,,0.86,0.48,0.72,2*05
$GNGSA,A,3,07,19,21,27,29,,,,,,,,0.86,0.48,0.72,3*06
$GNGSA,A,3,01,03,06,08,19,13,16,23,,,,,0.86,0.48,0.72,4*03
$GPGSV,4,1,13,04,58,024,43,07,43,252,47,08,30,029,41,09,74,276,44,1*61
$GPGSV,4,2,13,16,47,126,42,20,11,221,41,26,19,126,41,27,40,075,42,1*68
$GPGSV,4,3,13,30,10,261,,31,00,089,,44,03,078,,46,11,069,40,1*60
$GPGSV,4,4,13,50,24,308,40,1*5A
$GLGSV,3,1,09,67,24,010,45,68,68,326,47,69,44,221,48,77,19,130,34,1*7F
$GLGSV,3,2,09,78,71,185,40,79,39,285,48,86,08,163,42,87,14,121,39,1*70
$GLGSV,3,3,09,88,01,067,,1*41
$GAGSV,2,1,07,07,20,041,40,19,53,235,35,21,49,327,44,23,01,318,,7*7D
$GAGSV,2,2,07,27,71,111,43,29,73,016,41,30,20,132,,7*4D
$GBGSV,4,1,15,01,34,327,41,03,14,292,37,04,38,347,,06,21,261,39,1*7C
$GBGSV,4,2,15,08,36,285,35,09,06,265,,11,14,119,,12,00,165,,1*73
$GBGSV,4,3,15,13,35,266,40,16,26,259,40,19,17,219,40,20,52,262,,1*7D
$GBGSV,4,4,15,23,50,120,46,25,02,110,,28,03,039,,1*41
$GNGLL,4442.99535,S,16910.70695,E,021009.00,A,A*67


$GNRMC,021010.00,A,4442.99535,S,16910.70696,E,0.023,,220525,,,D,V*09
$GNVTG,,T,,M,0.023,N,0.043,K,D*3E
$GNGGA,021010.00,4442.99535,S,16910.70696,E,2,12,0.48,341.2,M,4.6,M,,0000*63
$GNGSA,A,3,04,07,08,09,16,20,26,27,,,,,0.86,0.48,0.72,1*00
$GNGSA,A,3,78,77,79,69,87,67,68,86,,,,,0.86,0.48,0.72,2*05
$GNGSA,A,3,07,19,21,27,29,,,,,,,,0.86,0.48,0.72,3*06
$GNGSA,A,3,01,03,06,08,19,13,16,23,,,,,0.86,0.48,0.72,4*03
$GPGSV,4,1,13,04,58,024,43,07,43,252,47,08,30,029,41,09,74,276,44,1*61
$GPGSV,4,2,13,16,47,126,42,20,11,221,41,26,19,126,41,27,40,075,42,1*68
$GPGSV,4,3,13,30,10,261,,31,00,089,,44,03,078,,46,11,069,40,1*60
$GPGSV,4,4,13,50,24,308,40,1*5A
$GLGSV,3,1,09,67,24,010,45,68,68,326,47,69,44,221,48,77,19,130,34,1*7F
$GLGSV,3,2,09,78,71,185,40,79,39,285,48,86,08,164,42,87,14,121,39,1*77
$GLGSV,3,3,09,88,01,067,,1*41
$GAGSV,2,1,07,07,20,041,40,19,53,235,35,21,49,327,44,23,01,318,,7*7D
$GAGSV,2,2,07,27,71,111,44,29,73,016,41,30,20,132,,7*4A
$GBGSV,4,1,15,01,34,327,41,03,14,292,37,04,38,347,,06,21,261,39,1*7C
$GBGSV,4,2,15,08,36,285,35,09,06,265,,11,14,119,,12,00,165,,1*73
$GBGSV,4,3,15,13,35,266,40,16,26,259,40,19,17,219,40,20,52,262,,1*7D
$GBGSV,4,4,15,23,50,120,46,25,02,110,,28,03,039,,1*41
$GNGLL,4442.99535,S,16910.70696,E,021010.00,A,D*69


$GNRMC,021011.00,A,4442.99535,S,16910.70697,E,0.006,,220525,,,D,V*0E
$GNVTG,,T,,M,0.006,N,0.010,K,D*3F
$GNGGA,021011.00,4442.99535,S,16910.70697,E,2,12,0.48,341.2,M,4.6,M,,0000*63
$GNGSA,A,3,04,07,08,09,16,20,26,27,,,,,0.86,0.48,0.72,1*00
$GNGSA,A,3,78,77,79,69,87,67,68,86,,,,,0.86,0.48,0.72,2*05
$GNGSA,A,3,07,19,21,27,29,,,,,,,,0.86,0.48,0.72,3*06
$GNGSA,A,3,01,03,06,08,19,13,16,23,,,,,0.86,0.48,0.72,4*03
$GPGSV,4,1,13,04,58,024,43,07,43,252,47,08,30,029,41,09,74,276,44,1*61
$GPGSV,4,2,13,16,47,126,42,20,11,221,41,26,19,126,41,27,40,075,42,1*68
$GPGSV,4,3,13,30,10,261,,31,00,089,,44,03,078,,46,11,069,39,1*6E
$GPGSV,4,4,13,50,24,308,40,1*5A
$GLGSV,3,1,09,67,24,010,45,68,68,326,47,69,44,221,48,77,19,130,34,1*7F
$GLGSV,3,2,09,78,71,185,40,79,39,285,48,86,08,164,42,87,14,121,40,1*79
$GLGSV,3,3,09,88,01,067,,1*41
$GAGSV,2,1,07,07,20,041,40,19,53,235,35,21,49,327,44,23,01,318,,7*7D
$GAGSV,2,2,07,27,71,111,44,29,73,016,41,30,20,132,,7*4A
$GBGSV,4,1,15,01,34,327,41,03,14,292,37,04,38,347,,06,21,261,39,1*7C
$GBGSV,4,2,15,08,36,285,35,09,06,265,,11,14,119,,12,00,165,,1*73
$GBGSV,4,3,15,13,35,266,40,16,26,259,40,19,17,219,40,20,52,262,,1*7D
$GBGSV,4,4,15,23,50,120,47,25,02,110,,28,03,039,,1*40
$GNGLL,4442.99535,S,16910.70697,E,021011.00,A,D*69


$GNRMC,021012.00,A,4442.99535,S,16910.70698,E,0.004,,220525,,,D,V*00
$GNVTG,,T,,M,0.004,N,0.007,K,D*3B
$GNGGA,021012.00,4442.99535,S,16910.70698,E,2,12,0.48,341.2,M,4.6,M,,0000*6F
$GNGSA,A,3,04,07,08,09,16,20,26,27,,,,,0.86,0.48,0.72,1*00
$GNGSA,A,3,78,77,79,69,87,67,68,86,,,,,0.86,0.48,0.72,2*05
$GNGSA,A,3,07,19,21,27,29,,,,,,,,0.86,0.48,0.72,3*06
$GNGSA,A,3,01,03,06,08,19,13,16,23,,,,,0.86,0.48,0.72,4*03
$GPGSV,4,1,13,04,58,024,43,07,43,252,47,08,30,029,42,09,74,277,44,1*63
$GPGSV,4,2,13,16,47,126,42,20,11,221,41,26,19,126,41,27,40,075,42,1*68
$GPGSV,4,3,13,30,10,261,,31,00,089,,44,03,078,,46,11,069,39,1*6E
$GPGSV,4,4,13,50,24,308,40,1*5A
$GLGSV,3,1,09,67,24,010,45,68,68,326,48,69,44,221,49,77,19,130,34,1*71
$GLGSV,3,2,09,78,71,185,40,79,39,285,48,86,08,164,42,87,14,121,40,1*79
$GLGSV,3,3,09,88,01,067,,1*41
$GAGSV,2,1,07,07,20,041,40,19,53,235,35,21,49,327,44,23,01,318,,7*7D
$GAGSV,2,2,07,27,71,111,44,29,73,016,41,30,20,132,,7*4A
$GBGSV,4,1,15,01,34,327,41,03,14,292,37,04,38,347,,06,21,261,39,1*7C
$GBGSV,4,2,15,08,36,285,35,09,06,265,,11,14,119,,12,00,165,,1*73
$GBGSV,4,3,15,13,35,266,40,16,26,259,40,19,17,219,40,20,52,262,,1*7D
$GBGSV,4,4,15,23,50,120,47,25,02,110,,28,03,039,,1*40
$GNGLL,4442.99535,S,16910.70698,E,021012.00,A,D*65


$GNRMC,021013.00,A,4442.99536,S,16910.70698,E,0.005,,220525,,,D,V*03
$GNVTG,,T,,M,0.005,N,0.008,K,D*35
$GNGGA,021013.00,4442.99536,S,16910.70698,E,2,12,0.48,341.3,M,4.6,M,,0000*6C
$GNGSA,A,3,04,07,08,09,16,20,26,27,,,,,0.86,0.48,0.72,1*00
$GNGSA,A,3,78,77,79,69,87,67,68,86,,,,,0.86,0.48,0.72,2*05
$GNGSA,A,3,07,19,21,27,29,,,,,,,,0.86,0.48,0.72,3*06
$GNGSA,A,3,01,03,06,08,19,13,16,23,,,,,0.86,0.48,0.72,4*03
$GPGSV,4,1,13,04,58,024,43,07,43,252,47,08,30,029,41,09,74,277,44,1*60
$GPGSV,4,2,13,16,47,126,42,20,11,221,41,26,19,126,41,27,40,075,42,1*68
$GPGSV,4,3,13,30,10,261,,31,00,089,,44,03,078,,46,11,069,39,1*6E
$GPGSV,4,4,13,50,24,308,40,1*5A
$GLGSV,3,1,09,67,24,010,45,68,68,326,48,69,44,221,49,77,19,130,34,1*71
$GLGSV,3,2,09,78,71,185,40,79,39,285,48,86,08,164,41,87,14,121,40,1*7A
$GLGSV,3,3,09,88,01,067,,1*41
$GAGSV,2,1,07,07,20,041,40,19,53,235,35,21,49,327,44,23,01,318,,7*7D
$GAGSV,2,2,07,27,71,111,44,29,73,016,41,30,20,132,,7*4A
$GBGSV,4,1,15,01,34,327,41,03,14,292,37,04,38,347,,06,21,261,39,1*7C
$GBGSV,4,2,15,08,36,285,35,09,06,265,,11,14,119,,12,00,165,,1*73
$GBGSV,4,3,15,13,35,266,40,16,26,259,40,19,17,219,39,20,52,262,,1*73
$GBGSV,4,4,15,23,50,120,47,25,02,110,,28,03,039,,1*40
$GNGLL,4442.99536,S,16910.70698,E,021013.00,A,D*67


$GNRMC,021014.00,A,4442.99536,S,16910.70698,E,0.007,,220525,,,D,V*06
$GNVTG,,T,,M,0.007,N,0.012,K,D*3C
$GNGGA,021014.00,4442.99536,S,16910.70698,E,2,12,0.48,341.3,M,4.6,M,,0000*6B
$GNGSA,A,3,04,07,08,09,16,20,26,27,,,,,0.86,0.48,0.72,1*00
$GNGSA,A,3,78,77,79,69,87,67,68,86,,,,,0.86,0.48,0.72,2*05
$GNGSA,A,3,07,19,21,27,29,,,,,,,,0.86,0.48,0.72,3*06
$GNGSA,A,3,01,03,06,08,19,13,16,23,,,,,0.86,0.48,0.72,4*03
$GPGSV,4,1,13,04,58,024,43,07,43,252,47,08,30,029,42,09,74,277,45,1*62
$GPGSV,4,2,13,16,47,126,42,20,11,221,41,26,19,126,41,27,40,075,42,1*68
$GPGSV,4,3,13,30,10,261,,31,00,089,,44,03,078,,46,11,069,39,1*6E
$GPGSV,4,4,13,50,24,308,40,1*5A
$GLGSV,3,1,09,67,24,010,45,68,68,326,47,69,44,221,49,77,19,130,34,1*7E
$GLGSV,3,2,09,78,71,185,40,79,39,285,48,86,08,164,41,87,14,121,40,1*7A
$GLGSV,3,3,09,88,01,067,,1*41
$GAGSV,2,1,07,07,20,041,40,19,53,235,35,21,49,327,44,23,01,318,,7*7D
$GAGSV,2,2,07,27,71,111,44,29,73,016,41,30,20,132,,7*4A
$GBGSV,4,1,15,01,34,327,41,03,14,292,37,04,38,347,,06,21,261,39,1*7C
$GBGSV,4,2,15,08,36,285,35,09,06,265,,11,14,119,,12,00,165,,1*73
$GBGSV,4,3,15,13,35,266,41,16,26,259,40,19,17,219,39,20,52,262,,1*72
$GBGSV,4,4,15,23,50,120,47,25,02,110,,28,03,039,,1*40
$GNGLL,4442.99536,S,16910.70698,E,021014.00,A,D*60


$GNRMC,021015.00,A,4442.99536,S,16910.70699,E,0.003,,220525,,,D,V*02
$GNVTG,,T,,M,0.003,N,0.005,K,D*3E
$GNGGA,021015.00,4442.99536,S,16910.70699,E,2,12,0.48,341.3,M,4.6,M,,0000*6B
$GNGSA,A,3,04,07,08,09,16,20,26,27,,,,,0.86,0.48,0.72,1*00
$GNGSA,A,3,78,77,79,69,87,67,68,86,,,,,0.86,0.48,0.72,2*05
$GNGSA,A,3,07,19,21,27,29,,,,,,,,0.86,0.48,0.72,3*06
$GNGSA,A,3,01,03,06,08,19,13,16,23,,,,,0.86,0.48,0.72,4*03
$GPGSV,4,1,13,04,58,024,43,07,43,252,47,08,30,029,42,09,74,277,45,1*62
$GPGSV,4,2,13,16,47,126,42,20,11,221,41,26,19,126,41,27,40,075,42,1*68
$GPGSV,4,3,13,30,10,261,,31,00,089,,44,03,078,,46,11,069,39,1*6E
$GPGSV,4,4,13,50,24,308,40,1*5A
$GLGSV,3,1,09,67,24,010,45,68,68,326,47,69,44,221,48,77,19,130,34,1*7F
$GLGSV,3,2,09,78,71,185,40,79,39,285,48,86,08,164,41,87,14,121,39,1*74
$GLGSV,3,3,09,88,01,067,,1*41
$GAGSV,2,1,07,07,20,041,40,19,53,235,35,21,49,327,44,23,01,318,,7*7D
$GAGSV,2,2,07,27,71,111,44,29,73,016,41,30,20,132,,7*4A
$GBGSV,4,1,15,01,34,327,41,03,14,292,37,04,38,347,,06,21,261,39,1*7C
$GBGSV,4,2,15,08,36,285,35,09,06,265,,11,14,119,,12,00,165,,1*73
$GBGSV,4,3,15,13,35,266,41,16,26,259,40,19,17,219,39,20,52,262,,1*72
$GBGSV,4,4,15,23,50,120,47,25,02,110,,28,03,039,,1*40
$GNGLL,4442.99536,S,16910.70699,E,021015.00,A,D*60


$GNRMC,021016.00,A,4442.99536,S,16910.70699,E,0.000,,220525,,,D,V*02
$GNVTG,,T,,M,0.000,N,0.000,K,D*38
$GNGGA,021016.00,4442.99536,S,16910.70699,E,2,12,0.48,341.4,M,4.6,M,,0000*6F
$GNGSA,A,3,04,07,08,09,16,20,26,27,,,,,0.86,0.48,0.72,1*00
$GNGSA,A,3,78,77,79,69,87,67,68,86,,,,,0.86,0.48,0.72,2*05
$GNGSA,A,3,07,19,21,27,29,,,,,,,,0.86,0.48,0.72,3*06
$GNGSA,A,3,01,03,06,08,19,13,16,23,,,,,0.86,0.48,0.72,4*03
$GPGSV,4,1,13,04,58,024,43,07,43,252,47,08,30,029,42,09,74,277,45,1*62
$GPGSV,4,2,13,16,47,126,42,20,11,221,41,26,19,126,41,27,40,075,42,1*68
$GPGSV,4,3,13,30,10,261,,31,00,089,,44,03,078,,46,11,069,39,1*6E
$GPGSV,4,4,13,50,24,308,40,1*5A
$GLGSV,3,1,09,67,24,010,45,68,68,326,47,69,44,221,48,77,19,130,34,1*7F
$GLGSV,3,2,09,78,71,185,40,79,39,285,48,86,08,164,41,87,14,121,39,1*74
$GLGSV,3,3,09,88,01,067,,1*41
$GAGSV,2,1,07,07,20,041,40,19,53,235,36,21,49,327,44,23,01,318,,7*7E
$GAGSV,2,2,07,27,71,111,44,29,73,016,41,30,20,132,,7*4A
$GBGSV,4,1,15,01,34,327,41,03,14,292,37,04,38,347,,06,21,261,39,1*7C
$GBGSV,4,2,15,08,36,285,35,09,06,265,,11,14,119,,12,00,165,,1*73
$GBGSV,4,3,15,13,35,266,40,16,26,259,40,19,17,219,39,20,52,262,,1*73
$GBGSV,4,4,15,23,50,120,47,25,02,110,,28,03,039,,1*40
$GNGLL,4442.99536,S,16910.70699,E,021016.00,A,D*63


$GNRMC,021017.00,A,4442.99536,S,16910.70699,E,0.009,,220525,,,D,V*0A
$GNVTG,,T,,M,0.009,N,0.017,K,D*37
$GNGGA,021017.00,4442.99536,S,16910.70699,E,2,12,0.48,341.4,M,4.6,M,,0000*6E
$GNGSA,A,3,04,07,08,09,16,20,26,27,,,,,0.86,0.48,0.72,1*00
$GNGSA,A,3,78,77,79,69,87,67,68,86,,,,,0.86,0.48,0.72,2*05
$GNGSA,A,3,07,19,21,27,29,,,,,,,,0.86,0.48,0.72,3*06
$GNGSA,A,3,01,03,06,08,19,13,16,23,,,,,0.86,0.48,0.72,4*03
$GPGSV,4,1,13,04,58,024,43,07,43,252,47,08,30,029,42,09,74,277,45,1*62
$GPGSV,4,2,13,16,47,126,42,20,11,221,41,26,19,126,41,27,40,075,42,1*68
$GPGSV,4,3,13,30,10,261,,31,00,089,,44,03,078,,46,11,069,39,1*6E
$GPGSV,4,4,13,50,24,308,40,1*5A
$GLGSV,3,1,09,67,24,010,45,68,68,326,47,69,44,221,48,77,19,130,34,1*7F
$GLGSV,3,2,09,78,71,185,40,79,39,285,48,86,08,164,40,87,14,121,39,1*75
$GLGSV,3,3,09,88,01,067,,1*41
$GAGSV,2,1,07,07,20,041,40,19,53,235,36,21,49,327,44,23,01,318,,7*7E
$GAGSV,2,2,07,27,71,111,44,29,73,016,41,30,20,132,,7*4A
$GBGSV,4,1,15,01,34,327,41,03,14,292,37,04,38,347,,06,21,261,39,1*7C
$GBGSV,4,2,15,08,36,285,35,09,06,265,,11,14,119,,12,00,165,,1*73
$GBGSV,4,3,15,13,35,266,40,16,26,259,40,19,17,219,39,20,52,262,,1*73
