$GNRMC,052341.00,A,4442.99420,S,16910.70654,E,0.052,,200525,,,A,V*00
$GNVTG,,T,,M,0.052,N,0.096,K,A*35
$GNGGA,052341.00,4442.99420,S,16910.70654,E,1,12,0.83,339.1,M,4.6,M,,*63
$GNGSA,A,3,02,07,08,13,14,17,,,,,,,1.76,0.83,1.55,1*07
$GNGSA,A,3,78,86,69,8

$GNRMC,052343.00,A,4442.99439,S,16910.70707,E,0.268,350.42,200525,,,A,V*18
$GNVTG,350.42,T,,M,0.268,N,0.497,K,A*25
$GNGGA,052343.00,4442.99439,S,16910.70707,E,1,12,0.54,337.7,M,4.6,M,,*6C
$GNGSA,A,3,01,02,07,08,13,14,17,22,,,,,1.32,0.54,1.20,1*0E
$GNGSA,A,3,78,86,77,69,88,87,68,,,,,,1.32,0.54,1.20,2*0F
$GNGSA,A,3,02,08,25,,,,,,,,,,1.32,0.54,1.20,3*0C
$GNGSA,A,3,01,06,16,29,,,,,,,,,1.32,0.54,1.20,4*0D
$GPGSV,4,1,16,01,21,060,43,02,33,089,45,07,51,044,48,08,36,128,43,1*69
$GPGSV,4,2,16,09,01,000,,13,33,237,45,14,57,257,45,15,08,214,,1*65
$GPGSV,4,3,16,17,31,334,46,19,07,329,,22,36,270,41,27,02,137,,1*66
$GPGSV,4,4,16,30,84,301,,44,03,078,,46,11,069,40,50,24,308,40,1*67
$GLGSV,3,1,10,67,08,324,,68,30,279,44,69,25,223,46,76,03,084,,1*71
$GLGSV,3,2,10,77,43,105,38,78,56,214,43,79,12,249,44,86,16,154,47,1*74
$GLGSV,3,3,10,87,46,114,46,88,33,029,47,1*7A
$GAGSV,3,1,12,02,72,144,46,03,08,002,,07,39,248,,08,42,321,46,7*70
$GAGSV,3,2,12,10,11,149,,11,21,124,,16,00,104,,25,22,108,40,7*70
$GAGSV,3,3,12,29,03,209,,30,45,269,,34,04,025,,36,24,071,,7*7D
$GBGSV,3,1,12,01,32,327,39,03,13,293,,04,36,347,,06,39,234,39,1*70
$GBGSV,3,2,12,09,24,233,,14,14,229,,15,52,005,,16,46,233,43,1*76
$GBGSV,3,3,12,21,11,304,,26,40,243,,29,55,071,44,30,25,133,,1*7C
$GNGLL,4442.99439,S,16910.70707,E,052343.00,A,A*69


$GNRMC,052344.00,A,4442.99454,S,16910.70733,E,0.010,,200525,,,A,V*00
$GNVTG,,T,,M,0.010,N,0.019,K,A*34
$GNGGA,052344.00,4442.99454,S,16910.70733,E,1,12,0.51,337.8,M,4.6,M,,*6D
$GNGSA,A,3,01,02,07,08,13,14,17,22,,,,,1.19,0.51,1.08,1*08
$GNGSA,A,3,78,86,77,79,69,88,87,68,,,,,1.19,0.51,1.08,2*07
$GNGSA,A,3,02,08,25,,,,,,,,,,1.19,0.51,1.08,3*0A
$GNGSA,A,3,01,06,16,29,,,,,,,,,1.19,0.51,1.08,4*0B
$GPGSV,4,1,16,01,21,060,41,02,33,089,43,07,51,044,46,08,36,128,40,1*60
$GPGSV,4,2,16,09,01,000,,13,33,237,43,14,57,257,43,15,08,214,,1*65
$GPGSV,4,3,16,17,31,334,43,19,07,329,,22,36,270,39,27,02,137,,1*6C
$GPGSV,4,4,16,30,84,301,,44,03,078,,46,11,069,39,50,24,308,38,1*66
$GLGSV,3,1,10,67,08,324,,68,30,279,45,69,25,223,45,76,03,084,,1*73
$GLGSV,3,2,10,77,43,105,36,78,56,214,43,79,12,249,43,86,16,154,44,1*7E
$GLGSV,3,3,10,87,46,114,46,88,33,029,47,1*7A
$GAGSV,3,1,12,02,72,144,45,03,08,002,,07,39,248,,08,42,321,45,7*70
$GAGSV,3,2,12,10,11,149,,11,21,124,,16,00,104,,25,22,108,39,7*7E
$GAGSV,3,3,12,29,03,209,,30,45,269,,34,04,025,,36,24,071,,7*7D
$GBGSV,3,1,12,01,32,327,39,03,13,293,,04,36,347,,06,39,234,39,1*70
$GBGSV,3,2,12,09,24,233,,14,14,229,,15,52,005,,16,46,233,42,1*77
$GBGSV,3,3,12,21,11,304,,26,40,243,,29,55,071,43,30,25,133,,1*7B
$GNGLL,4442.99454,S,16910.70733,E,052344.00,A,A*62


$GNRMC,052345.00,A,4442.99477,S,16910.70764,E,0.049,,200525,,,A,V*0E
$GNVTG,,T,,M,0.049,N,0.090,K,A*39
$GNGGA,052345.00,4442.99477,S,16910.70764,E,1,12,0.51,337.7,M,4.6,M,,*60
$GNGSA,A,3,01,02,07,08,13,14,17,22,,,,,1.19,0.51,1.08,1*08
$GNGSA,A,3,78,86,77,79,69,88,87,68,,,,,1.19,0.51,1.08,2*07
$GNGSA,A,3,02,08,25,,,,,,,,,,1.19,0.51,1.08,3*0A
$GNGSA,A,3,01,06,16,29,,,,,,,,,1.19,0.51,1.08,4*0B
$GPGSV,4,1,16,01,21,060,44,02,33,089,47,07,51,044,49,08,36,128,43,1*6D
$GPGSV,4,2,16,09,01,000,,13,33,237,46,14,57,257,46,15,08,214,,1*65
$GPGSV,4,3,16,17,31,334,47,19,07,329,,22,36,270,43,27,02,137,,1*65
$GPGSV,4,4,16,30,84,301,,44,03,078,,46,11,069,41,50,24,308,41,1*67
$GLGSV,3,1,10,67,08,324,,68,30,279,45,69,25,223,46,76,03,084,,1*70
$GLGSV,3,2,10,77,43,105,38,78,56,214,43,79,12,249,45,86,16,154,47,1*75
$GLGSV,3,3,10,87,46,114,47,88,33,029,47,1*7B
$GAGSV,3,1,12,02,72,144,46,03,08,002,,07,39,248,,08,42,321,47,7*71
$GAGSV,3,2,12,10,11,149,,11,21,124,,16,00,104,,25,22,108,40,7*70
$GAGSV,3,3,12,29,03,209,,30,45,269,,34,04,025,,36,24,071,,7*7D
$GBGSV,3,1,12,01,32,327,41,03,13,293,,04,36,347,,06,39,234,41,1*70
$GBGSV,3,2,12,09,24,233,37,14,14,229,41,15,52,005,,16,46,233,44,1*70
$GBGSV,3,3,12,21,11,304,,26,40,243,,29,55,071,45,30,25,133,,1*7D
$GNGLL,4442.99477,S,16910.70764,E,052345.00,A,A*60


$GNRMC,052346.00,A,4442.99498,S,16910.70796,E,0.016,,200525,,,A,V*0B
$GNVTG,,T,,M,0.016,N,0.029,K,A*31
$GNGGA,052346.00,4442.99498,S,16910.70796,E,1,12,0.51,337.3,M,4.6,M,,*6B
$GNGSA,A,3,01,02,07,08,13,14,17,22,,,,,1.26,0.51,1.15,1*08
$GNGSA,A,3,78,86,77,79,69,88,87,68,,,,,1.26,0.51,1.15,2*07
$GNGSA,A,3,02,08,25,,,,,,,,,,1.26,0.51,1.15,3*0A
$GNGSA,A,3,01,06,09,14,16,29,,,,,,,1.26,0.51,1.15,4*07
$GPGSV,4,1,16,01,21,060,43,02,33,089,46,07,51,044,48,08,36,128,43,1*6A
$GPGSV,4,2,16,09,01,000,,13,33,237,45,14,57,257,45,15,08,214,,1*65
$GPGSV,4,3,16,17,31,334,46,19,07,329,,22,36,270,42,27,02,137,,1*65
$GPGSV,4,4,16,30,84,301,,44,03,078,,46,11,069,40,50,24,308,40,1*67
$GLGSV,3,1,10,67,08,324,,68,30,279,45,69,25,223,47,76,03,084,,1*71
$GLGSV,3,2,10,77,43,105,38,78,56,214,43,79,12,249,45,86,16,154,47,1*75
$GLGSV,3,3,10,87,46,114,46,88,33,029,47,1*7A
$GAGSV,3,1,12,02,72,144,46,03,08,002,,07,39,248,,08,42,321,46,7*70
$GAGSV,3,2,12,10,11,149,,11,21,124,,16,00,104,,25,22,108,40,7*70
$GAGSV,3,3,12,29,03,209,,30,45,269,,34,04,025,,36,24,071,,7*7D
$GBGSV,3,1,12,01,32,327,40,03,13,293,33,04,36,347,,06,39,234,40,1*70
$GBGSV,3,2,12,09,24,233,38,14,14,229,41,15,52,005,,16,46,233,44,1*7F
$GBGSV,3,3,12,21,11,304,,26,40,243,,29,55,071,44,30,25,133,,1*7C
$GNGLL,4442.99498,S,16910.70796,E,052346.00,A,A*6F


$GNRMC,052347.00,A,4442.99505,S,16910.70816,E,0.017,,200525,,,A,V*09
$GNVTG,,T,,M,0.017,N,0.031,K,A*39
$GNGGA,052347.00,4442.99505,S,16910.70816,E,1,12,0.49,337.1,M,4.6,M,,*63
$GNGSA,A,3,01,02,07,08,13,14,17,22,,,,,1.13,0.49,1.02,1*01
$GNGSA,A,3,78,86,77,79,69,88,87,68,,,,,1.13,0.49,1.02,2*0E
$GNGSA,A,3,02,08,25,,,,,,,,,,1.13,0.49,1.02,3*03
$GNGSA,A,3,01,03,06,09,14,16,29,,,,,,1.13,0.49,1.02,4*0D
$GPGSV,4,1,16,01,21,060,43,02,33,089,46,07,51,044,48,08,36,128,43,1*6A
$GPGSV,4,2,16,09,01,000,,13,33,237,45,14,57,257,45,15,08,214,,1*65
$GPGSV,4,3,16,17,31,334,46,19,07,329,,22,36,270,42,27,02,137,,1*65
$GPGSV,4,4,16,30,84,301,,44,03,078,,46,11,069,40,50,24,308,40,1*67
$GLGSV,3,1,10,67,08,324,,68,30,279,45,69,25,223,46,76,03,084,,1*70
$GLGSV,3,2,10,77,43,105,38,78,56,214,43,79,12,249,45,86,16,154,47,1*75
$GLGSV,3,3,10,87,46,114,46,88,33,029,47,1*7A
$GAGSV,3,1,12,02,72,144,46,03,08,002,,07,39,248,,08,42,321,46,7*70
$GAGSV,3,2,12,10,11,149,,11,21,124,,16,00,104,,25,22,108,40,7*70
$GAGSV,3,3,12,29,03,209,,30,45,269,,34,04,025,,36,24,071,,7*7D
$GBGSV,3,1,12,01,32,327,39,03,13,293,33,04,36,347,,06,39,234,40,1*7E
$GBGSV,3,2,12,09,24,233,37,14,14,229,40,15,52,005,,16,46,233,43,1*76
$GBGSV,3,3,12,21,11,304,,26,40,243,,29,55,071,44,30,25,133,,1*7C
$GNGLL,4442.99505,S,16910.70816,E,052347.00,A,A*6C


$GNRMC,052348.00,A,4442.99508,S,16910.70824,E,0.021,,200525,,,A,V*0F
$GNVTG,,T,,M,0.021,N,0.038,K,A*35
$GNGGA,052348.00,4442.99508,S,16910.70824,E,1,12,0.49,337.0,M,4.6,M,,*61
$GNGSA,A,3,01,02,07,08,13,14,17,22,,,,,1.09,0.49,0.98,1*08
$GNGSA,A,3,78,86,77,79,69,88,87,68,,,,,1.09,0.49,0.98,2*07
$GNGSA,A,3,02,08,25,,,,,,,,,,1.09,0.49,0.98,3*0A
$GNGSA,A,3,01,03,06,09,14,16,29,,,,,,1.09,0.49,0.98,4*04
$GPGSV,4,1,16,01,21,060,43,02,33,089,46,07,51,044,48,08,36,128,43,1*6A
$GPGSV,4,2,16,09,01,000,,13,33,237,45,14,57,257,45,15,08,214,,1*65
$GPGSV,4,3,16,17,31,334,46,19,07,329,,22,36,270,42,27,02,137,,1*65
$GPGSV,4,4,16,30,84,301,,44,03,078,,46,11,069,40,50,24,308,40,1*67
$GLGSV,3,1,10,67,08,324,,68,30,279,45,69,25,223,46,76,03,084,,1*70
$GLGSV,3,2,10,77,43,105,38,78,56,214,43,79,12,249,45,86,16,154,47,1*75
$GLGSV,3,3,10,87,46,114,46,88,33,029,47,1*7A
$GAGSV,3,1,12,02,72,144,46,03,08,002,,07,39,248,,08,42,321,46,7*70
$GAGSV,3,2,12,10,11,149,,11,21,124,,16,00,104,,25,22,108,40,7*70
$GAGSV,3,3,12,29,03,209,,30,45,269,,34,04,025,,36,24,071,,7*7D
$GBGSV,3,1,12,01,32,327,40,03,13,293,33,04,36,347,,06,39,234,40,1*70
$GBGSV,3,2,12,09,24,233,38,14,14,229,40,15,52,005,,16,46,233,43,1*79
$GBGSV,3,3,12,21,11,304,,26,40,243,,29,55,071,44,30,25,133,,1*7C
$GNGLL,4442.99508,S,16910.70824,E,052348.00,A,A*6F


$GNRMC,052349.00,A,4442.99509,S,16910.70828,E,0.012,,200525,,,A,V*03
$GNVTG,,T,,M,0.012,N,0.022,K,A*3E
$GNGGA,052349.00,4442.99509,S,16910.70828,E,1,12,0.48,337.0,M,4.6,M,,*6C
$GNGSA,A,3,01,02,07,08,13,14,17,22,,,,,1.08,0.48,0.97,1*07
$GNGSA,A,3,78,86,77,79,69,88,87,68,,,,,1.08,0.48,0.97,2*08
$GNGSA,A,3,02,08,07,25,,,,,,,,,1.08,0.48,0.97,3*02
$GNGSA,A,3,01,03,06,09,14,16,29,,,,,,1.08,0.48,0.97,4*0B
$GPGSV,4,1,16,01,21,060,43,02,33,089,46,07,51,044,48,08,36,128,43,1*6A
$GPGSV,4,2,16,09,01,000,,13,33,237,45,14,57,257,45,15,08,214,,1*65
$GPGSV,4,3,16,17,31,334,46,19,07,329,,22,36,270,42,27,02,137,,1*65
$GPGSV,4,4,16,30,84,301,,44,03,078,,46,11,069,40,50,24,308,40,1*67
$GLGSV,3,1,10,67,08,324,,68,30,279,45,69,25,223,46,76,03,084,,1*70
$GLGSV,3,2,10,77,43,105,39,78,56,214,43,79,12,249,45,86,16,154,46,1*75
$GLGSV,3,3,10,87,46,114,46,88,33,029,47,1*7A
$GAGSV,3,1,12,02,72,144,46,03,08,002,,07,39,248,42,08,42,321,46,7*76
$GAGSV,3,2,12,10,11,149,,11,21,124,,16,00,104,,25,22,108,40,7*70
$GAGSV,3,3,12,29,03,209,,30,45,269,,34,04,025,,36,24,071,,7*7D
$GBGSV,3,1,12,01,32,327,40,03,13,293,33,04,36,347,,06,39,234,40,1*70
$GBGSV,3,2,12,09,24,233,38,14,14,229,40,15,52,005,,16,46,233,44,1*7E
$GBGSV,3,3,12,21,11,304,,26,40,243,,29,55,071,44,30,25,133,,1*7C
$GNGLL,4442.99509,S,16910.70828,E,052349.00,A,A*63


$GNRMC,052350.00,A,4442.99508,S,16910.70829,E,0.010,,200525,,,A,V*09
$GNVTG,,T,,M,0.010,N,0.018,K,A*35
$GNGGA,052350.00,4442.99508,S,16910.70829,E,1,12,0.48,337.1,M,4.6,M,,*65
$GNGSA,A,3,01,02,07,08,13,14,17,22,,,,,1.08,0.48,0.97,1*07
$GNGSA,A,3,78,86,77,79,69,88,87,68,,,,,1.08,0.48,0.97,2*08
$GNGSA,A,3,02,08,07,25,,,,,,,,,1.08,0.48,0.97,3*02
$GNGSA,A,3,01,03,06,09,14,16,29,,,,,,1.08,0.48,0.97,4*0B
$GPGSV,4,1,16,01,21,060,43,02,33,089,45,07,51,044,47,08,36,128,42,1*67
$GPGSV,4,2,16,09,01,000,,13,33,237,44,14,57,257,44,15,08,214,,1*65
$GPGSV,4,3,16,17,31,334,45,19,07,329,,22,36,270,41,27,02,137,,1*65
$GPGSV,4,4,16,30,84,301,,44,03,078,,46,11,069,39,50,24,308,39,1*67
$GLGSV,3,1,10,67,08,324,,68,30,279,45,69,25,223,45,76,03,084,,1*73
$GLGSV,3,2,10,77,43,105,39,78,56,214,43,79,12,249,45,86,16,154,46,1*75
$GLGSV,3,3,10,87,46,114,46,88,33,029,47,1*7A
$GAGSV,3,1,12,02,72,144,46,03,08,002,,07,39,248,42,08,42,321,46,7*76
$GAGSV,3,2,12,10,11,149,,11,21,124,,16,00,104,,25,22,108,40,7*70
$GAGSV,3,3,12,29,03,209,,30,45,269,,34,04,025,,36,24,071,,7*7D
$GBGSV,3,1,12,01,32,327,39,03,13,293,33,04,36,347,,06,39,234,40,1*7E
$GBGSV,3,2,12,09,24,233,38,14,14,229,40,15,52,005,,16,46,233,44,1*7E
$GBGSV,3,3,12,21,11,304,,26,40,243,,29,55,071,44,30,25,133,,1*7C
$GNGLL,4442.99508,S,16910.70829,E,052350.00,A,A*6B


$GNRMC,052351.00,A,4442.99506,S,16910.70827,E,0.004,,200525,,,A,V*0D
$GNVTG,,T,,M,0.004,N,0.007,K,A*3E
$GNGGA,052351.00,4442.99506,S,16910.70827,E,1,12,0.48,337.5,M,4.6,M,,*60
$GNGSA,A,3,01,02,07,08,13,14,17,22,,,,,1.08,0.48,0.97,1*07
$GNGSA,A,3,78,86,77,79,69,88,87,68,,,,,1.08,0.48,0.97,2*08
$GNGSA,A,3,02,08,07,25,,,,,,,,,1.08,0.48,0.97,3*02
$GNGSA,A,3,01,03,06,09,14,16,29,,,,,,1.08,0.48,0.97,4*0B
$GPGSV,4,1,16,01,21,060,42,02,33,089,45,07,51,044,47,08,36,128,42,1*66
$GPGSV,4,2,16,09,01,000,,13,33,237,44,14,57,257,44,15,08,214,,1*65
$GPGSV,4,3,16,17,31,334,45,19,07,329,,22,36,270,41,27,02,137,,1*65
$GPGSV,4,4,16,30,84,301,,44,03,078,,46,11,069,39,50,24,308,39,1*67
$GLGSV,3,1,10,67,08,324,,68,30,279,45,69,25,223,46,76,03,084,,1*70
$GLGSV,3,2,10,77,43,105,39,78,56,214,43,79,12,249,45,86,16,154,46,1*75
$GLGSV,3,3,10,87,46,114,47,88,33,029,47,1*7B
$GAGSV,3,1,12,02,72,144,46,03,08,002,,07,39,248,42,08,42,321,46,7*76
$GAGSV,3,2,12,10,11,149,,11,21,124,,16,00,104,,25,22,108,40,7*70
$GAGSV,3,3,12,29,03,209,,30,45,269,,34,04,025,,36,24,071,,7*7D
$GBGSV,3,1,12,01,32,327,40,03,13,293,33,04,36,347,,06,39,234,40,1*70
$GBGSV,3,2,12,09,24,233,38,14,14,229,40,15,52,005,,16,46,233,44,1*7E
$GBGSV,3,3,12,21,11,304,,26,40,243,,29,55,071,43,30,25,133,,1*7B
$GNGLL,4442.99506,S,16910.70827,E,052351.00,A,A*6A


$GNRMC,052352.00,A,4442.99502,S,16910.70826,E,0.003,,200525,,,A,V*0C
$GNVTG,,T,,M,0.003,N,0.005,K,A*3B
$GNGGA,052352.00,4442.99502,S,16910.70826,E,1,12,0.49,338.0,M,4.6,M,,*6D
$GNGSA,A,3,01,02,07,08,13,14,17,22,,,,,1.13,0.49,1.02,1*01
$GNGSA,A,3,78,86,77,79,69,88,87,68,,,,,1.13,0.49,1.02,2*0E
$GNGSA,A,3,02,08,07,25,,,,,,,,,1.13,0.49,1.02,3*04
$GNGSA,A,3,01,03,06,09,14,16,29,,,,,,1.13,0.49,1.02,4*0D
$GPGSV,4,1,16,01,21,060,43,02,33,089,44,07,51,044,47,08,36,128,42,1*66
$GPGSV,4,2,16,09,01,000,,13,33,237,45,14,57,257,44,15,08,214,,1*64
$GPGSV,4,3,16,17,31,334,45,19,07,329,,22,36,270,41,27,02,137,,1*65
$GPGSV,4,4,16,30,84,301,,44,03,078,,46,11,069,39,50,24,308,39,1*67
$GLGSV,3,1,10,67,08,324,,68,30,279,45,69,25,223,46,76,03,084,,1*70
$GLGSV,3,2,10,77,43,105,39,78,56,214,42,79,12,249,45,86,16,154,46,1*74
$GLGSV,3,3,10,87,46,114,47,88,33,029,47,1*7B
$GAGSV,3,1,12,02,72,144,46,03,08,002,,07,39,248,42,08,42,321,46,7*76
$GAGSV,3,2,12,10,11,149,,11,21,124,,16,00,104,,25,22,108,40,7*70
$GAGSV,3,3,12,29,03,209,,30,45,269,,34,04,025,,36,24,071,,7*7D
$GBGSV,3,1,12,01,32,327,40,03,13,293,33,04,36,347,,06,39,234,40,1*70
$GBGSV,3,2,12,09,24,233,38,14,14,229,40,15,52,005,,16,46,233,44,1*7E
$GBGSV,3,3,12,21,11,304,,26,40,243,,29,55,071,43,30,25,133,,1*7B
$GNGLL,4442.99502,S,16910.70826,E,052352.00,A,A*6C


$GNRMC,052353.00,A,4442.99499,S,16910.70824,E,0.004,,200525,,,A,V*0B
$GNVTG,,T,,M,0.004,N,0.007,K,A*3E
$GNGGA,052353.00,4442.99499,S,16910.70824,E,1,12,0.48,338.4,M,4.6,M,,*68
$GNGSA,A,3,01,02,07,08,13,14,17,22,,,,,1.08,0.48,0.97,1*07
$GNGSA,A,3,78,86,77,79,69,88,87,68,,,,,1.08,0.48,0.97,2*08
$GNGSA,A,3,02,08,07,25,,,,,,,,,1.08,0.48,0.97,3*02
$GNGSA,A,3,01,03,06,09,14,16,29,,,,,,1.08,0.48,0.97,4*0B
$GPGSV,4,1,16,01,21,060,42,02,33,089,44,07,51,044,48,08,36,128,42,1*68
$GPGSV,4,2,16,09,01,000,,13,33,237,45,14,57,257,44,15,08,214,,1*64
$GPGSV,4,3,16,17,31,334,45,19,07,329,,22,36,270,41,27,02,137,,1*65
$GPGSV,4,4,16,30,84,301,,44,03,078,,46,11,069,39,50,24,308,39,1*67
$GLGSV,3,1,10,67,08,324,,68,30,279,45,69,25,223,46,76,03,084,,1*70
$GLGSV,3,2,10,77,43,105,39,78,56,214,42,79,12,249,45,86,16,154,46,1*74
$GLGSV,3,3,10,87,46,114,47,88,33,029,48,1*74
$GAGSV,3,1,12,02,72,144,46,03,08,002,,07,39,248,42,08,42,321,46,7*76
$GAGSV,3,2,12,10,11,149,,11,21,124,,16,00,104,,25,22,108,40,7*70
$GAGSV,3,3,12,29,03,209,,30,45,269,,34,04,025,,36,24,071,,7*7D
$GBGSV,3,1,12,01,32,327,39,03,13,293,33,04,36,347,,06,39,234,40,1*7E
$GBGSV,3,2,12,09,24,233,38,14,14,229,40,15,52,005,,16,46,233,44,1*7E
$GBGSV,3,3,12,21,11,304,,26,40,243,,29,55,071,43,30,25,133,,1*7B
$GNGLL,4442.99499,S,16910.70824,E,052353.00,A,A*6C


$GNRMC,052354.00,A,4442.99497,S,16910.70823,E,0.003,,200525,,,A,V*02
$GNVTG,,T,,M,0.003,N,0.006,K,A*38
$GNGGA,052354.00,4442.99497,S,16910.70823,E,1,12,0.49,338.8,M,4.6,M,,*6B
$GNGSA,A,3,01,02,07,08,13,14,17,22,,,,,1.12,0.49,1.01,1*03
$GNGSA,A,3,78,86,77,79,69,88,87,68,,,,,1.12,0.49,1.01,2*0C
$GNGSA,A,3,02,08,07,25,,,,,,,,,1.12,0.49,1.01,3*06
$GNGSA,A,3,01,03,06,09,14,16,29,,,,,,1.12,0.49,1.01,4*0F
$GPGSV,4,1,16,01,21,060,42,02,33,089,44,07,51,044,48,08,36,128,42,1*68
$GPGSV,4,2,16,09,01,000,,13,33,237,45,14,57,257,44,15,08,214,,1*64
$GPGSV,4,3,16,17,31,334,46,19,07,329,,22,36,270,41,27,02,137,,1*66
$GPGSV,4,4,16,30,84,301,,44,03,078,,46,11,069,39,50,24,308,39,1*67
$GLGSV,3,1,10,67,08,324,,68,30,279,45,69,25,223,46,76,03,084,,1*70
$GLGSV,3,2,10,77,43,105,39,78,56,214,42,79,12,249,45,86,16,154,46,1*74
$GLGSV,3,3,10,87,46,114,47,88,33,029,48,1*74
$GAGSV,3,1,12,02,72,144,46,03,08,002,,07,39,248,42,08,42,321,46,7*76
$GAGSV,3,2,12,10,11,149,,11,21,124,,16,00,104,,25,22,108,40,7*70
$GAGSV,3,3,12,29,03,209,,30,45,269,,34,04,025,,36,24,071,,7*7D
$GBGSV,3,1,12,01,32,327,40,03,13,293,33,04,36,347,,06,39,234,40,1*70
$GBGSV,3,2,12,09,24,233,38,14,14,229,40,15,52,005,,16,46,233,44,1*7E
$GBGSV,3,3,12,21,11,304,,26,40,243,,29,55,071,43,30,25,133,,1*7B
$GNGLL,4442.99497,S,16910.70823,E,052354.00,A,A*62


$GNRMC,052355.00,A,4442.99496,S,16910.70822,E,0.005,,200525,,,A,V*05
$GNVTG,,T,,M,0.005,N,0.009,K,A*31
$GNGGA,052355.00,4442.99496,S,16910.70822,E,1,12,0.48,339.1,M,4.6,M,,*63
$GNGSA,A,3,01,02,07,08,13,14,17,22,,,,,1.08,0.48,0.97,1*07
$GNGSA,A,3,78,86,77,79,69,88,87,68,,,,,1.08,0.48,0.97,2*08
$GNGSA,A,3,02,08,07,25,,,,,,,,,1.08,0.48,0.97,3*02
$GNGSA,A,3,01,03,06,09,14,16,29,,,,,,1.08,0.48,0.97,4*0B
$GPGSV,4,1,16,01,21,060,42,02,33,089,44,07,51,044,48,08,36,128,42,1*68
$GPGSV,4,2,16,09,01,000,,13,33,237,45,14,57,257,44,15,08,214,,1*64
$GPGSV,4,3,16,17,31,334,46,19,07,329,,22,36,270,41,27,02,137,,1*66
$GPGSV,4,4,16,30,84,301,,44,03,078,,46,11,069,39,50,24,308,39,1*67
$GLGSV,3,1,10,67,08,324,,68,30,279,45,69,25,223,45,76,03,084,,1*73
$GLGSV,3,2,10,77,43,105,39,78,56,214,42,79,12,249,45,86,16,154,46,1*74
$GLGSV,3,3,10,87,46,114,47,88,33,029,48,1*74
$GAGSV,3,1,12,02,72,144,46,03,08,002,,07,39,248,42,08,42,321,46,7*76
$GAGSV,3,2,12,10,11,149,,11,21,124,,16,00,104,,25,22,108,40,7*70
$GAGSV,3,3,12,29,03,209,,30,45,269,,34,04,025,,36,24,071,,7*7D
$GBGSV,3,1,12,01,32,327,40,03,13,293,33,04,36,347,,06,39,234,40,1*70
$GBGSV,3,2,12,09,24,233,38,14,14,229,40,15,52,005,,16,46,233,44,1*7E
$GBGSV,3,3,12,21,11,304,,26,40,243,,29,55,071,43,30,25,133,,1*7B
$GNGLL,4442.99496,S,16910.70822,E,052355.00,A,A*63


$GNRMC,052356.00,A,4442.99494,S,16910.70820,E,0.009,,200525,,,A,V*0A
$GNVTG,,T,,M,0.009,N,0.016,K,A*33
$GNGGA,052356.00,4442.99494,S,16910.70820,E,1,12,0.48,339.3,M,4.6,M,,*62
$GNGSA,A,3,01,02,07,08,13,14,17,22,,,,,1.08,0.48,0.97,1*07
$GNGSA,A,3,78,86,77,79,69,88,87,68,,,,,1.08,0.48,0.97,2*08
$GNGSA,A,3,02,08,07,25,,,,,,,,,1.08,0.48,0.97,3*02
$GNGSA,A,3,01,03,06,09,14,16,29,,,,,,1.08,0.48,0.97,4*0B
$GPGSV,4,1,16,01,21,060,43,02,33,089,44,07,51,044,48,08,36,128,42,1*69
$GPGSV,4,2,16,09,01,000,,13,33,237,45,14,57,257,44,15,08,214,,1*64
$GPGSV,4,3,16,17,31,334,46,19,07,329,,22,36,270,41,27,02,137,,1*66
$GPGSV,4,4,16,30,84,301,,44,03,078,,46,11,069,39,50,24,308,39,1*67
$GLGSV,3,1,10,67,08,324,,68,30,279,45,69,25,223,46,76,03,084,,1*70
$GLGSV,3,2,10,77,43,105,39,78,56,214,42,79,12,249,45,86,16,154,45,1*77
$GLGSV,3,3,10,87,46,114,47,88,33,029,47,1*7B
$GAGSV,3,1,12,02,72,144,46,03,08,002,,07,39,248,42,08,42,321,46,7*76
$GAGSV,3,2,12,10,11,149,,11,21,124,,16,00,104,,25,22,108,40,7*70
$GAGSV,3,3,12,29,03,209,,30,45,269,,34,04,025,,36,24,071,,7*7D
$GBGSV,3,1,12,01,32,327,40,03,13,293,33,04,36,347,,06,39,234,40,1*70
$GBGSV,3,2,12,09,24,233,38,14,14,229,40,15,52,005,,16,46,233,44,1*7E
$GBGSV,3,3,12,21,11,304,,26,40,243,,29,55,071,43,30,25,133,,1*7B
$GNGLL,4442.99494,S,16910.70820,E,052356.00,A,A*60


$GNRMC,052357.00,A,4442.99493,S,16910.70821,E,0.001,,200525,,,A,V*05
$GNVTG,,T,,M,0.001,N,0.001,K,A*3D
$GNGGA,052357.00,4442.99493,S,16910.70821,E,1,12,0.49,339.6,M,4.6,M,,*61
$GNGSA,A,3,01,02,07,08,13,14,17,22,,,,,1.12,0.49,1.01,1*03
$GNGSA,A,3,78,86,77,79,69,88,87,68,,,,,1.12,0.49,1.01,2*0C
$GNGSA,A,3,02,08,07,25,,,,,,,,,1.12,0.49,1.01,3*06
$GNGSA,A,3,01,03,06,09,14,16,29,,,,,,1.12,0.49,1.01,4*0F
$GPGSV,4,1,16,01,21,060,43,02,33,089,44,07,51,044,48,08,36,128,42,1*69
$GPGSV,4,2,16,09,01,000,,13,33,237,45,14,57,257,44,15,08,214,,1*64
$GPGSV,4,3,16,17,31,334,46,19,07,329,,22,36,270,41,27,02,137,,1*66
$GPGSV,4,4,16,30,84,301,,44,03,078,,46,11,069,39,50,24,308,39,1*67
$GLGSV,3,1,10,67,08,324,,68,30,279,45,69,25,223,45,76,03,084,,1*73
$GLGSV,3,2,10,77,43,105,39,78,56,214,42,79,12,249,45,86,16,154,47,1*75
$GLGSV,3,3,10,87,46,114,47,88,33,029,47,1*7B
$GAGSV,3,1,12,02,72,144,46,03,08,002,,07,39,248,42,08,42,321,46,7*76
$GAGSV,3,2,12,10,11,149,,11,21,124,,16,00,104,,25,22,108,40,7*70
$GAGSV,3,3,12,29,03,209,,30,45,269,,34,04,025,,36,24,071,,7*7D
$GBGSV,3,1,12,01,32,327,40,03,13,293,33,04,36,347,,06,39,234,39,1*7E
$GBGSV,3,2,12,09,24,233,37,14,14,229,40,15,52,005,,16,46,233,44,1*71
$GBGSV,3,3,12,21,11,304,,26,40,243,,29,55,071,43,30,25,133,,1*7B
$GNGLL,4442.99493,S,16910.70821,E,052357.00,A,A*67


$GNRMC,052358.00,A,4442.99491,S,16910.70819,E,0.006,,200525,,,A,V*04
$GNVTG,,T,,M,0.006,N,0.012,K,A*38
$GNGGA,052358.00,4442.99491,S,16910.70819,E,1,12,0.48,340.0,M,4.6,M,,*6E
$GNGSA,A,3,01,02,07,08,13,14,17,22,,,,,1.08,0.48,0.97,1*07
$GNGSA,A,3,78,86,77,79,69,88,87,68,,,,,1.08,0.48,0.97,2*08
$GNGSA,A,3,02,08,07,25,,,,,,,,,1.08,0.48,0.97,3*02
$GNGSA,A,3,01,03,06,09,14,16,29,,,,,,1.08,0.48,0.97,4*0B
$GPGSV,4,1,16,01,21,060,43,02,33,089,44,07,51,044,47,08,36,128,42,1*66
$GPGSV,4,2,16,09,01,000,,13,33,237,44,14,57,257,44,15,08,214,,1*65
$GPGSV,4,3,16,17,31,334,46,19,07,329,,22,36,270,41,27,02,137,,1*66
$GPGSV,4,4,16,30,84,301,,44,03,078,,46,11,069,39,50,24,308,39,1*67
$GLGSV,3,1,10,67,08,324,,68,30,279,45,69,25,223,45,76,03,084,,1*73
$GLGSV,3,2,10,77,43,105,38,78,56,214,42,79,12,249,45,86,16,154,46,1*75
$GLGSV,3,3,10,87,46,114,47,88,33,029,48,1*74
$GAGSV,3,1,12,02,72,144,46,03,08,002,,07,39,248,42,08,42,321,46,7*76
$GAGSV,3,2,12,10,11,149,,11,21,124,,16,00,104,,25,22,108,40,7*70
$GAGSV,3,3,12,29,03,209,,30,45,269,,34,04,025,,36,24,071,,7*7D
$GBGSV,3,1,12,01,32,327,40,03,13,293,33,04,36,347,,06,39,234,39,1*7E
$GBGSV,3,2,12,09,24,233,38,14,14,229,41,15,52,005,,16,46,233,44,1*7F
$GBGSV,3,3,12,21,11,304,,26,40,243,,29,55,071,43,30,25,133,,1*7B
$GNGLL,4442.99491,S,16910.70819,E,052358.00,A,A*61


$GNRMC,052359.00,A,4442.99489,S,16910.70818,E,0.007,,200525,,,A,V*0C
$GNVTG,,T,,M,0.007,N,0.012,K,A*39
$GNGGA,052359.00,4442.99489,S,16910.70818,E,1,12,0.48,340.3,M,4.6,M,,*64
$GNGSA,A,3,01,02,07,08,13,14,17,22,,,,,1.08,0.48,0.97,1*07
$GNGSA,A,3,78,86,77,79,69,88,87,68,,,,,1.08,0.48,0.97,2*08
$GNGSA,A,3,02,08,07,25,,,,,,,,,1.08,0.48,0.97,3*02
$GNGSA,A,3,01,03,06,09,14,16,29,,,,,,1.08,0.48,0.97,4*0B
$GPGSV,4,1,16,01,21,060,43,02,33,089,44,07,51,044,47,08,36,128,42,1*66
$GPGSV,4,2,16,09,01,000,,13,33,237,44,14,57,257,44,15,08,214,,1*65
$GPGSV,4,3,16,17,31,334,46,19,07,329,,22,36,270,41,27,02,137,,1*66
$GPGSV,4,4,16,30,84,301,,44,03,078,,46,11,069,39,50,24,308,39,1*67
$GLGSV,3,1,10,67,08,324,,68,30,279,45,69,25,223,45,76,03,084,,1*73
$GLGSV,3,2,10,77,43,105,38,78,56,214,42,79,12,249,45,86,16,154,46,1*75
$GLGSV,3,3,10,87,46,114,46,88,33,029,48,1*75
$GAGSV,3,1,12,02,72,144,46,03,08,002,,07,39,248,42,08,42,321,46,7*76
$GAGSV,3,2,12,10,11,149,,11,21,124,,16,00,104,,25,22,108,40,7*70
$GAGSV,3,3,12,29,03,209,,30,45,269,,34,04,025,,36,24,071,,7*7D
$GBGSV,3,1,12,01,32,327,39,03,13,293,33,04,36,347,,06,39,234,40,1*7E
$GBGSV,3,2,12,09,24,233,38,14,14,229,40,15,52,005,,16,46,233,44,1*7E
$GBGSV,3,3,12,21,11,304,,26,40,243,,29,55,071,43,30,25,133,,1*7B
$GNGLL,4442.99489,S,16910.70818,E,052359.00,A,A*68


$GNRMC,052400.00,A,4442.99487,S,16910.70817,E,0.003,,200525,,,A,V*02
$GNVTG,,T,,M,0.003,N,0.005,K,A*3B
$GNGGA,052400.00,4442.99487,S,16910.70817,E,1,12,0.48,340.6,M,4.6,M,,*6B
$GNGSA,A,3,01,02,07,08,13,14,17,22,,,,,1.08,0.48,0.97,1*07
$GNGSA,A,3,78,86,77,79,69,88,87,68,,,,,1.08,0.48,0.97,2*08
$GNGSA,A,3,02,08,07,25,,,,,,,,,1.08,0.48,0.97,3*02
$GNGSA,A,3,01,03,06,09,14,16,29,,,,,,1.08,0.48,0.97,4*0B
$GPGSV,4,1,16,01,21,060,43,02,33,089,44,07,51,044,47,08,36,128,42,1*66
$GPGSV,4,2,16,09,01,000,,13,33,237,44,14,57,257,44,15,08,214,,1*65
$GPGSV,4,3,16,17,31,334,46,19,07,329,,22,36,270,41,27,02,137,,1*66
$GPGSV,4,4,16,30,84,301,,44,03,078,,46,11,069,39,50,24,308,39,1*67
$GLGSV,3,1,10,67,08,324,,68,30,279,46,69,25,223,45,76,03,084,,1*70
$GLGSV,3,2,10,77,43,105,38,78,56,214,42,79,12,249,45,86,16,154,45,1*76
$GLGSV,3,3,10,87,46,114,46,88,33,029,48,1*75
$GAGSV,3,1,12,02,72,144,46,03,08,002,,07,39,248,42,08,42,321,46,7*76
$GAGSV,3,2,12,10,11,149,,11,21,124,,16,00,104,,25,22,108,40,7*70
$GAGSV,3,3,12,29,03,209,,30,45,269,,34,04,025,,36,24,071,,7*7D
$GBGSV,3,1,12,01,32,327,40,03,13,293,33,04,36,347,,06,39,234,39,1*7E
$GBGSV,3,2,12,09,24,233,38,14,14,229,40,15,52,005,,16,46,233,44,1*7E
$GBGSV,3,3,12,21,11,304,,26,40,243,,29,55,071,43,30,25,133,,1*7B
$GNGLL,4442.99487,S,16910.70817,E,052400.00,A,A*62


$GNRMC,052401.00,A,4442.99488,S,16910.70814,E,0.058,,200525,,,A,V*01
$GNVTG,,T,,M,0.058,N,0.108,K,A*39
$GNGGA,052401.00,4442.99488,S,16910.70814,E,1,12,0.48,341.0,M,4.6,M,,*61
$GNGSA,A,3,01,02,07,08,13,14,17,22,,,,,1.08,0.48,0.97,1*07
$GNGSA,A,3,78,86,77,79,69,88,87,68,,,,,1.08,0.48,0.97,2*08
$GNGSA,A,3,02,08,07,25,,,,,,,,,1.08,0.48,0.97,3*02
$GNGSA,A,3,01,03,06,09,14,16,29,,,,,,1.08,0.48,0.97,4*0B
$GPGSV,4,1,16,01,21,060,43,02,33,089,44,07,51,044,48,08,36,128,42,1*69
$GPGSV,4,2,16,09,01,000,,13,33,237,44,14,57,257,44,15,08,214,,1*65
$GPGSV,4,3,16,17,31,334,46,19,07,329,,22,36,270,41,27,02,137,,1*66
$GPGSV,4,4,16,30,84,301,,44,03,078,,46,11,069,39,50,24,308,39,1*67
$GLGSV,3,1,10,67,08,324,,68,30,279,46,69,25,223,45,76,03,084,,1*70
$GLGSV,3,2,10,77,43,105,38,78,56,214,42,79,12,249,45,86,16,154,45,1*76
$GLGSV,3,3,10,87,46,114,46,88,33,029,48,1*75
$GAGSV,3,1,12,02,72,144,46,03,08,002,,07,39,248,42,08,42,321,46,7*76
$GAGSV,3,2,12,10,11,149,,11,21,124,,16,00,104,,25,22,108,40,7*70
$GAGSV,3,3,12,29,03,209,,30,45,269,,34,04,025,,36,24,071,,7*7D
$GBGSV,3,1,12,01,32,327,40,03,13,293,33,04,36,347,,06,39,234,40,1*70
$GBGSV,3,2,12,09,24,233,38,14,14,229,40,15,52,005,,16,46,233,44,1*7E
$GBGSV,3,3,12,21,11,304,,26,40,243,,29,55,071,43,30,25,133,,1*7B
$GNGLL,4442.99488,S,16910.70814,E,052401.00,A,A*6F


$GNRMC,052402.00,A,4442.99489,S,16910.70812,E,0.005,,200525,,,A,V*0D
$GNVTG,,T,,M,0.005,N,0.010,K,A*39
$GNGGA,052402.00,4442.99489,S,16910.70812,E,1,12,0.48,341.3,M,4.6,M,,*66
$GNGSA,A,3,01,02,07,08,13,14,17,22,,,,,1.08,0.48,0.97,1*07
$GNGSA,A,3,78,86,77,79,69,88,87,68,,,,,1.08,0.48,0.97,2*08
$GNGSA,A,3,02,08,07,25,,,,,,,,,1.08,0.48,0.97,3*02
$GNGSA,A,3,01,03,06,09,14,16,29,,,,,,1.08,0.48,0.97,4*0B
$GPGSV,4,1,16,01,22,060,43,02,33,089,45,07,51,044,48,08,36,128,42,1*6B
$GPGSV,4,2,16,09,01,000,,13,33,237,44,14,57,257,44,15,08,214,,1*65
$GPGSV,4,3,16,17,31,334,46,19,07,329,,22,36,270,41,27,02,137,,1*66
$GPGSV,4,4,16,30,84,301,,44,03,078,,46,11,069,39,50,24,308,39,1*67
$GLGSV,3,1,10,67,08,324,,68,30,279,46,69,25,223,45,76,03,084,,1*70
$GLGSV,3,2,10,77,43,105,38,78,56,214,42,79,12,249,45,86,16,154,46,1*75
$GLGSV,3,3,10,87,46,114,46,88,33,029,48,1*75
$GAGSV,3,1,12,02,72,144,46,03,08,002,,07,39,248,42,08,42,321,46,7*76
$GAGSV,3,2,12,10,11,149,,11,21,124,,16,00,104,,25,22,108,40,7*70
$GAGSV,3,3,12,29,03,209,,30,45,269,,34,04,025,,36,24,071,,7*7D
$GBGSV,3,1,12,01,32,327,40,03,13,293,33,04,36,347,,06,39,234,39,1*7E
$GBGSV,3,2,12,09,24,233,37,14,14,229,40,15,52,005,,16,46,233,44,1*71
$GBGSV,3,3,12,21,11,304,,26,40,243,,29,55,071,43,30,25,133,,1*7B
$GNGLL,4442.99489,S,16910.70812,E,052402.00,A,A*6B


$GNRMC,052403.00,A,4442.99491,S,16910.70809,E,0.003,,200525,,,A,V*09
$GNVTG,,T,,M,0.003,N,0.006,K,A*38
$GNGGA,052403.00,4442.99491,S,16910.70809,E,1,12,0.48,341.7,M,4.6,M,,*60
$GNGSA,A,3,01,02,07,08,13,14,17,22,,,,,1.08,0.48,0.97,1*07
$GNGSA,A,3,78,86,77,79,69,88,87,68,,,,,1.08,0.48,0.97,2*08
$GNGSA,A,3,02,08,07,25,,,,,,,,,1.08,0.48,0.97,3*02
$GNGSA,A,3,01,03,06,09,14,16,29,,,,,,1.08,0.48,0.97,4*0B
$GPGSV,4,1,16,01,22,060,43,02,33,089,45,07,51,044,48,08,36,128,42,1*6B
$GPGSV,4,2,16,09,01,000,,13,33,237,44,14,57,257,44,15,08,214,,1*65
$GPGSV,4,3,16,17,31,334,46,19,07,329,,22,36,270,41,27,02,137,,1*66
$GPGSV,4,4,16,30,84,301,,44,03,078,,46,11,069,39,50,24,308,39,1*67
$GLGSV,3,1,10,67,08,324,,68,30,279,45,69,25,223,46,76,03,084,,1*70
$GLGSV,3,2,10,77,43,105,38,78,56,214,42,79,12,249,45,86,16,154,44,1*77
$GLGSV,3,3,10,87,46,114,46,88,33,029,48,1*75
$GAGSV,3,1,12,02,72,144,46,03,08,002,,07,39,248,42,08,42,321,46,7*76
$GAGSV,3,2,12,10,11,149,,11,21,124,,16,00,104,,25,22,108,40,7*70
$GAGSV,3,3,12,29,03,209,,30,45,269,,34,04,025,,36,24,071,,7*7D
$GBGSV,3,1,12,01,32,327,40,03,13,293,33,04,36,347,,06,39,234,39,1*7E
$GBGSV,3,2,12,09,24,233,37,14,14,229,41,15,52,005,,16,46,233,44,1*70
$GBGSV,3,3,12,21,11,304,,26,40,243,,29,55,071,43,30,25,133,,1*7B
$GNGLL,4442.99491,S,16910.70809,E,052403.00,A,A*69


$GNRMC,052404.00,A,4442.99492,S,16910.70807,E,0.001,,200525,,,A,V*01
$GNVTG,,T,,M,0.001,N,0.002,K,A*3E
$GNGGA,052404.00,4442.99492,S,16910.70807,E,1,12,0.48,342.0,M,4.6,M,,*6E
$GNGSA,A,3,01,02,07,08,13,14,17,22,,,,,1.08,0.48,0.97,1*07
$GNGSA,A,3,78,86,77,79,69,88,87,68,,,,,1.08,0.48,0.97,2*08
$GNGSA,A,3,02,08,07,25,,,,,,,,,1.08,0.48,0.97,3*02
$GNGSA,A,3,01,03,06,09,14,16,29,,,,,,1.08,0.48,0.97,4*0B
$GPGSV,4,1,16,01,22,060,43,02,33,089,45,07,51,044,48,08,36,128,41,1*68
$GPGSV,4,2,16,09,01,000,,13,33,237,45,14,57,257,44,15,08,214,,1*64
$GPGSV,4,3,16,17,31,334,45,19,07,329,,22,36,270,41,27,02,137,,1*65
$GPGSV,4,4,16,30,84,301,,44,03,078,,46,11,069,39,50,24,308,39,1*67
$GLGSV,3,1,10,67,08,324,,68,30,279,45,69,25,223,46,76,03,084,,1*70
$GLGSV,3,2,10,77,43,105,38,78,56,214,42,79,12,249,45,86,16,154,45,1*76
$GLGSV,3,3,10,87,46,114,46,88,33,029,48,1*75
$GAGSV,3,1,12,02,72,144,46,03,08,002,,07,39,248,42,08,42,321,46,7*76
$GAGSV,3,2,12,10,11,149,,11,21,124,,16,00,104,,25,22,108,41,7*71
$GAGSV,3,3,12,29,03,209,,30,45,269,,34,04,025,,36,24,071,,7*7D
$GBGSV,3,1,12,01,32,327,40,03,13,293,33,04,36,347,,06,39,234,39,1*7E
$GBGSV,3,2,12,09,24,233,37,14,14,229,41,15,52,005,,16,46,233,44,1*70
$GBGSV,3,3,12,21,11,304,,26,40,243,,29,55,071,43,30,25,133,,1*7B
$GNGLL,4442.99492,S,16910.70807,E,052404.00,A,A*63


$GNRMC,052405.00,A,4442.99493,S,16910.70805,E,0.002,,200525,,,A,V*00
$GNVTG,,T,,M,0.002,N,0.004,K,A*3B
$GNGGA,052405.00,4442.99493,S,16910.70805,E,1,12,0.48,342.2,M,4.6,M,,*6E
$GNGSA,A,3,01,02,07,08,13,14,17,22,,,,,1.08,0.48,0.97,1*07
$GNGSA,A,3,78,86,77,79,69,88,87,68,,,,,1.08,0.48,0.97,2*08
$GNGSA,A,3,02,08,07,25,,,,,,,,,1.08,0.48,0.97,3*02
$GNGSA,A,3,01,03,06,09,14,16,29,,,,,,1.08,0.48,0.97,4*0B
$GPGSV,4,1,16,01,22,060,43,02,33,089,45,07,51,044,48,08,36,128,41,1*68
$GPGSV,4,2,16,09,01,000,,13,33,237,45,14,57,257,44,15,08,214,,1*64
$GPGSV,4,3,16,17,31,334,46,19,07,329,,22,36,270,41,27,02,137,,1*66
$GPGSV,4,4,16,30,84,301,,44,03,078,,46,11,069,39,50,24,308,39,1*67
$GLGSV,3,1,10,67,08,324,,68,30,279,45,69,25,223,46,76,03,084,,1*70
$GLGSV,3,2,10,77,43,105,38,78,56,214,42,79,12,249,46,86,16,154,45,1*75
$GLGSV,3,3,10,87,46,114,46,88,33,029,48,1*75
$GAGSV,3,1,12,02,72,144,46,03,08,002,,07,39,248,41,08,42,321,46,7*75
$GAGSV,3,2,12,10,11,149,,11,21,124,,16,00,104,,25,22,108,41,7*71
$GAGSV,3,3,12,29,03,209,,30,45,269,,34,04,025,,36,24,071,,7*7D
$GBGSV,3,1,12,01,32,327,40,03,13,293,33,04,36,347,,06,39,234,39,1*7E
$GBGSV,3,2,12,09,24,233,37,14,14,229,40,15,52,005,,16,46,233,44,1*71
$GBGSV,3,3,12,21,11,304,,26,40,243,,29,55,071,43,30,25,133,,1*7B
$GNGLL,4442.99493,S,16910.70805,E,052405.00,A,A*61


$GNRMC,052406.00,A,4442.99494,S,16910.70802,E,0.007,,200525,,,A,V*06
$GNVTG,,T,,M,0.007,N,0.012,K,A*39
$GNGGA,052406.00,4442.99494,S,16910.70802,E,1,12,0.48,342.5,M,4.6,M,,*6A
$GNGSA,A,3,01,02,07,08,13,14,17,22,,,,,1.08,0.48,0.97,1*07
$GNGSA,A,3,78,86,77,79,69,88,87,68,,,,,1.08,0.48,0.97,2*08
$GNGSA,A,3,02,08,07,25,,,,,,,,,1.08,0.48,0.97,3*02
$GNGSA,A,3,01,03,06,09,14,16,29,,,,,,1.08,0.48,0.97,4*0B
$GPGSV,4,1,16,01,22,060,43,02,33,089,45,07,51,044,48,08,36,128,41,1*68
$GPGSV,4,2,16,09,01,000,,13,33,237,45,14,57,257,44,15,08,214,,1*64
$GPGSV,4,3,16,17,31,334,46,19,07,329,,22,36,270,41,27,02,137,,1*66
$GPGSV,4,4,16,30,84,301,,44,03,078,,46,11,069,39,50,24,308,39,1*67
$GLGSV,3,1,10,67,08,324,,68,30,279,45,69,25,223,46,76,03,084,,1*70
$GLGSV,3,2,10,77,43,105,38,78,56,214,42,79,12,249,45,86,16,154,46,1*75
$GLGSV,3,3,10,87,46,114,46,88,33,029,48,1*75
$GAGSV,3,1,12,02,72,144,46,03,08,002,,07,39,248,41,08,42,321,46,7*75
$GAGSV,3,2,12,10,11,149,,11,21,124,,16,00,104,,25,22,108,41,7*71
$GAGSV,3,3,12,29,03,209,,30,45,269,,34,04,025,,36,24,071,,7*7D
$GBGSV,3,1,12,01,32,327,40,03,13,293,33,04,36,347,,06,39,234,39,1*7E
$GBGSV,3,2,12,09,24,233,37,14,14,229,40,15,52,005,,16,46,233,44,1*71
$GBGSV,3,3,12,21,11,304,,26,40,243,,29,55,071,43,30,25,133,,1*7B
$GNGLL,4442.99494,S,16910.70802,E,052406.00,A,A*62


$GNRMC,052407.00,A,4442.99494,S,16910.70801,E,0.008,,200525,,,A,V*0B
$GNVTG,,T,,M,0.008,N,0.015,K,A*31
$GNGGA,052407.00,4442.99494,S,16910.70801,E,1,12,0.48,342.8,M,4.6,M,,*65
$GNGSA,A,3,01,02,07,08,13,14,17,22,,,,,1.08,0.48,0.97,1*07
$GNGSA,A,3,78,86,77,79,69,88,87,68,,,,,1.08,0.48,0.97,2*08
$GNGSA,A,3,02,08,07,25,,,,,,,,,1.08,0.48,0.97,3*02
$GNGSA,A,3,01,03,06,09,14,16,29,,,,,,1.08,0.48,0.97,4*0B
$GPGSV,4,1,16,01,22,060,43,02,33,089,45,07,51,044,48,08,36,128,41,1*68
$GPGSV,4,2,16,09,01,000,,13,33,237,45,14,57,257,44,15,08,214,,1*64
$GPGSV,4,3,16,17,31,334,46,19,07,329,,22,36,270,41,27,02,137,,1*66
$GPGSV,4,4,16,30,84,301,,44,03,078,,46,11,069,39,50,24,308,39,1*67
$GLGSV,3,1,10,67,08,324,,68,30,279,45,69,25,223,46,76,03,084,,1*70
$GLGSV,3,2,10,77,43,105,38,78,56,214,42,79,12,249,45,86,16,154,46,1*75
$GLGSV,3,3,10,87,46,114,46,88,33,029,48,1*75
$GAGSV,3,1,12,02,72,144,46,03,08,002,,07,39,248,41,08,42,321,46,7*75
$GAGSV,3,2,12,10,11,149,,11,21,124,,16,00,104,,25,22,108,41,7*71
$GAGSV,3,3,12,29,03,209,,30,45,269,,34,04,025,,36,24,071,,7*7D
$GBGSV,3,1,12,01,32,327,40,03,13,293,33,04,36,347,,06,39,234,39,1*7E
$GBGSV,3,2,12,09,24,233,37,14,14,229,40,15,52,005,,16,46,233,44,1*71
$GBGSV,3,3,12,21,11,304,,26,40,243,,29,55,071,43,30,25,133,,1*7B
$GNGLL,4442.99494,S,16910.70801,E,052407.00,A,A*60


$GNRMC,052408.00,A,4442.99495,S,16910.70800,E,0.004,,200525,,,A,V*08
$GNVTG,,T,,M,0.004,N,0.007,K,A*3E
$GNGGA,052408.00,4442.99495,S,16910.70800,E,1,12,0.48,343.0,M,4.6,M,,*63
$GNGSA,A,3,01,02,07,08,13,14,17,22,,,,,1.08,0.48,0.97,1*07
$GNGSA,A,3,78,86,77,79,69,88,87,68,,,,,1.08,0.48,0.97,2*08
$GNGSA,A,3,02,08,07,25,,,,,,,,,1.08,0.48,0.97,3*02
$GNGSA,A,3,01,03,06,09,14,16,29,,,,,,1.08,0.48,0.97,4*0B
$GPGSV,4,1,16,01,22,060,43,02,33,089,45,07,51,044,48,08,36,128,41,1*68
$GPGSV,4,2,16,09,01,000,,13,33,237,45,14,57,257,44,15,08,214,,1*64
$GPGSV,4,3,16,17,31,334,46,19,07,329,,22,36,270,41,27,02,137,,1*66
$GPGSV,4,4,16,30,84,301,,44,03,078,,46,11,069,39,50,24,308,39,1*67
$GLGSV,3,1,10,67,08,324,,68,30,279,46,69,25,223,46,76,03,084,,1*73
$GLGSV,3,2,10,77,43,105,38,78,56,214,42,79,12,249,45,86,16,154,45,1*76
$GLGSV,3,3,10,87,46,114,46,88,33,029,48,1*75
$GAGSV,3,1,12,02,72,144,46,03,08,002,,07,39,248,41,08,42,321,46,7*75
$GAGSV,3,2,12,10,11,149,,11,21,124,,16,00,104,,25,22,108,41,7*71
$GAGSV,3,3,12,29,03,209,,30,45,269,,34,04,025,,36,24,071,,7*7D
$GBGSV,3,1,12,01,32,327,39,03,13,293,33,04,36,347,,06,39,234,39,1*70
$GBGSV,3,2,12,09,24,233,37,14,14,229,40,15,52,005,,16,46,233,44,1*71
$GBGSV,3,3,12,21,11,304,,26,40,243,,29,55,071,43,30,25,133,,1*7B
$GNGLL,4442.99495,S,16910.70800,E,052408.00,A,A*6F


$GNRMC,052409.00,A,4442.99494,S,16910.70799,E,0.114,,200525,,,A,V*07
$GNVTG,,T,,M,0.114,N,0.210,K,A*3A
$GNGGA,052409.00,4442.99494,S,16910.70799,E,1,12,0.48,343.2,M,4.6,M,,*6E
$GNGSA,A,3,01,02,07,08,13,14,17,22,,,,,1.08,0.48,0.97,1*07
$GNGSA,A,3,78,86,77,79,69,88,87,68,,,,,1.08,0.48,0.97,2*08
$GNGSA,A,3,02,08,07,25,,,,,,,,,1.08,0.48,0.97,3*02
$GNGSA,A,3,01,03,06,09,14,16,29,,,,,,1.08,0.48,0.97,4*0B
$GPGSV,4,1,16,01,22,060,43,02,33,089,45,07,51,044,48,08,36,128,41,1*68
$GPGSV,4,2,16,09,01,000,,13,33,237,45,14,57,257,44,15,08,214,,1*64
$GPGSV,4,3,16,17,31,334,46,19,07,329,,22,36,270,41,27,02,137,,1*66
$GPGSV,4,4,16,30,84,304,,44,03,078,,46,11,069,39,50,24,308,39,1*62
$GLGSV,3,1,10,67,08,324,,68,30,279,46,69,25,223,46,76,03,084,,1*73
$GLGSV,3,2,10,77,43,105,38,78,56,214,42,79,12,249,44,86,16,154,45,1*77
$GLGSV,3,3,10,87,46,114,46,88,33,029,48,1*75
$GAGSV,3,1,12,02,72,144,46,03,08,002,,07,39,248,41,08,42,321,46,7*75
$GAGSV,3,2,12,10,11,149,,11,21,124,,16,00,104,,25,22,108,40,7*70
$GAGSV,3,3,12,29,03,209,,30,45,269,,34,04,025,,36,24,071,,7*7D
$GBGSV,3,1,12,01,32,327,40,03,13,293,33,04,36,347,,06,39,234,39,1*7E
$GBGSV,3,2,12,09,24,233,37,14,14,229,40,15,52,005,,16,46,233,44,1*71
$GBGSV,3,3,12,21,11,304,,26,40,243,,29,55,071,44,30,25,133,,1*7C
$GNGLL,4442.99494,S,16910.70799,E,052409.00,A,A*60


$GNRMC,052410.00,A,4442.99495,S,16910.70798,E,0.005,,200525,,,A,V*0E
$GNVTG,,T,,M,0.005,N,0.010,K,A*39
$GNGGA,052410.00,4442.99495,S,16910.70798,E,1,12,0.48,343.3,M,4.6,M,,*67
$GNGSA,A,3,01,02,07,08,13,14,17,22,,,,,1.08,0.48,0.97,1*07
$GNGSA,A,3,78,86,77,79,69,88,87,68,,,,,1.08,0.48,0.97,2*08
$GNGSA,A,3,02,08,07,25,,,,,,,,,1.08,0.48,0.97,3*02
$GNGSA,A,3,01,03,06,09,14,16,29,,,,,,1.08,0.48,0.97,4*0B
$GPGSV,4,1,16,01,22,060,43,02,33,089,45,07,51,044,48,08,36,128,41,1*68
$GPGSV,4,2,16,09,01,000,,13,33,237,45,14,57,257,44,15,08,214,,1*64
$GPGSV,4,3,16,17,31,334,46,19,07,329,,22,36,270,41,27,02,137,,1*66
$GPGSV,4,4,16,30,84,304,,44,03,078,,46,11,069,39,50,24,308,39,1*62
$GLGSV,3,1,10,67,08,324,,68,30,279,46,69,25,223,46,76,03,084,,1*73
$GLGSV,3,2,10,77,43,105,38,78,56,214,42,79,12,249,44,86,16,154,45,1*77
$GLGSV,3,3,10,87,46,114,46,88,34,029,48,1*72
$GAGSV,3,1,12,02,72,144,46,03,08,002,,07,39,248,41,08,42,321,46,7*75
$GAGSV,3,2,12,10,11,149,,11,21,124,,16,00,104,,25,22,108,40,7*70
$GAGSV,3,3,12,29,03,209,,30,45,269,,34,04,025,,36,24,071,,7*7D
$GBGSV,3,1,12,01,32,327,40,03,13,293,33,04,36,347,,06,39,234,39,1*7E
$GBGSV,3,2,12,09,24,233,37,14,14,229,40,15,52,005,,16,46,233,44,1*71
$GBGSV,3,3,12,21,11,304,,26,40,243,,29,55,071,43,30,25,133,,1*7B
$GNGLL,4442.99495,S,16910.70798,E,052410.00,A,A*68


$GNRMC,052411.00,A,4442.99496,S,16910.70797,E,0.002,,200525,,,A,V*04
$GNVTG,,T,,M,0.002,N,0.004,K,A*3B
$GNGGA,052411.00,4442.99496,S,16910.70797,E,1,12,0.48,343.4,M,4.6,M,,*6D
$GNGSA,A,3,01,02,07,08,13,14,17,22,,,,,1.08,0.48,0.97,1*07
$GNGSA,A,3,78,86,77,79,69,88,87,68,,,,,1.08,0.48,0.97,2*08
$GNGSA,A,3,02,08,07,25,,,,,,,,,1.08,0.48,0.97,3*02
$GNGSA,A,3,01,03,06,09,14,16,29,,,,,,1.08,0.48,0.97,4*0B
$GPGSV,4,1,16,01,22,060,43,02,33,089,45,07,51,044,48,08,36,128,41,1*68
$GPGSV,4,2,16,09,01,000,,13,33,237,45,14,57,257,44,15,08,214,,1*64
$GPGSV,4,3,16,17,31,334,46,19,07,329,,22,36,270,41,27,02,137,,1*66
$GPGSV,4,4,16,30,84,304,,44,03,078,,46,11,069,39,50,24,308,39,1*62
$GLGSV,3,1,10,67,08,324,,68,30,279,46,69,25,223,46,76,03,084,,1*73
$GLGSV,3,2,10,77,43,105,39,78,56,214,42,79,12,249,44,86,16,154,44,1*77
$GLGSV,3,3,10,87,46,114,46,88,34,029,48,1*72
$GAGSV,3,1,12,02,72,144,46,03,08,002,,07,39,248,41,08,42,321,46,7*75
$GAGSV,3,2,12,10,11,149,,11,21,124,,16,00,104,,25,22,108,40,7*70
$GAGSV,3,3,12,29,03,209,,30,45,269,,34,04,025,,36,24,071,,7*7D
$GBGSV,3,1,12,01,32,327,39,03,13,293,33,04,36,347,,06,39,234,39,1*70
$GBGSV,3,2,12,09,24,233,37,14,14,229,40,15,52,005,,16,46,233,44,1*71
$GBGSV,3,3,12,21,11,304,,26,40,243,,29,55,071,43,30,25,133,,1*7B
$GNGLL,4442.99496,S,16910.70797,E,052411.00,A,A*65


$GNRMC,052412.00,A,4442.99498,S,16910.70796,E,0.008,,200525,,,A,V*02
$GNVTG,,T,,M,0.008,N,0.014,K,A*30
$GNGGA,052412.00,4442.99498,S,16910.70796,E,1,12,0.48,343.5,M,4.6,M,,*60
$GNGSA,A,3,01,02,07,08,13,14,17,22,,,,,1.08,0.48,0.97,1*07
$GNGSA,A,3,78,86,77,79,69,88,87,68,,,,,1.08,0.48,0.97,2*08
$GNGSA,A,3,02,08,07,25,,,,,,,,,1.08,0.48,0.97,3*02
$GNGSA,A,3,01,03,06,09,14,16,29,,,,,,1.08,0.48,0.97,4*0B
$GPGSV,4,1,16,01,22,060,43,02,33,089,45,07,51,044,48,08,36,128,41,1*68
$GPGSV,4,2,16,09,01,000,,13,33,237,45,14,57,257,44,15,08,214,,1*64
$GPGSV,4,3,16,17,31,334,46,19,07,329,,22,36,270,41,27,02,137,,1*66
$GPGSV,4,4,16,30,84,304,,44,03,078,,46,11,069,39,50,24,308,39,1*62
$GLGSV,3,1,10,67,08,324,,68,30,279,46,69,25,223,46,76,03,084,,1*73
$GLGSV,3,2,10,77,43,105,39,78,56,214,42,79,12,249,44,86,16,154,46,1*75
$GLGSV,3,3,10,87,46,114,46,88,34,029,48,1*72
$GAGSV,3,1,12,02,72,144,46,03,08,002,,07,39,248,41,08,42,321,46,7*75
$GAGSV,3,2,12,10,11,149,,11,21,124,,16,00,104,,25,22,108,40,7*70
$GAGSV,3,3,12,29,03,209,,30,45,269,,34,04,025,,36,24,071,,7*7D
$GBGSV,3,1,12,01,32,327,39,03,13,293,33,04,36,347,,06,39,234,39,1*70
$GBGSV,3,2,12,09,24,233,37,14,14,229,41,15,52,005,,16,46,233,44,1*70
$GBGSV,3,3,12,21,11,304,,26,40,243,,29,55,071,43,30,25,133,,1*7B
$GNGLL,4442.99498,S,16910.70796,E,052412.00,A,A*69


$GNRMC,052413.00,A,4442.99500,S,16910.70796,E,0.006,,200525,,,A,V*0D
$GNVTG,,T,,M,0.006,N,0.011,K,A*3B
$GNGGA,052413.00,4442.99500,S,16910.70796,E,1,12,0.48,343.6,M,4.6,M,,*62
$GNGSA,A,3,01,02,07,08,13,14,17,22,,,,,1.08,0.48,0.97,1*07
$GNGSA,A,3,78,86,77,79,69,88,87,68,,,,,1.08,0.48,0.97,2*08
$GNGSA,A,3,02,08,07,25,,,,,,,,,1.08,0.48,0.97,3*02
$GNGSA,A,3,01,03,06,09,14,16,29,,,,,,1.08,0.48,0.97,4*0B
$GPGSV,4,1,16,01,22,060,43,02,33,089,45,07,51,044,48,08,36,128,41,1*68
$GPGSV,4,2,16,09,01,000,,13,33,237,45,14,57,257,43,15,08,214,,1*63
$GPGSV,4,3,16,17,31,334,45,19,07,329,,22,36,270,41,27,02,137,,1*65
$GPGSV,4,4,16,30,84,304,,44,03,078,,46,11,069,39,50,24,308,39,1*62
$GLGSV,3,1,10,67,08,324,,68,30,279,46,69,25,223,46,76,03,084,,1*73
$GLGSV,3,2,10,77,43,105,39,78,56,214,42,79,12,249,44,86,16,154,45,1*76
$GLGSV,3,3,10,87,46,114,46,88,34,029,48,1*72
$GAGSV,3,1,12,02,72,144,46,03,08,002,,07,39,248,41,08,42,321,46,7*75
$GAGSV,3,2,12,10,11,149,,11,21,124,,16,00,104,,25,22,108,40,7*70
$GAGSV,3,3,12,29,03,209,,30,45,269,,34,04,025,,36,24,071,,7*7D
$GBGSV,3,1,12,01,32,327,40,03,13,293,33,04,36,347,,06,39,234,39,1*7E
$GBGSV,3,2,12,09,24,233,37,14,14,229,41,15,52,005,,16,46,233,44,1*70
$GBGSV,3,3,12,21,11,304,,26,40,243,,29,55,071,43,30,25,133,,1*7B
$GNGLL,4442.99500,S,16910.70796,E,052413.00,A,A*68


$GNRMC,052414.00,A,4442.99502,S,16910.70795,E,0.006,,200525,,,A,V*0B
$GNVTG,,T,,M,0.006,N,0.011,K,A*3B
$GNGGA,052414.00,4442.99502,S,16910.70795,E,1,12,0.48,343.7,M,4.6,M,,*65
$GNGSA,A,3,01,02,07,08,13,14,17,22,,,,,1.08,0.48,0.97,1*07
$GNGSA,A,3,78,86,77,79,69,88,87,68,,,,,1.08,0.48,0.97,2*08
$GNGSA,A,3,02,08,07,25,,,,,,,,,1.08,0.48,0.97,3*02
$GNGSA,A,3,01,03,06,09,14,16,29,,,,,,1.08,0.48,0.97,4*0B
$GPGSV,4,1,16,01,22,060,43,02,33,089,45,07,51,044,48,08,36,128,41,1*68
$GPGSV,4,2,16,09,01,000,,13,33,237,45,14,57,257,43,15,08,214,,1*63
$GPGSV,4,3,16,17,31,334,45,19,07,329,,22,36,270,41,27,02,137,,1*65
$GPGSV,4,4,16,30,84,304,,44,03,078,,46,11,069,39,50,24,308,39,1*62
$GLGSV,3,1,10,67,08,324,,68,30,279,46,69,25,223,46,76,03,084,,1*73
$GLGSV,3,2,10,77,43,105,39,78,56,214,42,79,12,249,44,86,16,154,45,1*76
$GLGSV,3,3,10,87,46,114,46,88,34,029,48,1*72
$GAGSV,3,1,12,02,72,144,46,03,08,002,,07,39,248,41,08,42,321,46,7*75
$GAGSV,3,2,12,10,11,149,,11,21,124,,16,00,104,,25,22,108,40,7*70
$GAGSV,3,3,12,29,03,209,,30,45,269,,34,04,025,,36,24,071,,7*7D
$GBGSV,3,1,12,01,32,327,39,03,13,293,33,04,36,347,,06,39,234,39,1*70
$GBGSV,3,2,12,09,24,233,37,14,14,229,41,15,52,005,,16,46,233,44,1*70
$GBGSV,3,3,12,21,11,304,,26,40,243,,29,55,071,43,30,25,133,,1*7B
$GNGLL,4442.99502,S,16910.70795,E,052414.00,A,A*6E


$GNRMC,052415.00,A,4442.99504,S,16910.70794,E,0.008,,200525,,,A,V*03
$GNVTG,,T,,M,0.008,N,0.016,K,A*32
$GNGGA,052415.00,4442.99504,S,16910.70794,E,1,12,0.48,343.8,M,4.6,M,,*6C
$GNGSA,A,3,01,02,07,08,13,14,17,22,,,,,1.08,0.48,0.97,1*07
$GNGSA,A,3,78,86,77,79,69,88,87,68,,,,,1.08,0.48,0.97,2*08
$GNGSA,A,3,02,08,07,25,,,,,,,,,1.08,0.48,0.97,3*02
$GNGSA,A,3,01,03,06,09,14,16,29,,,,,,1.08,0.48,0.97,4*0B
$GPGSV,4,1,16,01,22,060,43,02,33,089,45,07,51,044,48,08,36,128,41,1*68
$GPGSV,4,2,16,09,01,000,,13,33,237,45,14,57,257,43,15,08,214,,1*63
$GPGSV,4,3,16,17,31,334,45,19,07,329,,22,36,270,41,27,02,137,,1*65
$GPGSV,4,4,16,30,84,304,,44,03,078,,46,11,069,39,50,24,308,39,1*62
$GLGSV,3,1,10,67,08,324,,68,30,279,46,69,25,223,46,76,03,084,,1*73
$GLGSV,3,2,10,77,43,105,39,78,56,214,41,79,12,249,44,86,16,154,45,1*75
$GLGSV,3,3,10,87,46,114,46,88,34,029,48,1*72
$GAGSV,3,1,12,02,72,144,46,03,08,002,,07,39,248,41,08,42,321,46,7*75
$GAGSV,3,2,12,10,11,149,,11,21,124,,16,00,104,,25,22,108,40,7*70
$GAGSV,3,3,12,29,03,209,,30,45,269,,34,04,025,,36,24,071,,7*7D
$GBGSV,3,1,12,01,32,327,39,03,13,293,33,04,36,347,,06,39,234,39,1*70
$GBGSV,3,2,12,09,24,233,37,14,14,229,41,15,52,005,,16,46,233,44,1*70
$GBGSV,3,3,12,21,11,304,,26,40,243,,29,55,071,43,30,25,133,,1*7B
$GNGLL,4442.99504,S,16910.70794,E,052415.00,A,A*68


$GNRMC,052416.00,A,4442.99505,S,16910.70795,E,0.011,,200525,,,A,V*08
$GNVTG,,T,,M,0.011,N,0.020,K,A*3F
$GNGGA,052416.00,4442.99505,S,16910.70795,E,1,12,0.48,343.9,M,4.6,M,,*6E
$GNGSA,A,3,01,02,07,08,13,14,17,22,,,,,1.08,0.48,0.97,1*07
$GNGSA,A,3,78,86,77,79,69,88,87,68,,,,,1.08,0.48,0.97,2*08
$GNGSA,A,3,02,08,07,25,,,,,,,,,1.08,0.48,0.97,3*02
$GNGSA,A,3,01,03,06,09,14,16,29,,,,,,1.08,0.48,0.97,4*0B
$GPGSV,4,1,16,01,22,060,43,02,33,089,45,07,51,044,48,08,36,128,41,1*68
$GPGSV,4,2,16,09,01,000,,13,33,237,45,14,57,257,43,15,08,214,,1*63
$GPGSV,4,3,16,17,31,334,45,19,07,329,,22,36,270,41,27,02,137,,1*65
$GPGSV,4,4,16,30,84,304,,44,03,078,,46,11,069,39,50,24,308,39,1*62
$GLGSV,3,1,10,67,08,324,,68,30,279,46,69,25,223,46,76,03,084,,1*73
$GLGSV,3,2,10,77,43,105,39,78,56,214,41,79,12,249,44,86,16,154,45,1*75
$GLGSV,3,3,10,87,46,114,46,88,34,029,48,1*72
$GAGSV,3,1,12,02,72,144,46,03,08,002,,07,39,248,41,08,42,321,46,7*75
$GAGSV,3,2,12,10,11,149,,11,21,124,,16,00,104,,25,22,108,40,7*70
$GAGSV,3,3,12,29,03,209,,30,45,269,,34,04,025,,36,24,071,,7*7D
$GBGSV,3,1,12,01,32,327,40,03,13,293,33,04,36,347,,06,39,234,39,1*7E
$GBGSV,3,2,12,09,24,233,37,14,14,229,41,15,52,005,,16,46,233,44,1*70
$GBGSV,3,3,12,21,11,304,,26,40,243,,29,55,071,43,30,25,133,,1*7B
$GNGLL,4442.99505,S,16910.70795,E,052416.00,A,A*6B


$GNRMC,052417.00,A,4442.99506,S,16910.70794,E,0.013,,200525,,,A,V*09
$GNVTG,,T,,M,0.013,N,0.024,K,A*39
$GNGGA,052417.00,4442.99506,S,16910.70794,E,1,12,0.48,344.0,M,4.6,M,,*63
$GNGSA,A,3,01,02,07,08,13,14,17,22,,,,,1.08,0.48,0.97,1*07
$GNGSA,A,3,78,86,77,79,69,88,87,68,,,,,1.08,0.48,0.97,2*08
$GNGSA,A,3,02,08,07,25,,,,,,,,,1.08,0.48,0.97,3*02
$GNGSA,A,3,01,03,06,09,14,16,29,,,,,,1.08,0.48,0.97,4*0B
$GPGSV,4,1,16,01,22,060,43,02,33,089,44,07,51,044,48,08,36,128,41,1*69
$GPGSV,4,2,16,09,01,000,,13,33,237,45,14,57,257,43,15,08,214,,1*63
$GPGSV,4,3,16,17,31,334,45,19,07,329,,22,36,270,41,27,02,137,,1*65
$GPGSV,4,4,16,30,84,304,,44,03,078,,46,11,069,39,50,24,308,39,1*62
$GLGSV,3,1,10,67,08,324,,68,30,279,46,69,25,223,46,76,03,084,,1*73
$GLGSV,3,2,10,77,43,105,39,78,56,214,41,79,12,249,44,86,16,154,45,1*75
$GLGSV,3,3,10,87,46,114,46,88,34,029,48,1*72
$GAGSV,3,1,12,02,72,144,46,03,08,002,,07,39,248,41,08,42,321,46,7*75
$GAGSV,3,2,12,10,11,149,,11,21,124,,16,00,104,,25,22,108,40,7*70
$GAGSV,3,3,12,29,03,209,,30,45,269,,34,04,025,,36,24,071,,7*7D
$GBGSV,3,1,12,01,32,327,39,03,13,293,33,04,36,347,,06,39,234,39,1*70
$GBGSV,3,2,12,09,24,233,37,14,14,229,41,15,52,005,,16,46,233,44,1*70
$GBGSV,3,3,12,21,11,304,,26,40,243,,29,55,071,43,30,25,133,,1*7B
$GNGLL,4442.99506,S,16910.70794,E,052417.00,A,A*68


$GNRMC,052418.00,A,4442.99507,S,16910.70794,E,0.007,,200525,,,A,V*02
$GNVTG,,T,,M,0.007,N,0.012,K,A*39
$GNGGA,052418.00,4442.99507,S,16910.70794,E,1,12,0.48,344.1,M,4.6,M,,*6C
$GNGSA,A,3,01,02,07,08,13,14,17,22,,,,,1.08,0.48,0.97,1*07
$GNGSA,A,3,78,86,77,79,69,88,87,68,,,,,1.08,0.48,0.97,2*08
$GNGSA,A,3,02,08,07,25,,,,,,,,,1.08,0.48,0.97,3*02
$GNGSA,A,3,01,03,06,09,14,16,29,,,,,,1.08,0.48,0.97,4*0B
$GPGSV,4,1,16,01,22,060,43,02,33,089,44,07,51,044,48,08,36,128,41,1*69
$GPGSV,4,2,16,09,01,000,,13,33,237,45,14,57,257,43,15,08,214,,1*63
$GPGSV,4,3,16,17,31,334,45,19,07,329,,22,36,270,41,27,02,137,,1*65
$GPGSV,4,4,16,30,84,304,,44,03,078,,46,11,069,39,50,24,308,39,1*62
$GLGSV,3,1,10,67,08,324,,68,30,279,46,69,25,223,46,76,03,084,,1*73
$GLGSV,3,2,10,77,43,105,39,78,56,214,41,79,12,249,44,86,16,154,43,1*73
$GLGSV,3,3,10,87,46,114,46,88,34,029,48,1*72
$GAGSV,3,1,12,02,72,144,46,03,08,002,,07,39,248,41,08,41,321,46,7*76
$GAGSV,3,2,12,10,11,149,,11,21,124,,16,00,104,,25,22,108,40,7*70
$GAGSV,3,3,12,29,03,209,,30,45,269,,34,04,025,,36,24,071,,7*7D
$GBGSV,3,1,12,01,32,327,40,03,13,293,33,04,36,347,,06,39,234,39,1*7E
$GBGSV,3,2,12,09,24,233,37,14,14,229,41,15,52,005,,16,46,233,44,1*70
$GBGSV,3,3,12,21,11,304,,26,40,243,,29,55,071,44,30,25,133,,1*7C
$GNGLL,4442.99507,S,16910.70794,E,052418.00,A,A*66


$GNRMC,052419.00,A,4442.99509,S,16910.70794,E,0.007,,200525,,,A,V*0D
$GNVTG,,T,,M,0.007,N,0.013,K,A*38
$GNGGA,052419.00,4442.99509,S,16910.70794,E,1,12,0.48,344.2,M,4.6,M,,*60
$GNGSA,A,3,01,02,07,08,13,14,17,22,,,,,1.08,0.48,0.97,1*07
$GNGSA,A,3,78,86,77,79,69,88,87,68,,,,,1.08,0.48,0.97,2*08
$GNGSA,A,3,02,08,07,25,,,,,,,,,1.08,0.48,0.97,3*02
$GNGSA,A,3,01,03,06,09,14,16,29,,,,,,1.08,0.48,0.97,4*0B
$GPGSV,4,1,16,01,22,060,43,02,33,089,44,07,51,044,48,08,36,128,41,1*69
$GPGSV,4,2,16,09,01,000,,13,33,237,45,14,57,257,43,15,08,214,,1*63
$GPGSV,4,3,16,17,31,334,45,19,07,329,,22,36,270,41,27,02,137,,1*65
$GPGSV,4,4,16,30,84,304,,44,03,078,,46,11,069,39,50,24,308,39,1*62
$GLGSV,3,1,10,67,08,324,,68,30,279,46,69,25,223,46,76,03,084,,1*73
$GLGSV,3,2,10,77,43,105,39,78,56,214,42,79,12,249,44,86,16,154,45,1*76
$GLGSV,3,3,10,87,46,114,46,88,34,029,48,1*72
$GAGSV,3,1,12,02,72,144,46,03,08,002,,07,39,248,41,08,41,321,46,7*76
$GAGSV,3,2,12,10,11,149,,11,21,124,,16,00,104,,25,22,108,40,7*70
$GAGSV,3,3,12,29,03,209,,30,45,269,,34,04,025,,36,24,071,,7*7D
$GBGSV,3,1,12,01,32,327,40,03,13,293,33,04,36,347,,06,39,234,39,1*7E
$GBGSV,3,2,12,09,24,233,37,14,14,229,41,15,52,005,,16,46,233,44,1*70
$GBGSV,3,3,12,21,11,304,,26,40,243,,29,55,071,43,30,25,133,,1*7B
$GNGLL,4442.99509,S,16910.70794,E,052419.00,A,A*69


$GNRMC,052420.00,A,4442.99511,S,16910.70794,E,0.004,,200525,,,A,V*0D
$GNVTG,,T,,M,0.004,N,0.007,K,A*3E
$GNGGA,052420.00,4442.99511,S,16910.70794,E,1,12,0.48,344.3,M,4.6,M,,*62
$GNGSA,A,3,01,02,07,08,13,14,17,22,,,,,1.08,0.48,0.97,1*07
$GNGSA,A,3,78,86,77,79,69,88,87,68,,,,,1.08,0.48,0.97,2*08
$GNGSA,A,3,02,08,07,25,,,,,,,,,1.08,0.48,0.97,3*02
$GNGSA,A,3,01,03,06,09,14,16,29,,,,,,1.08,0.48,0.97,4*0B
$GPGSV,4,1,16,01,22,060,43,02,33,089,44,07,51,044,48,08,36,128,41,1*69
$GPGSV,4,2,16,09,01,000,,13,33,237,45,14,57,257,43,15,08,214,,1*63
$GPGSV,4,3,16,17,31,334,45,19,07,329,,22,36,270,41,27,02,137,,1*65
$GPGSV,4,4,16,30,84,304,,44,03,078,,46,11,069,39,50,24,308,39,1*62
$GLGSV,3,1,10,67,08,324,,68,30,279,46,69,25,223,46,76,03,084,,1*73
$GLGSV,3,2,10,77,43,105,39,78,56,214,42,79,12,249,45,86,16,154,44,1*76
$GLGSV,3,3,10,87,46,114,46,88,34,029,48,1*72
$GAGSV,3,1,12,02,72,144,46,03,08,002,,07,39,248,41,08,41,321,46,7*76
$GAGSV,3,2,12,10,11,149,,11,21,124,,16,00,104,,25,22,108,40,7*70
$GAGSV,3,3,12,29,03,209,,30,45,269,,34,04,025,,36,24,071,,7*7D
$GBGSV,3,1,12,01,32,327,40,03,13,293,33,04,36,347,,06,39,234,39,1*7E
$GBGSV,3,2,12,09,24,233,37,14,14,229,41,15,52,005,,16,46,233,44,1*70
$GBGSV,3,3,12,21,11,304,,26,40,243,,29,55,071,44,30,25,133,,1*7C
$GNGLL,4442.99511,S,16910.70794,E,052420.00,A,A*6A


$GNRMC,052421.00,A,4442.99513,S,16910.70793,E,0.008,,200525,,,A,V*05
$GNVTG,,T,,M,0.008,N,0.016,K,A*32
$GNGGA,052421.00,4442.99513,S,16910.70793,E,1,12,0.48,344.4,M,4.6,M,,*61
$GNGSA,A,3,01,02,07,08,13,14,17,22,,,,,1.08,0.48,0.97,1*07
$GNGSA,A,3,78,86,77,79,69,88,87,68,,,,,1.08,0.48,0.97,2*08
$GNGSA,A,3,02,08,07,25,,,,,,,,,1.08,0.48,0.97,3*02
$GNGSA,A,3,01,03,06,09,14,16,29,,,,,,1.08,0.48,0.97,4*0B
$GPGSV,4,1,16,01,22,060,43,02,33,089,44,07,51,044,48,08,36,128,41,1*69
$GPGSV,4,2,16,09,01,000,,13,33,237,45,14,57,257,43,15,08,214,,1*63
$GPGSV,4,3,16,17,31,334,45,19,07,329,,22,36,270,41,27,02,137,,1*65
$GPGSV,4,4,16,30,84,304,,44,03,078,,46,11,069,39,50,24,308,39,1*62
$GLGSV,3,1,10,67,08,324,,68,30,279,46,69,25,223,46,76,03,084,,1*73
$GLGSV,3,2,10,77,43,105,39,78,56,214,42,79,12,249,45,86,16,154,45,1*77
$GLGSV,3,3,10,87,46,114,46,88,34,029,48,1*72
$GAGSV,3,1,12,02,72,144,46,03,08,002,,07,39,248,41,08,41,321,46,7*76
$GAGSV,3,2,12,10,11,149,,11,21,124,,16,00,104,,25,22,108,40,7*70
$GAGSV,3,3,12,29,03,209,,30,45,269,,34,04,025,,36,24,071,,7*7D
$GBGSV,3,1,12,01,32,327,40,03,13,293,33,04,36,347,,06,39,234,39,1*7E
$GBGSV,3,2,12,09,24,233,36,14,14,229,41,15,52,005,,16,46,233,44,1*71
$GBGSV,3,3,12,21,11,304,,26,40,243,,29,55,071,43,30,25,133,,1*7B
$GNGLL,4442.99513,S,16910.70793,E,052421.00,A,A*6E


$GNRMC,052422.00,A,4442.99515,S,16910.70792,E,0.008,,200525,,,A,V*01
$GNVTG,,T,,M,0.008,N,0.014,K,A*30
$GNGGA,052422.00,4442.99515,S,16910.70792,E,1,12,0.48,344.4,M,4.6,M,,*65
$GNGSA,A,3,01,02,07,08,13,14,17,22,,,,,1.08,0.48,0.97,1*07
$GNGSA,A,3,78,86,77,79,69,88,87,68,,,,,1.08,0.48,0.97,2*08
$GNGSA,A,3,02,08,07,25,,,,,,,,,1.08,0.48,0.97,3*02
$GNGSA,A,3,01,03,06,09,14,16,29,,,,,,1.08,0.48,0.97,4*0B
$GPGSV,4,1,16,01,22,060,43,02,33,089,44,07,51,044,48,08,36,128,40,1*68
$GPGSV,4,2,16,09,01,000,,13,33,237,45,14,57,257,43,15,08,214,,1*63
$GPGSV,4,3,16,17,31,334,45,19,07,329,,22,36,270,41,27,02,137,,1*65
$GPGSV,4,4,16,30,84,304,,44,03,078,,46,11,069,39,50,24,308,39,1*62
$GLGSV,3,1,10,67,08,324,,68,30,279,46,69,25,223,46,76,03,084,,1*73
$GLGSV,3,2,10,77,43,105,39,78,56,214,42,79,12,249,45,86,16,154,44,1*76
$GLGSV,3,3,10,87,46,114,46,88,34,029,47,1*7D
$GAGSV,3,1,12,02,72,144,46,03,08,002,,07,39,248,41,08,41,321,46,7*76
$GAGSV,3,2,12,10,11,149,,11,21,124,,16,00,104,,25,22,108,40,7*70
$GAGSV,3,3,12,29,03,209,,30,45,269,,34,04,025,,36,24,071,,7*7D
$GBGSV,3,1,12,01,32,327,40,03,13,293,33,04,36,347,,06,39,234,39,1*7E
$GBGSV,3,2,12,09,24,233,37,14,14,229,41,15,52,005,,16,46,233,44,1*70
$GBGSV,3,3,12,21,11,304,,26,40,243,,29,55,071,44,30,25,133,,1*7C
$GNGLL,4442.99515,S,16910.70792,E,052422.00,A,A*6A


$GNRMC,052423.00,A,4442.99516,S,16910.70791,E,0.006,,200525,,,A,V*0E
$GNVTG,,T,,M,0.006,N,0.011,K,A*3B
$GNGGA,052423.00,4442.99516,S,16910.70791,E,1,12,0.48,344.5,M,4.6,M,,*65
$GNGSA,A,3,01,02,07,08,13,14,17,22,,,,,1.08,0.48,0.97,1*07
$GNGSA,A,3,78,86,77,79,69,88,87,68,,,,,1.08,0.48,0.97,2*08
$GNGSA,A,3,02,08,07,25,,,,,,,,,1.08,0.48,0.97,3*02
$GNGSA,A,3,01,03,06,09,14,16,29,,,,,,1.08,0.48,0.97,4*0B
$GPGSV,4,1,16,01,22,060,43,02,33,089,44,07,51,044,48,08,36,128,40,1*68
$GPGSV,4,2,16,09,01,000,,13,33,237,45,14,57,257,43,15,08,214,,1*63
$GPGSV,4,3,16,17,31,334,45,19,07,329,,22,36,270,41,27,02,137,,1*65
$GPGSV,4,4,16,30,84,304,,44,03,078,,46,11,069,39,50,24,308,39,1*62
$GLGSV,3,1,10,67,08,324,,68,30,279,46,69,25,223,46,76,03,084,,1*73
$GLGSV,3,2,10,77,43,105,39,78,56,214,42,79,12,249,44,86,16,154,44,1*77
$GLGSV,3,3,10,87,46,114,46,88,34,029,48,1*72
$GAGSV,3,1,12,02,72,143,46,03,08,002,,07,39,248,41,08,41,321,46,7*71
$GAGSV,3,2,12,10,11,149,,11,21,124,,16,00,104,,25,22,108,40,7*70
$GAGSV,3,3,12,29,03,209,,30,45,269,,34,04,025,,36,24,071,,7*7D
$GBGSV,3,1,12,01,32,327,40,03,13,293,33,04,36,347,,06,39,234,39,1*7E
$GBGSV,3,2,12,09,24,233,36,14,14,229,41,15,52,005,,16,46,233,44,1*71
$GBGSV,3,3,12,21,11,304,,26,40,243,,29,55,071,43,30,25,133,,1*7B
$GNGLL,4442.99516,S,16910.70791,E,052423.00,A,A*6B


$GNRMC,052424.00,A,4442.99518,S,16910.70790,E,0.005,,200525,,,A,V*05
$GNVTG,,T,,M,0.005,N,0.009,K,A*31
$GNGGA,052424.00,4442.99518,S,16910.70790,E,1,12,0.48,344.7,M,4.6,M,,*6F
$GNGSA,A,3,01,02,07,08,13,14,17,22,,,,,1.08,0.48,0.97,1*07
$GNGSA,A,3,78,86,77,79,69,88,87,68,,,,,1.08,0.48,0.97,2*08
$GNGSA,A,3,02,08,07,25,,,,,,,,,1.08,0.48,0.97,3*02
$GNGSA,A,3,01,03,06,09,14,16,29,,,,,,1.08,0.48,0.97,4*0B
$GPGSV,4,1,16,01,22,060,43,02,33,089,45,07,51,044,48,08,36,128,40,1*69
$GPGSV,4,2,16,09,01,000,,13,33,237,45,14,57,257,43,15,08,214,,1*63
$GPGSV,4,3,16,17,31,334,45,19,07,329,,22,36,270,42,27,02,137,,1*66
$GPGSV,4,4,16,30,84,304,,44,03,078,,46,11,069,39,50,24,308,39,1*62
$GLGSV,3,1,10,67,08,324,,68,30,279,46,69,25,223,47,76,03,084,,1*72
$GLGSV,3,2,10,77,43,105,39,78,56,214,42,79,12,249,44,86,16,154,44,1*77
$GLGSV,3,3,10,87,46,114,46,88,34,029,48,1*72
$GAGSV,3,1,12,02,72,143,46,03,08,002,,07,39,248,41,08,41,321,46,7*71
$GAGSV,3,2,12,10,11,149,,11,21,124,,16,00,104,,25,22,108,40,7*70
$GAGSV,3,3,12,29,03,209,,30,45,269,,34,04,025,,36,24,071,,7*7D
$GBGSV,3,1,12,01,32,327,40,03,13,293,33,04,36,347,,06,39,234,39,1*7E
$GBGSV,3,2,12,09,24,233,36,14,14,229,41,15,52,005,,16,46,233,44,1*71
$GBGSV,3,3,12,21,11,304,,26,40,243,,29,55,071,43,30,25,133,,1*7B
$GNGLL,4442.99518,S,16910.70790,E,052424.00,A,A*63


$GNRMC,052425.00,A,4442.99519,S,16910.70790,E,0.006,,200525,,,A,V*06
$GNVTG,,T,,M,0.006,N,0.012,K,A*38
$GNGGA,052425.00,4442.99519,S,16910.70790,E,1,12,0.48,344.7,M,4.6,M,,*6F
$GNGSA,A,3,01,02,07,08,13,14,17,22,,,,,1.08,0.48,0.97,1*07
$GNGSA,A,3,78,86,77,79,69,88,87,68,,,,,1.08,0.48,0.97,2*08
$GNGSA,A,3,02,08,07,25,,,,,,,,,1.08,0.48,0.97,3*02
$GNGSA,A,3,01,03,06,09,14,16,29,,,,,,1.08,0.48,0.97,4*0B
$GPGSV,4,1,16,01,22,060,43,02,33,089,45,07,51,044,48,08,36,128,41,1*68
$GPGSV,4,2,16,09,01,000,,13,33,237,45,14,57,257,43,15,08,214,,1*63
$GPGSV,4,3,16,17,31,334,45,19,07,329,,22,36,270,42,27,02,137,,1*66
$GPGSV,4,4,16,30,84,304,,44,03,078,,46,11,069,39,50,24,308,39,1*62
$GLGSV,3,1,10,67,08,324,,68,30,279,46,69,25,223,46,76,03,084,,1*73
$GLGSV,3,2,10,77,43,105,39,78,56,214,42,79,12,249,44,86,16,154,43,1*70
$GLGSV,3,3,10,87,46,114,46,88,34,029,48,1*72
$GAGSV,3,1,12,02,72,143,46,03,08,002,,07,39,248,41,08,41,321,46,7*71
$GAGSV,3,2,12,10,11,149,,11,21,124,,16,00,104,,25,22,108,40,7*70
$GAGSV,3,3,12,29,03,209,,30,45,269,,34,04,025,,36,24,071,,7*7D
$GBGSV,3,1,12,01,32,327,39,03,13,293,33,04,36,347,,06,39,234,39,1*70
$GBGSV,3,2,12,09,24,233,36,14,14,229,41,15,52,005,,16,46,233,44,1*71
$GBGSV,3,3,12,21,11,304,,26,40,243,,29,55,071,43,30,25,133,,1*7B
$GNGLL,4442.99519,S,16910.70790,E,052425.00,A,A*63


$GNRMC,052426.00,A,4442.99520,S,16910.70789,E,0.011,,200525,,,A,V*01
$GNVTG,,T,,M,0.011,N,0.020,K,A*3F
$GNGGA,052426.00,4442.99520,S,16910.70789,E,1,12,0.48,344.8,M,4.6,M,,*61
$GNGSA,A,3,01,02,07,08,13,14,17,22,,,,,1.08,0.48,0.97,1*07
$GNGSA,A,3,78,86,77,79,69,88,87,68,,,,,1.08,0.48,0.97,2*08
$GNGSA,A,3,02,08,07,25,,,,,,,,,1.08,0.48,0.97,3*02
$GNGSA,A,3,01,03,06,09,14,16,29,,,,,,1.08,0.48,0.97,4*0B
$GPGSV,4,1,16,01,22,060,43,02,33,089,45,07,51,044,48,08,36,128,41,1*68
$GPGSV,4,2,16,09,01,000,,13,33,237,45,14,57,257,43,15,08,214,,1*63
$GPGSV,4,3,16,17,31,334,45,19,07,329,,22,36,270,42,27,02,137,,1*66
$GPGSV,4,4,16,30,84,304,,44,03,078,,46,11,069,39,50,24,308,39,1*62
$GLGSV,3,1,10,67,08,324,,68,30,279,46,69,25,223,46,76,03,084,,1*73
$GLGSV,3,2,10,77,43,105,39,78,56,214,42,79,12,249,44,86,16,154,45,1*76
$GLGSV,3,3,10,87,46,114,46,88,34,029,47,1*7D
$GAGSV,3,1,12,02,72,143,46,03,08,002,,07,39,248,41,08,41,321,46,7*71
$GAGSV,3,2,12,10,11,149,,11,21,124,,16,00,104,,25,22,108,40,7*70
$GAGSV,3,3,12,29,03,209,,30,45,269,,34,04,025,,36,24,071,,7*7D
$GBGSV,3,1,12,01,32,327,39,03,13,293,33,04,36,347,,06,39,234,39,1*70
$GBGSV,3,2,12,09,24,233,36,14,14,229,41,15,52,005,,16,46,233,44,1*71
$GBGSV,3,3,12,21,11,304,,26,40,243,,29,55,071,43,30,25,133,,1*7B
$GNGLL,4442.99520,S,16910.70789,E,052426.00,A,A*62


$GNRMC,052427.00,A,4442.99521,S,16910.70789,E,0.006,,200525,,,A,V*07
$GNVTG,,T,,M,0.006,N,0.011,K,A*3B
$GNGGA,052427.00,4442.99521,S,16910.70789,E,1,12,0.48,344.9,M,4.6,M,,*60
$GNGSA,A,3,01,02,07,08,13,14,17,22,,,,,1.08,0.48,0.97,1*07
$GNGSA,A,3,78,86,77,79,69,88,87,68,,,,,1.08,0.48,0.97,2*08
$GNGSA,A,3,02,08,07,25,,,,,,,,,1.08,0.48,0.97,3*02
$GNGSA,A,3,01,03,06,09,14,16,29,,,,,,1.08,0.48,0.97,4*0B
$GPGSV,4,1,16,01,22,060,43,02,33,089,45,07,51,044,48,08,36,128,41,1*68
$GPGSV,4,2,16,09,01,000,,13,33,237,45,14,57,257,43,15,08,214,,1*63
$GPGSV,4,3,16,17,31,334,45,19,07,329,,22,36,270,42,27,02,137,,1*66
$GPGSV,4,4,16,30,84,304,,44,03,078,,46,11,069,40,50,24,308,39,1*6C
$GLGSV,3,1,10,67,08,324,,68,30,279,46,69,25,223,46,76,03,084,,1*73
$GLGSV,3,2,10,77,43,105,39,78,56,214,42,79,12,249,44,86,16,154,43,1*70
$GLGSV,3,3,10,87,46,114,46,88,34,029,47,1*7D
$GAGSV,3,1,12,02,72,143,46,03,08,002,,07,39,248,41,08,41,321,46,7*71
$GAGSV,3,2,12,10,11,149,,11,21,124,,16,00,104,,25,22,108,40,7*70
$GAGSV,3,3,12,29,03,209,,30,45,269,,34,04,025,,36,24,071,,7*7D
$GBGSV,3,1,12,01,32,327,39,03,13,293,33,04,36,347,,06,39,234,39,1*70
$GBGSV,3,2,12,09,24,233,37,14,14,229,41,15,52,005,,16,46,233,44,1*70
$GBGSV,3,3,12,21,11,304,,26,40,243,,29,55,071,43,30,25,133,,1*7B
$GNGLL,4442.99521,S,16910.70789,E,052427.00,A,A*62


$GNRMC,052428.00,A,4442.99523,S,16910.70789,E,0.007,,200525,,,A,V*0B
$GNVTG,,T,,M,0.007,N,0.013,K,A*38
$GNGGA,052428.00,4442.99523,S,16910.70789,E,1,12,0.48,345.0,M,4.6,M,,*65
$GNGSA,A,3,01,02,07,08,13,14,17,22,,,,,1.08,0.48,0.97,1*07
$GNGSA,A,3,78,86,77,79,69,88,87,68,,,,,1.08,0.48,0.97,2*08
$GNGSA,A,3,02,08,07,25,,,,,,,,,1.08,0.48,0.97,3*02
$GNGSA,A,3,01,03,06,09,14,16,29,,,,,,1.08,0.48,0.97,4*0B
$GPGSV,4,1,16,01,22,060,43,02,33,089,45,07,51,044,48,08,36,128,40,1*69
$GPGSV,4,2,16,09,01,000,,13,33,237,45,14,57,257,43,15,08,214,,1*63
$GPGSV,4,3,16,17,31,334,45,19,07,329,,22,36,270,42,27,02,137,,1*66
$GPGSV,4,4,16,30,84,304,,44,03,078,,46,11,069,40,50,24,308,39,1*6C
$GLGSV,3,1,10,67,08,324,,68,30,279,46,69,25,223,46,76,03,084,,1*73
$GLGSV,3,2,10,77,43,105,39,78,56,214,42,79,12,249,44,86,16,154,45,1*76
