$GNGGA,000008.000,4443.0117,S,16910.7100,E,2,17,0.65,345.2,M,6.1,M,,*5F
$GPGSV,3,1,12,03,62,297,49,26,59,075,49,31,58,126,48,04,52,236,42*7D
$GPGSV,3,2,12,16,40,018,45,28,25,119,42,50,23,307,40,09,14,243,41*7A
$GPGSV,3,3,12,06,09,222,45,29,06,131,37,195,06,330,27,194,,,*4E
$GLGSV,2,1,08,80,79,002,41,70,69,204,35,79,40,142,43,69,38,055,45*68
$GLGSV,2,2,08,73,23,330,43,71,19,222,40,87,08,197,25,86,05,244,38*6A
$GNRMC,000008.000,A,4443.0117,S,16910.7100,E,0.01,0.00,310524,,,D*69

$GNGGA,000018.000,4443.0117,S,16910.7100,E,2,17,0.65,345.2,M,6.1,M,,*5E
$GPGSV,3,1,12,03,62,297,48,26,59,075,49,31,58,126,48,04,52,236,43*7D
$GPGSV,3,2,12,16,40,018,44,28,25,119,42,50,23,307,40,09,14,243,40*7A
$GPGSV,3,3,12,06,09,222,46,29,06,131,38,195,06,330,27,194,,,25*45
$GLGSV,2,1,08,80,79,002,43,70,71,203,35,79,40,142,43,69,37,054,46*69
$GLGSV,2,2,08,73,23,330,43,71,20,221,39,87,08,197,24,86,05,244,33*67
$GNRMC,000018.000,A,4443.0117,S,16910.7100,E,0.03,0.00,310524,,,D*6A

$GNGGA,000028.000,4443.0117,S,16910.7099,E,2,17,0.65,345.3,M,6.1,M,,*5D
$GPGSV,3,1,12,03,62,297,48,26,59,075,49,31,58,126,48,04,52,236,43*7D
$GPGSV,3,2,12,16,40,018,44,28,25,119,42,50,23,307,40,09,14,243,38*75
$GPGSV,3,3,12,06,09,222,45,29,06,131,38,195,06,330,24,194,,,25*45
$GLGSV,2,1,08,80,80,003,43,70,71,203,34,79,39,142,43,69,37,054,46*61
$GLGSV,2,2,08,73,24,330,42,71,20,221,33,87,08,197,24,86,05,244,32*6A
$GNRMC,000028.000,A,4443.0117,S,16910.7099,E,0.01,0.00,310524,,,D*6A

$GNGGA,000038.000,4443.0117,S,16910.7100,E,2,16,0.66,345.6,M,6.1,M,,*5A
$GPGSV,3,1,12,03,62,297,48,26,59,075,49,31,58,126,48,04,52,236,44*7A
$GPGSV,3,2,12,16,40,018,44,28,25,119,43,50,23,307,40,09,14,243,39*75
$GPGSV,3,3,12,06,09,222,45,29,06,131,38,195,06,330,24,194,,,24*44
$GLGSV,2,1,08,80,80,003,43,70,71,203,34,79,39,142,44,69,37,054,46*66
$GLGSV,2,2,08,73,24,330,41,71,20,221,26,87,08,198,24,86,04,244,26*66
$GNRMC,000038.000,A,4443.0117,S,16910.7100,E,0.02,0.00,310524,,,D*69

$GNGGA,000048.000,4443.0117,S,16910.7099,E,2,15,0.74,345.6,M,6.1,M,,*5C
$GPGSV,3,1,12,03,62,297,47,26,59,075,49,31,58,126,48,04,52,236,46*77
$GPGSV,3,2,12,16,40,018,44,28,25,119,43,50,23,307,40,09,14,243,39*75
$GPGSV,3,3,12,06,09,222,44,29,06,131,39,195,06,330,28,194,,,21*4D
$GLGSV,2,1,08,80,80,003,43,70,71,203,31,79,39,142,44,69,37,054,45*60
$GLGSV,2,2,08,73,24,330,41,71,20,221,29,87,08,198,24,86,04,244,30*6E
$GNRMC,000048.000,A,4443.0117,S,16910.7099,E,0.01,0.00,310524,,,D*6C

$GNGGA,000058.000,4443.0116,S,16910.7098,E,2,16,0.66,345.6,M,6.1,M,,*5D
$GPGSV,3,1,12,03,62,297,47,26,59,075,49,31,58,126,48,04,52,236,46*77
$GPGSV,3,2,12,16,40,018,44,28,25,119,43,50,23,307,39,09,14,243,40*75
$GPGSV,3,3,12,06,09,222,45,29,06,131,39,195,06,330,32,194,,,25*43
$GLGSV,2,1,08,80,80,003,42,70,71,203,30,79,39,142,44,69,37,054,44*61
$GLGSV,2,2,08,73,24,330,37,71,20,221,35,87,08,198,24,86,04,244,28*6B
$GNRMC,000058.000,A,4443.0116,S,16910.7098,E,0.01,0.00,310524,,,D*6D

$GNGGA,000108.000,4443.0116,S,16910.7098,E,2,16,0.66,345.6,M,6.1,M,,*59
$GPGSV,3,1,12,03,61,298,46,26,59,075,49,31,58,126,48,04,52,236,47*7B
$GPGSV,3,2,12,16,40,018,44,28,25,119,44,50,23,307,40,09,14,243,39*72
$GPGSV,3,3,12,06,09,222,47,29,06,131,39,195,06,330,38,194,,,*4C
$GLGSV,2,1,08,80,80,003,43,70,71,203,30,79,39,142,45,69,37,054,44*61
$GLGSV,2,2,08,73,24,330,37,71,20,221,36,87,08,198,24,86,04,244,26*66
$GNRMC,000108.000,A,4443.0116,S,16910.7098,E,0.02,0.00,310524,,,D*6A

$GNGGA,000118.000,4443.0116,S,16910.7098,E,2,16,0.66,345.6,M,6.1,M,,*58
$GPGSV,3,1,12,03,61,298,46,26,59,075,48,31,58,126,48,04,53,235,47*78
$GPGSV,3,2,12,16,40,018,45,28,25,119,44,50,23,307,40,09,14,243,38*72
$GPGSV,3,3,12,06,10,223,46,29,06,131,38,195,06,330,38,194,,,*45
$GLGSV,2,1,08,80,80,003,43,70,71,203,28,79,39,142,45,69,37,054,43*6F
$GLGSV,2,2,08,73,24,330,36,71,20,221,39,87,08,198,26,86,04,244,22*6E
$GNRMC,000118.000,A,4443.0116,S,16910.7098,E,0.02,0.00,310524,,,D*6B

$GNGGA,000128.000,4443.0115,S,16910.7097,E,2,16,0.66,345.6,M,6.1,M,,*57
$GPGSV,3,1,12,03,61,298,46,26,59,075,48,31,58,126,48,04,53,235,47*78
$GPGSV,3,2,12,16,41,019,46,28,25,119,44,50,23,307,39,09,14,243,38*7F
$GPGSV,3,3,12,06,10,223,46,29,06,131,39,195,06,330,37,194,,,*4B
$GLGSV,2,1,08,80,80,003,44,70,71,203,27,79,39,142,45,69,37,054,43*67
$GLGSV,2,2,08,73,24,330,36,71,20,221,41,87,08,198,26,86,04,244,22*61
$GNRMC,000128.000,A,4443.0115,S,16910.7097,E,0.01,0.00,310524,,,D*67

$GNGGA,000138.000,4443.0115,S,16910.7097,E,2,16,0.66,345.6,M,6.1,M,,*56
$GPGSV,3,1,12,03,61,298,45,26,60,076,48,31,57,126,46,04,53,235,48*7C
$GPGSV,3,2,12,16,41,019,47,28,24,118,44,50,23,307,40,09,14,243,39*71
$GPGSV,3,3,12,06,10,223,45,29,06,131,41,195,06,330,37,194,,,*47
$GLGSV,2,1,08,80,80,003,43,70,71,203,25,79,39,142,45,69,37,054,40*61
$GLGSV,2,2,08,73,24,330,36,71,20,221,42,87,08,198,25,86,04,244,16*66
$GNRMC,000138.000,A,4443.0115,S,16910.7097,E,0.03,0.00,310524,,,D*64

$GNGGA,000148.000,4443.0114,S,16910.7097,E,2,17,0.65,345.7,M,6.1,M,,*53
$GPGSV,3,1,12,03,61,298,45,26,60,076,48,31,57,126,46,04,53,235,48*7C
$GPGSV,3,2,12,16,41,019,47,28,24,118,44,50,23,307,40,09,14,243,42*7D
$GPGSV,3,3,12,06,10,223,45,29,06,131,40,195,06,330,36,194,,,*47
$GLGSV,2,1,08,80,80,003,43,70,71,203,25,79,39,142,45,69,37,054,40*61
$GLGSV,2,2,08,73,24,330,38,71,20,221,43,87,08,198,26,86,04,244,*6D
$GNRMC,000148.000,A,4443.0114,S,16910.7097,E,0.01,0.00,310524,,,D*60

$GNGGA,000158.000,4443.0114,S,16910.7098,E,2,17,0.65,345.7,M,6.1,M,,*5D
$GPGSV,3,1,12,03,61,298,45,26,60,076,48,31,57,126,46,04,53,235,48*7C
$GPGSV,3,2,12,16,41,019,48,28,24,118,44,50,23,307,39,09,14,243,42*7C
$GPGSV,3,3,12,06,10,223,46,29,06,131,41,195,06,330,36,194,,,24*43
$GLGSV,2,1,08,80,80,003,43,70,71,203,26,79,39,142,45,69,37,054,40*62
$GLGSV,2,2,08,73,24,330,40,71,20,221,44,87,08,198,26,86,04,244,*65
$GNRMC,000158.000,A,4443.0114,S,16910.7098,E,0.01,0.00,310524,,,D*6E

$GNGGA,000208.000,4443.0114,S,16910.7098,E,2,17,0.65,345.7,M,6.1,M,,*5B
$GPGSV,3,1,12,03,61,298,44,26,60,076,48,31,57,126,45,04,53,235,47*71
$GPGSV,3,2,12,16,41,019,48,28,24,118,44,50,23,307,39,09,14,243,42*7C
$GPGSV,3,3,12,06,10,223,45,29,06,131,41,195,06,330,39,194,,,*49
$GLGSV,2,1,08,80,80,003,43,70,71,203,27,79,39,142,43,69,37,054,39*6B
$GLGSV,2,2,08,73,24,330,42,71,20,221,44,87,08,198,26,86,04,244,*67
$GNRMC,000208.000,A,4443.0114,S,16910.7098,E,0.01,0.00,310524,,,D*68

$GNGGA,000218.000,4443.0113,S,16910.7098,E,2,17,0.65,345.8,M,6.1,M,,*52
$GPGSV,3,1,12,03,61,298,44,26,60,076,47,31,57,126,44,04,53,235,47*7F
$GPGSV,3,2,12,16,41,019,49,28,24,118,44,50,23,307,39,09,14,243,43*7C
$GPGSV,3,3,12,06,10,223,45,29,06,131,41,195,06,330,39,194,,,*49
$GLGSV,2,1,08,80,80,003,43,70,72,202,28,79,39,142,43,69,37,054,41*69
$GLGSV,2,2,08,73,24,330,42,71,21,221,44,87,08,198,26,86,04,244,*66
$GNRMC,000218.000,A,4443.0113,S,16910.7098,E,0.02,0.00,310524,,,D*6D

$GNGGA,000228.000,4443.0113,S,16910.7098,E,2,17,0.65,345.8,M,6.1,M,,*51
$GPGSV,3,1,12,03,61,298,44,26,60,076,47,31,57,126,44,04,53,235,48*70
$GPGSV,3,2,12,16,41,019,49,28,24,118,44,50,23,307,40,09,14,243,43*72
$GPGSV,3,3,12,06,10,223,45,29,06,131,41,195,06,330,37,194,,,*47
$GLGSV,2,1,08,80,82,005,43,70,72,202,29,79,38,142,43,69,37,054,41*6D
$GLGSV,2,2,08,73,25,329,43,71,21,221,44,87,08,198,28,86,04,244,*60
$GNRMC,000228.000,A,4443.0113,S,16910.7098,E,0.01,0.00,310524,,,D*6D

$GNGGA,000238.000,4443.0113,S,16910.7098,E,2,17,0.65,345.8,M,6.1,M,,*50
$GPGSV,3,1,12,03,61,298,44,26,60,076,47,31,57,126,43,04,53,235,47*78
$GPGSV,3,2,12,16,41,019,49,28,24,118,44,50,23,307,40,09,14,243,43*72
$GPGSV,3,3,12,06,10,223,45,29,06,131,41,195,06,330,38,194,,,23*49
$GLGSV,2,1,08,80,82,005,44,70,72,202,32,79,38,142,41,69,37,054,42*61
$GLGSV,2,2,08,73,25,329,43,71,21,221,44,87,08,199,26,86,04,245,*6E
$GNRMC,000238.000,A,4443.0113,S,16910.7098,E,0.00,0.00,310524,,,D*6D

$GNGGA,000248.000,4443.0113,S,16910.7098,E,2,17,0.65,345.9,M,6.1,M,,*56
$GPGSV,3,1,12,03,61,298,43,26,60,076,47,31,57,126,43,04,53,235,47*7F
$GPGSV,3,2,12,16,41,019,49,28,24,118,43,50,23,307,40,09,14,243,42*74
$GPGSV,3,3,12,06,10,223,46,29,06,131,41,195,06,330,37,194,,,*44
$GLGSV,2,1,08,80,82,005,45,70,72,202,33,79,38,142,40,69,37,054,43*61
$GLGSV,2,2,08,73,25,329,43,71,21,221,42,87,08,199,26,86,04,245,*68
$GNRMC,000248.000,A,4443.0113,S,16910.7098,E,0.01,0.00,310524,,,D*6B

$GNGGA,000258.000,4443.0114,S,16910.7098,E,2,17,0.65,345.9,M,6.1,M,,*50
$GPGSV,3,1,12,03,61,298,43,26,60,076,47,31,57,126,43,04,53,235,47*7F
$GPGSV,3,2,12,16,41,019,49,28,24,118,43,50,23,307,39,09,14,243,43*7B
$GPGSV,3,3,12,06,10,223,46,29,06,131,42,195,06,330,39,194,,,*49
$GLGSV,2,1,08,80,82,005,44,70,72,202,33,79,38,142,39,69,37,054,44*69
$GLGSV,2,2,08,73,25,329,43,71,21,221,40,87,08,199,28,86,04,245,*64
$GNRMC,000258.000,A,4443.0114,S,16910.7098,E,0.01,0.00,310524,,,D*6D

$GNGGA,000308.000,4443.0114,S,16910.7098,E,2,17,0.65,345.9,M,6.1,M,,*54
$GPGSV,3,1,12,03,61,300,43,26,60,076,47,31,57,126,43,04,54,235,47*78
$GPGSV,3,2,12,16,41,019,48,28,24,118,43,50,23,307,40,09,14,243,42*75
$GPGSV,3,3,12,06,10,223,45,29,06,131,41,195,06,330,39,194,,,25*4E
$GLGSV,2,1,08,80,82,005,45,70,72,202,34,79,38,142,39,69,37,054,45*6E
$GLGSV,2,2,08,73,25,329,44,71,21,221,38,87,08,199,27,86,04,245,*63
$GNRMC,000308.000,A,4443.0114,S,16910.7098,E,0.02,0.00,310524,,,D*6A

$GNGGA,000318.000,4443.0114,S,16910.7098,E,2,17,0.65,346.0,M,6.1,M,,*5F
$GPGSV,3,1,12,03,61,300,43,26,60,076,47,31,57,126,44,04,54,235,46*7E
$GPGSV,3,2,12,16,41,019,48,28,24,118,43,50,23,307,40,09,15,242,41*76
$GPGSV,3,3,12,06,10,224,45,29,06,131,42,195,06,330,38,194,,,*4C
$GLGSV,2,1,08,80,82,005,45,70,72,202,35,79,38,142,40,69,37,054,46*62
$GLGSV,2,2,08,73,25,329,43,71,21,221,38,87,08,199,27,86,04,245,*64
$GNRMC,000318.000,A,4443.0114,S,16910.7098,E,0.01,0.00,310524,,,D*68

$GNGGA,000328.000,4443.0115,S,16910.7098,E,2,17,0.65,346.0,M,6.1,M,,*5D
$GPGSV,3,1,12,03,61,300,43,26,60,076,47,31,57,126,44,04,54,235,45*7D
$GPGSV,3,2,12,16,42,019,48,28,24,118,43,50,23,307,40,09,15,242,41*75
$GPGSV,3,3,12,06,10,224,44,29,06,131,42,195,06,330,38,194,,,24*4B
$GLGSV,2,1,08,80,82,005,45,70,72,202,35,79,38,142,41,69,37,054,46*63
$GLGSV,2,2,08,73,25,329,43,71,21,221,34,87,08,199,29,86,04,245,*66
$GNRMC,000328.000,A,4443.0115,S,16910.7098,E,0.01,0.00,310524,,,D*6A

$GNGGA,000338.000,4443.0115,S,16910.7098,E,2,17,0.65,346.0,M,6.1,M,,*5C
$GPGSV,3,1,12,03,61,300,43,26,60,078,47,31,56,126,45,04,54,235,44*72
$GPGSV,3,2,12,16,42,019,47,28,23,118,43,50,23,307,40,09,15,242,41*7D
$GPGSV,3,3,12,06,10,224,45,29,06,132,43,195,06,330,40,194,,,26*45
$GLGSV,2,1,08,80,82,005,45,70,72,202,36,79,38,142,42,69,37,054,46*63
$GLGSV,2,2,08,73,25,329,42,71,21,221,33,87,08,199,28,86,04,245,*61
$GNRMC,000338.000,A,4443.0115,S,16910.7098,E,0.01,0.00,310524,,,D*6B

$GNGGA,000348.000,4443.0115,S,16910.7097,E,2,17,0.65,346.0,M,6.1,M,,*54
$GPGSV,3,1,12,03,61,300,44,26,60,078,48,31,56,126,46,04,54,235,43*7E
$GPGSV,3,2,12,16,42,019,45,28,23,118,43,50,23,307,39,09,15,242,40*70
$GPGSV,3,3,12,06,10,224,46,29,06,132,43,195,06,330,40,194,,,25*45
$GLGSV,2,1,08,80,82,005,45,70,72,202,37,79,38,142,44,69,37,054,46*64
$GLGSV,2,2,08,73,25,329,41,71,21,221,35,87,08,199,28,86,04,245,*64
$GNRMC,000348.000,A,4443.0115,S,16910.7097,E,0.03,0.00,310524,,,D*61

$GNGGA,000358.000,4443.0114,S,16910.7096,E,2,17,0.65,346.0,M,6.1,M,,*55
$GPGSV,3,1,12,03,61,300,44,26,60,078,48,31,56,126,46,04,54,235,41*7C
$GPGSV,3,2,12,16,42,019,44,28,23,118,43,50,23,307,40,09,15,242,39*71
$GPGSV,3,3,12,06,10,224,46,29,06,132,44,195,06,330,40,194,,,25*42
$GLGSV,2,1,08,80,82,005,46,70,72,202,37,79,38,142,44,69,37,054,46*67
$GLGSV,2,2,08,73,25,329,40,71,21,221,35,87,08,199,26,86,04,245,*6B
$GNRMC,000358.000,A,4443.0114,S,16910.7096,E,0.02,0.00,310524,,,D*61

$GNGGA,000408.000,4443.0114,S,16910.7096,E,2,17,0.65,346.0,M,6.1,M,,*57
$GPGSV,3,1,12,03,61,300,44,26,60,078,48,31,56,126,46,04,54,235,40*7D
$GPGSV,3,2,12,16,42,019,42,28,23,118,43,50,23,307,40,09,15,242,38*76
$GPGSV,3,3,12,06,10,224,45,29,06,132,43,195,06,330,40,194,,,*41
$GLGSV,2,1,08,80,82,005,46,70,72,202,37,79,38,142,44,69,37,054,46*67
$GLGSV,2,2,08,73,25,329,40,71,21,221,38,87,08,199,26,86,04,245,*66
$GNRMC,000408.000,A,4443.0114,S,16910.7096,E,0.01,0.00,310524,,,D*60

$GNGGA,000418.000,4443.0114,S,16910.7095,E,2,17,0.65,346.0,M,6.1,M,,*55
$GPGSV,3,1,12,03,61,300,44,26,60,078,48,31,56,126,47,04,54,235,39*72
$GPGSV,3,2,12,16,42,019,42,28,23,118,43,50,23,307,40,09,15,242,37*79
$GPGSV,3,3,12,06,10,224,45,29,06,132,44,195,06,330,41,194,,,24*41
$GLGSV,2,1,08,80,82,005,46,70,73,202,38,79,38,142,46,69,36,053,46*6D
$GLGSV,2,2,08,73,26,329,39,71,22,221,41,87,08,199,27,86,04,245,*67
$GNRMC,000418.000,A,4443.0114,S,16910.7095,E,0.02,0.00,310524,,,D*61

$GNGGA,000428.000,4443.0113,S,16910.7095,E,2,17,0.65,346.1,M,6.1,M,,*50
$GPGSV,3,1,12,03,61,300,45,26,60,078,48,31,56,126,47,04,54,235,38*72
$GPGSV,3,2,12,16,42,019,42,28,23,118,44,50,23,307,40,09,15,242,37*7E
$GPGSV,3,3,12,06,10,224,45,29,06,132,44,195,06,330,41,194,,,26*43
$GLGSV,2,1,08,80,83,008,46,70,73,202,38,79,37,143,46,69,36,053,46*6F
$GLGSV,2,2,08,73,26,329,39,71,22,221,41,87,08,199,29,86,04,245,*69
$GNRMC,000428.000,A,4443.0113,S,16910.7095,E,0.02,0.00,310524,,,D*65

$GNGGA,000438.000,4443.0113,S,16910.7095,E,2,17,0.65,346.1,M,6.1,M,,*51
$GPGSV,3,1,11,03,61,300,45,26,60,078,48,31,56,126,48,04,54,235,36*70
$GPGSV,3,2,11,16,42,019,42,28,23,118,44,50,23,307,40,09,15,242,37*7D
$GPGSV,3,3,11,06,10,224,45,29,06,132,45,195,06,330,41*79
$GLGSV,2,1,08,80,83,008,46,70,73,202,38,79,37,143,46,69,36,053,45*6C
$GLGSV,2,2,08,73,26,329,40,71,22,221,43,87,08,200,29,86,03,246,*62
$GNRMC,000438.000,A,4443.0113,S,16910.7095,E,0.01,0.00,310524,,,D*67

$GNGGA,000448.000,4443.0112,S,16910.7095,E,2,17,0.65,346.1,M,6.1,M,,*57
$GPGSV,3,1,11,03,61,300,45,26,60,078,48,31,56,126,48,04,54,235,38*7E
$GPGSV,3,2,11,16,42,019,43,28,23,118,43,50,23,307,40,09,15,242,38*74
$GPGSV,3,3,11,06,10,224,46,29,06,132,45,195,06,330,41*7A
$GLGSV,2,1,08,80,83,008,46,70,73,202,38,79,37,143,46,69,36,053,43*6A
$GLGSV,2,2,08,73,26,329,41,71,22,221,43,87,08,200,28,86,03,246,16*65
$GNRMC,000448.000,A,4443.0112,S,16910.7095,E,0.01,0.00,310524,,,D*61

$GNGGA,000458.000,4443.0112,S,16910.7095,E,2,17,0.65,346.1,M,6.1,M,,*56
$GPGSV,3,1,11,03,61,300,45,26,60,078,48,31,56,126,48,04,54,235,39*7F
$GPGSV,3,2,11,16,42,019,44,28,23,118,43,50,23,307,40,09,15,242,40*7C
$GPGSV,3,3,11,06,10,224,45,29,06,132,45,195,06,330,40*78
$GLGSV,2,1,08,80,83,008,46,70,73,202,38,79,37,143,46,69,36,053,42*6B
$GLGSV,2,2,08,73,26,329,42,71,22,221,43,87,08,200,27,86,03,246,*6E
$GNRMC,000458.000,A,4443.0112,S,16910.7095,E,0.01,0.00,310524,,,D*60

$GNGGA,000508.000,4443.0112,S,16910.7096,E,2,17,0.65,346.1,M,6.1,M,,*51
$GPGSV,3,1,12,03,61,302,46,26,60,078,48,31,56,126,48,04,55,234,41*72
$GPGSV,3,2,12,16,42,019,45,28,23,118,41,50,23,307,40,09,15,242,40*7C
$GPGSV,3,3,12,06,10,224,45,29,06,132,45,195,06,330,40,194,,,*47
$GLGSV,2,1,08,80,83,008,47,70,73,202,38,79,37,143,45,69,36,053,41*6A
$GLGSV,2,2,08,73,26,329,42,71,22,221,43,87,08,200,29,86,03,246,*60
$GNRMC,000508.000,A,4443.0112,S,16910.7096,E,0.01,0.00,310524,,,D*67

$GNGGA,000518.000,4443.0112,S,16910.7096,E,2,17,0.65,346.1,M,6.1,M,,*50
$GPGSV,3,1,12,03,61,302,46,26,60,078,48,31,56,126,48,04,55,234,42*71
$GPGSV,3,2,12,16,42,019,47,28,23,118,42,50,23,307,40,09,16,242,40*7E
$GPGSV,3,3,12,06,09,225,45,29,06,132,45,195,06,330,41,194,,,*4F
$GLGSV,2,1,08,80,83,008,47,70,73,202,38,79,37,143,45,69,36,053,40*6B
$GLGSV,2,2,08,73,26,329,42,71,22,221,44,87,08,200,29,86,03,246,*67
$GNRMC,000518.000,A,4443.0112,S,16910.7096,E,0.01,0.00,310524,,,D*66

$GNGGA,000528.000,4443.0112,S,16910.7097,E,2,17,0.65,346.0,M,6.1,M,,*53
$GPGSV,3,1,12,03,61,302,47,26,60,078,48,31,56,126,48,04,55,234,44*76
$GPGSV,3,2,12,16,43,019,47,28,23,118,42,50,23,307,40,09,16,242,41*7E
$GPGSV,3,3,12,06,09,225,45,29,06,132,45,195,06,330,41,194,,,*4F
$GLGSV,2,1,08,80,83,008,47,70,73,202,38,79,37,143,44,69,36,053,38*65
$GLGSV,2,2,08,73,26,329,42,71,22,221,43,87,08,200,28,86,03,246,*61
$GNRMC,000528.000,A,4443.0112,S,16910.7097,E,0.02,0.00,310524,,,D*67

$GNGGA,000538.000,4443.0112,S,16910.7097,E,2,17,0.65,346.0,M,6.1,M,,*52
$GPGSV,3,1,12,03,61,302,47,26,60,080,48,04,55,234,45,31,55,125,48*70
$GPGSV,3,2,12,16,43,019,48,28,23,118,42,50,23,307,40,09,16,242,41*71
$GPGSV,3,3,12,06,09,225,44,29,07,133,44,195,05,330,41,194,,,*4C
$GLGSV,2,1,08,80,83,008,47,70,73,202,38,79,37,143,43,69,36,053,39*63
$GLGSV,2,2,08,73,26,329,42,71,22,221,43,87,08,200,29,86,03,246,*60
$GNRMC,000538.000,A,4443.0112,S,16910.7097,E,0.02,0.00,310524,,,D*66

$GNGGA,000548.000,4443.0112,S,16910.7097,E,2,17,0.65,346.0,M,6.1,M,,*55
$GPGSV,3,1,12,03,61,302,48,26,60,080,48,04,55,234,45,31,55,125,48*7F
$GPGSV,3,2,12,16,43,019,48,28,23,118,42,50,23,307,40,09,16,242,41*71
$GPGSV,3,3,12,06,09,225,43,29,07,133,44,195,05,330,41,194,,,*4B
$GLGSV,2,1,08,80,83,008,47,70,73,202,38,79,37,143,42,69,36,053,40*6C
$GLGSV,2,2,08,73,26,329,42,71,22,221,42,87,08,200,29,86,03,246,*61
$GNRMC,000548.000,A,4443.0112,S,16910.7097,E,0.02,0.00,310524,,,D*61

$GNGGA,000558.000,4443.0112,S,16910.7097,E,2,17,0.65,345.9,M,6.1,M,,*5E
$GPGSV,3,1,12,03,61,302,48,26,60,080,48,04,55,234,48,31,55,125,48*72
$GPGSV,3,2,12,16,43,019,49,28,23,118,41,50,23,307,40,09,16,242,43*71
$GPGSV,3,3,12,06,09,225,45,29,07,133,44,195,05,330,41,194,,,*4D
$GLGSV,2,1,08,80,83,008,47,70,73,202,38,79,37,143,40,69,36,053,41*6F
$GLGSV,2,2,08,73,26,329,42,71,22,221,41,87,08,200,29,86,03,246,*62
$GNRMC,000558.000,A,4443.0112,S,16910.7097,E,0.01,0.00,310524,,,D*63

$GNGGA,000608.000,4443.0112,S,16910.7097,E,2,17,0.65,345.9,M,6.1,M,,*58
$GPGSV,3,1,12,03,61,302,48,26,60,080,48,04,55,234,48,31,55,125,48*72
$GPGSV,3,2,12,16,43,019,49,28,23,118,41,50,23,307,39,09,16,242,43*7F
$GPGSV,3,3,12,06,09,225,46,29,07,133,42,195,05,330,41,194,,,*48
$GLGSV,2,1,08,80,83,008,47,70,73,202,37,79,37,143,39,69,36,053,43*6C
$GLGSV,2,2,08,73,26,329,42,71,22,221,41,87,08,200,28,86,03,246,*63
$GNRMC,000608.000,A,4443.0112,S,16910.7097,E,0.05,0.00,310524,,,D*61

$GNGGA,000618.000,4443.0113,S,16910.7097,E,2,17,0.65,345.9,M,6.1,M,,*58
$GPGSV,3,1,12,03,61,302,48,26,60,080,48,04,55,234,48,31,55,125,48*72
$GPGSV,3,2,12,16,43,019,49,28,23,118,41,50,23,307,39,09,16,242,43*7F
$GPGSV,3,3,12,06,09,225,45,29,07,133,42,195,05,330,40,194,,,*4A
$GLGSV,2,1,08,80,83,008,48,70,74,201,38,79,37,143,38,69,35,052,44*6C
$GLGSV,2,2,08,73,27,328,41,71,23,220,40,87,08,200,28,86,03,246,*61
$GNRMC,000618.000,A,4443.0113,S,16910.7097,E,0.00,0.00,310524,,,D*64

$GNGGA,000628.000,4443.0113,S,16910.7097,E,2,17,0.65,345.8,M,6.1,M,,*5A
$GPGSV,3,1,12,03,61,302,48,26,60,080,48,04,55,234,48,31,55,125,47*7D
$GPGSV,3,2,12,16,43,019,49,28,23,118,42,50,23,307,39,09,16,242,43*7C
$GPGSV,3,3,12,06,09,225,45,29,07,133,42,195,05,330,40,194,,,*4A
$GLGSV,2,1,08,80,84,012,48,70,74,201,38,79,36,143,38,69,35,052,45*60
$GLGSV,2,2,08,73,27,328,38,71,23,220,38,87,08,200,28,86,03,246,*60
$GNRMC,000628.000,A,4443.0113,S,16910.7097,E,0.01,0.00,310524,,,D*66

$GNGGA,000638.000,4443.0113,S,16910.7096,E,2,17,0.65,345.7,M,6.1,M,,*55
$GPGSV,3,1,12,03,61,302,48,26,60,080,48,04,55,234,48,31,55,125,46*7C
$GPGSV,3,2,12,16,43,019,49,28,23,118,42,50,23,307,39,09,16,242,42*7D
$GPGSV,3,3,12,06,09,225,45,29,07,133,42,195,05,330,39,194,,,*44
$GLGSV,2,1,08,80,84,012,48,70,74,201,37,79,36,143,39,69,35,052,45*6E
$GLGSV,2,2,08,73,27,328,37,71,23,220,38,87,08,201,30,86,02,247,*67
$GNRMC,000638.000,A,4443.0113,S,16910.7096,E,0.01,0.00,310524,,,D*66

$GNGGA,000648.000,4443.0113,S,16910.7096,E,2,17,0.65,345.7,M,6.1,M,,*52
$GPGSV,3,1,12,03,61,302,49,26,60,080,48,04,55,234,48,31,55,125,46*7D
$GPGSV,3,2,12,16,43,019,49,28,23,118,42,50,23,307,40,09,16,242,41*70
$GPGSV,3,3,12,06,09,225,45,29,07,133,42,195,05,330,40,194,,,*4A
$GLGSV,2,1,08,80,84,012,47,70,74,201,37,79,36,143,39,69,35,052,45*61
$GLGSV,2,2,08,73,27,328,37,71,23,220,37,87,08,201,27,86,02,247,*6E
$GNRMC,000648.000,A,4443.0113,S,16910.7096,E,0.02,0.00,310524,,,D*62

$GNGGA,000658.000,4443.0114,S,16910.7096,E,2,17,0.65,345.6,M,6.1,M,,*55
$GPGSV,3,1,12,03,61,302,49,26,60,080,48,04,55,234,49,31,55,125,46*7C
$GPGSV,3,2,12,16,43,019,48,28,23,118,43,50,23,307,40,09,16,242,41*70
$GPGSV,3,3,12,06,09,225,44,29,07,133,44,195,05,330,40,194,,,*4D
$GLGSV,2,1,08,80,84,012,48,70,74,201,36,79,36,143,41,69,35,052,46*63
$GLGSV,2,2,08,73,27,328,38,71,23,220,37,87,08,201,27,86,02,247,*61
$GNRMC,000658.000,A,4443.0114,S,16910.7096,E,0.01,0.00,310524,,,D*67

$GNGGA,000708.000,4443.0114,S,16910.7096,E,2,17,0.65,345.6,M,6.1,M,,*51
$GPGSV,3,1,12,03,60,304,49,26,60,080,48,04,55,234,49,31,55,125,46*7B
$GPGSV,3,2,12,16,43,019,47,28,23,118,43,50,23,307,40,09,16,242,42*7C
$GPGSV,3,3,12,06,09,225,44,29,07,133,43,195,05,330,40,194,,,*4A
$GLGSV,2,1,08,80,84,012,48,70,74,201,36,79,36,143,41,69,35,052,45*60
$GLGSV,2,2,08,73,27,328,39,71,23,220,40,87,08,201,26,86,02,247,*61
$GNRMC,000708.000,A,4443.0114,S,16910.7096,E,0.00,0.00,310524,,,D*62

$GNGGA,000718.000,4443.0114,S,16910.7096,E,2,17,0.65,345.6,M,6.1,M,,*50
$GPGSV,3,1,12,03,60,304,49,26,60,080,48,04,55,234,49,31,55,125,45*78
$GPGSV,3,2,12,16,44,020,46,28,23,118,43,50,23,307,40,09,17,241,42*72
$GPGSV,3,3,12,06,09,225,44,29,07,133,44,195,05,330,40,194,,,*4D
$GLGSV,2,1,08,80,84,012,47,70,74,201,36,79,36,143,42,69,35,052,45*6C
$GLGSV,2,2,08,73,27,328,40,71,23,220,42,87,08,201,23,86,02,247,*68
$GNRMC,000718.000,A,4443.0114,S,16910.7096,E,0.01,0.00,310524,,,D*62

$GNGGA,000728.000,4443.0114,S,16910.7096,E,2,17,0.65,345.5,M,6.1,M,,*50
$GPGSV,3,1,12,03,60,304,49,26,60,082,48,04,55,234,48,31,55,125,45*7B
$GPGSV,3,2,12,16,44,020,44,28,23,118,44,50,23,307,40,09,17,241,42*77
$GPGSV,3,3,12,06,09,225,45,29,07,133,44,195,05,330,40,194,,,*4C
$GLGSV,2,1,08,80,84,012,47,70,74,201,34,79,36,143,43,69,35,052,45*6F
$GLGSV,2,2,08,73,27,328,41,71,23,220,42,87,08,201,23,86,02,247,*69
$GNRMC,000728.000,A,4443.0114,S,16910.7096,E,0.00,0.00,310524,,,D*60

$GNGGA,000738.000,4443.0114,S,16910.7096,E,2,17,0.65,345.5,M,6.1,M,,*51
$GPGSV,3,1,12,03,60,304,49,26,60,082,48,04,55,234,48,31,55,125,45*7B
$GPGSV,3,2,12,16,44,020,42,50,23,307,40,28,22,117,44,09,17,241,40*7D
$GPGSV,3,3,12,06,09,225,45,29,07,134,45,195,05,330,39,194,,,*44
$GLGSV,2,1,08,80,84,012,47,70,74,201,34,79,36,143,43,69,35,052,44*6E
$GLGSV,2,2,08,73,27,328,41,71,23,220,42,87,08,201,25,86,02,247,*6F
$GNRMC,000738.000,A,4443.0114,S,16910.7096,E,0.02,0.00,310524,,,D*63

$GNGGA,000748.000,4443.0114,S,16910.7096,E,2,17,0.65,345.5,M,6.1,M,,*56
$GPGSV,3,1,12,03,60,304,49,26,60,082,48,04,55,234,48,31,55,125,44*7A
$GPGSV,3,2,12,16,44,020,40,50,23,307,40,28,22,117,44,09,17,241,39*71
$GPGSV,3,3,12,06,09,225,44,29,07,134,45,195,05,330,39,194,,,23*44
$GLGSV,2,1,08,80,84,012,47,70,74,201,34,79,36,143,43,69,35,052,43*69
$GLGSV,2,2,08,73,27,328,41,71,23,220,43,87,08,201,28,86,02,247,*63
$GNRMC,000748.000,A,4443.0114,S,16910.7096,E,0.01,0.00,310524,,,D*67

$GNGGA,000758.000,4443.0114,S,16910.7097,E,2,17,0.65,345.5,M,6.1,M,,*56
$GPGSV,3,1,12,03,60,304,49,26,60,082,48,04,55,234,48,31,55,125,44*7A
$GPGSV,3,2,12,16,44,020,39,50,23,307,40,28,22,117,45,09,17,241,38*7F
$GPGSV,3,3,12,06,09,225,46,29,07,134,45,195,05,330,38,194,,,23*47
$GLGSV,2,1,08,80,84,012,47,70,74,201,31,79,36,143,43,69,35,052,43*6C
$GLGSV,2,2,08,73,27,328,42,71,23,220,43,87,08,201,26,86,02,247,*6E
$GNRMC,000758.000,A,4443.0114,S,16910.7097,E,0.00,0.00,310524,,,D*66

$GNGGA,000808.000,4443.0114,S,16910.7096,E,2,17,0.65,345.5,M,6.1,M,,*5D
$GPGSV,3,1,12,03,60,304,49,26,60,082,48,04,55,234,47,31,55,125,44*75
$GPGSV,3,2,12,16,44,020,39,50,23,307,40,28,22,117,45,09,17,241,40*70
$GPGSV,3,3,12,06,09,225,45,29,07,134,44,195,05,330,37,194,,,21*48
$GLGSV,2,1,08,80,84,012,47,70,74,201,32,79,36,143,44,69,35,052,43*68
$GLGSV,2,2,08,73,27,328,43,71,23,220,42,87,08,201,21,86,02,247,*69
$GNRMC,000808.000,A,4443.0114,S,16910.7096,E,0.02,0.00,310524,,,D*6F

$GNGGA,000818.000,4443.0114,S,16910.7096,E,2,17,0.65,345.5,M,6.1,M,,*5C
$GPGSV,3,1,12,03,60,304,49,26,60,082,48,04,55,234,46,31,55,125,45*75
$GPGSV,3,2,12,16,44,020,40,50,23,307,40,28,22,117,45,09,17,241,41*7F
$GPGSV,3,3,12,06,09,225,45,29,07,134,45,195,05,330,38,194,,,21*46
$GLGSV,2,1,08,80,84,012,47,70,75,200,31,79,36,143,43,69,34,051,41*6C
$GLGSV,2,2,08,73,28,328,43,71,24,220,42,87,08,201,22,86,02,247,*62
$GNRMC,000818.000,A,4443.0114,S,16910.7096,E,0.01,0.00,310524,,,D*6D

$GNGGA,000828.000,4443.0114,S,16910.7096,E,2,17,0.65,345.5,M,6.1,M,,*5F
$GPGSV,3,1,12,03,60,304,49,26,60,082,48,04,55,234,46,31,55,125,45*75
$GPGSV,3,2,12,16,44,020,41,50,23,307,40,28,22,117,45,09,17,241,41*7E
$GPGSV,3,3,12,06,09,225,45,29,07,134,45,195,05,330,38,194,,,22*45
$GLGSV,2,1,08,80,85,018,47,70,75,200,31,79,35,143,43,69,34,051,41*64
$GLGSV,2,2,08,73,28,328,43,71,24,220,42,87,08,201,23,86,02,247,*63
$GNRMC,000828.000,A,4443.0114,S,16910.7096,E,0.01,0.00,310524,,,D*6E

$GNGGA,000838.000,4443.0114,S,16910.7096,E,2,17,0.65,345.5,M,6.1,M,,*5E
$GPGSV,3,1,12,03,60,304,49,26,60,082,48,04,55,234,46,31,55,125,46*76
$GPGSV,3,2,12,16,44,020,43,50,23,307,40,28,22,117,45,09,17,241,40*7D
$GPGSV,3,3,12,06,09,225,44,29,07,134,44,195,05,330,38,194,,,23*44
$GLGSV,2,1,08,80,85,018,47,70,75,200,30,79,35,143,42,69,34,051,40*65
$GLGSV,2,2,08,73,28,328,42,71,24,220,41,87,08,202,25,86,02,247,*64
$GNRMC,000838.000,A,4443.0114,S,16910.7096,E,0.01,0.00,310524,,,D*6F

$GNGGA,000848.000,4443.0114,S,16910.7096,E,2,17,0.65,345.5,M,6.1,M,,*59
$GPGSV,3,1,12,03,60,304,49,26,60,082,48,04,55,234,45,31,55,125,47*74
$GPGSV,3,2,12,16,44,020,45,50,23,307,40,28,22,117,45,09,17,241,42*79
$GPGSV,3,3,12,06,09,225,44,29,07,134,44,195,05,330,38,194,,,22*45
$GLGSV,2,1,08,80,85,018,47,70,75,200,29,79,35,143,41,69,34,051,40*6E
$GLGSV,2,2,08,73,28,328,42,71,24,220,41,87,08,202,24,86,02,247,*65
$GNRMC,000848.000,A,4443.0114,S,16910.7096,E,0.02,0.00,310524,,,D*6B

$GNGGA,000858.000,4443.0114,S,16910.7096,E,2,17,0.65,345.5,M,6.1,M,,*58
$GPGSV,3,1,12,03,60,304,48,26,60,082,48,04,55,234,43,31,55,125,47*73
$GPGSV,3,2,12,16,44,020,46,50,23,307,40,28,22,117,45,09,17,241,42*7A
$GPGSV,3,3,12,06,09,225,44,29,07,134,44,195,05,330,36,194,,,22*4B
$GLGSV,2,1,08,80,85,018,46,70,75,200,30,79,35,143,41,69,34,051,40*67
$GLGSV,2,2,08,73,28,328,41,71,24,220,40,87,08,202,25,86,02,247,*66
$GNRMC,000858.000,A,4443.0114,S,16910.7096,E,0.01,0.00,310524,,,D*69

$GNGGA,000908.000,4443.0114,S,16910.7096,E,2,17,0.65,345.5,M,6.1,M,,*5C
$GPGSV,3,1,12,26,60,082,48,03,59,306,48,04,56,233,43,31,55,125,47*7F
$GPGSV,3,2,12,16,44,020,47,50,23,307,40,28,22,117,45,09,17,241,44*7D
$GPGSV,3,3,12,06,09,226,44,29,07,134,44,195,05,330,34,194,,,21*49
$GLGSV,2,1,08,80,85,018,46,70,75,200,29,79,35,143,40,69,34,051,40*6E
$GLGSV,2,2,08,73,28,328,40,71,24,220,37,87,08,202,25,86,02,247,*67
$GNRMC,000908.000,A,4443.0114,S,16910.7096,E,0.02,0.00,310524,,,D*6E

$GNGGA,000918.000,4443.0114,S,16910.7095,E,2,17,0.65,345.5,M,6.1,M,,*5E
$GPGSV,3,1,12,26,60,082,48,03,59,306,48,04,56,233,43,31,55,125,48*70
$GPGSV,3,2,12,16,45,020,48,50,23,307,40,28,22,117,45,09,17,241,44*73
$GPGSV,3,3,12,06,09,226,44,29,07,134,44,195,05,330,35,194,,,22*4B
$GLGSV,2,1,08,80,85,018,47,70,75,200,30,79,35,143,40,69,34,051,41*66
$GLGSV,2,2,08,73,28,328,40,71,24,220,38,87,08,202,24,86,02,247,*69
$GNRMC,000918.000,A,4443.0114,S,16910.7095,E,0.01,0.00,310524,,,D*6F

$GNGGA,000928.000,4443.0114,S,16910.7094,E,2,17,0.65,345.5,M,6.1,M,,*5C
$GPGSV,3,1,12,26,60,084,48,03,59,306,47,04,56,233,42,31,55,125,49*79
$GPGSV,3,2,12,16,45,020,48,50,23,307,39,28,22,117,44,09,17,241,44*7C
$GPGSV,3,3,12,06,09,226,44,29,07,134,44,195,05,330,33,194,,,22*4D
$GLGSV,2,1,08,80,85,018,47,70,75,200,31,79,35,143,40,69,34,051,42*64
$GLGSV,2,2,08,73,28,328,38,71,24,220,36,87,08,202,24,86,02,247,*68
$GNRMC,000928.000,A,4443.0114,S,16910.7094,E,0.01,0.00,310524,,,D*6D

$GNGGA,000938.000,4443.0114,S,16910.7094,E,2,17,0.65,345.5,M,6.1,M,,*5D
$GPGSV,3,1,12,26,60,084,48,03,59,306,47,04,56,233,42,31,54,125,49*78
$GPGSV,3,2,12,16,45,020,49,50,23,307,40,28,21,117,43,09,17,241,44*77
$GPGSV,3,3,12,06,09,226,44,29,07,135,44,195,05,330,31,194,,,22*4E
$GLGSV,2,1,08,80,85,018,47,70,75,200,32,79,35,143,40,69,34,051,43*66
$GLGSV,2,2,08,73,28,328,37,71,24,220,35,87,08,202,22,86,02,247,*62
$GNRMC,000938.000,A,4443.0114,S,16910.7094,E,0.02,0.00,310524,,,D*6F

$GNGGA,000948.000,4443.0114,S,16910.7094,E,2,17,0.65,345.5,M,6.1,M,,*5A
$GPGSV,3,1,12,26,60,084,48,03,59,306,47,04,56,233,42,31,54,125,49*78
$GPGSV,3,2,12,16,45,020,49,50,23,307,39,28,21,117,43,09,17,241,44*79
$GPGSV,3,3,12,06,09,226,46,29,07,135,44,195,05,330,30,194,,,22*4D
$GLGSV,2,1,08,80,85,018,46,70,75,200,33,79,35,143,41,69,34,051,44*60
$GLGSV,2,2,08,73,28,328,37,71,24,220,37,87,08,202,20,86,02,247,*62
$GNRMC,000948.000,A,4443.0114,S,16910.7094,E,0.03,0.00,310524,,,D*69

$GNGGA,000958.000,4443.0114,S,16910.7094,E,2,17,0.65,345.5,M,6.1,M,,*5B
$GPGSV,3,1,12,26,60,084,48,03,59,306,47,04,56,233,42,31,54,125,49*78
$GPGSV,3,2,12,16,45,020,49,50,23,307,39,28,21,117,43,09,17,241,42*7F
$GPGSV,3,3,12,06,09,226,45,29,07,135,44,195,05,330,30,194,,,23*4F
$GLGSV,2,1,08,80,85,018,47,70,75,200,33,79,35,143,42,69,34,051,44*62
$GLGSV,2,2,08,73,28,328,37,71,24,220,36,87,08,202,26,86,02,247,*65
$GNRMC,000958.000,A,4443.0114,S,16910.7094,E,0.03,0.00,310524,,,D*68

$GNGGA,001008.000,4443.0114,S,16910.7093,E,2,17,0.65,345.4,M,6.1,M,,*50
$GPGSV,3,1,12,26,60,084,48,03,59,306,47,04,56,233,42,31,54,125,49*78
$GPGSV,3,2,12,16,45,020,49,50,23,307,40,28,21,117,42,09,17,241,42*70
$GPGSV,3,3,12,06,09,226,44,29,07,135,44,195,05,330,31,194,,,24*48
$GLGSV,2,1,08,80,85,018,47,70,75,200,33,79,35,143,43,69,34,051,44*63
$GLGSV,2,2,08,73,28,328,39,71,24,220,39,87,08,202,22,86,02,247,*60
$GNRMC,001008.000,A,4443.0114,S,16910.7093,E,0.02,0.00,310524,,,D*63

$GNGGA,001018.000,4443.0114,S,16910.7092,E,2,17,0.65,345.4,M,6.1,M,,*50
$GPGSV,3,1,12,26,60,084,48,03,59,306,47,04,56,233,42,31,54,125,49*78
$GPGSV,3,2,12,16,45,020,49,50,23,307,40,28,21,117,42,09,17,241,42*70
$GPGSV,3,3,12,06,09,226,43,29,07,135,44,195,05,330,32,194,,,23*4B
$GLGSV,2,1,08,80,85,018,47,70,76,199,34,79,35,143,43,69,33,050,44*62
$GLGSV,2,2,08,73,29,327,40,71,25,220,41,87,08,202,23,86,02,247,*6F
$GNRMC,001018.000,A,4443.0114,S,16910.7092,E,0.00,0.00,310524,,,D*61

$GNGGA,001028.000,4443.0114,S,16910.7092,E,2,17,0.65,345.4,M,6.1,M,,*53
$GPGSV,3,1,12,26,60,084,48,03,59,306,46,04,56,233,42,31,54,125,49*79
$GPGSV,3,2,12,16,45,020,49,50,23,307,40,28,21,117,42,09,17,241,42*70
$GPGSV,3,3,12,06,09,226,43,29,07,135,44,195,05,330,32,194,,,23*4B
$GLGSV,2,1,08,80,86,027,47,70,76,199,34,79,34,143,43,69,33,050,44*6C
$GLGSV,2,2,08,73,29,327,41,71,25,220,42,87,08,202,21,86,01,248,*63
$GNRMC,001028.000,A,4443.0114,S,16910.7092,E,0.01,0.00,310524,,,D*63

$GNGGA,001038.000,4443.0114,S,16910.7092,E,2,17,0.65,345.4,M,6.1,M,,*52
$GPGSV,3,1,12,26,60,084,48,03,59,306,46,04,56,233,43,31,54,125,49*78
$GPGSV,3,2,12,16,45,020,49,50,23,307,40,28,21,117,42,09,17,241,42*70
$GPGSV,3,3,12,06,09,226,42,29,07,135,43,195,05,330,31,194,,,24*49
$GLGSV,2,1,08,80,86,027,47,70,76,199,33,79,34,143,43,69,33,050,44*6B
$GLGSV,2,2,08,73,29,327,42,71,25,220,42,87,07,203,23,86,01,248,*6C
$GNRMC,001038.000,A,4443.0114,S,16910.7092,E,0.01,0.00,310524,,,D*62

$GNGGA,001048.000,4443.0114,S,16910.7091,E,2,17,0.65,345.4,M,6.1,M,,*56
$GPGSV,3,1,12,26,60,084,48,03,59,306,46,04,56,233,43,31,54,125,49*78
$GPGSV,3,2,12,16,45,020,49,50,23,307,40,28,21,117,42,09,17,241,41*73
$GPGSV,3,3,12,06,09,226,42,29,07,135,43,195,05,330,33,194,,,*4D
$GLGSV,2,1,08,80,86,027,46,70,76,199,34,79,34,143,43,69,33,050,44*6D
$GLGSV,2,2,08,73,29,327,42,71,25,220,44,87,07,203,25,86,01,248,*6C
$GNRMC,001048.000,A,4443.0114,S,16910.7091,E,0.01,0.00,310524,,,D*66

$GNGGA,001058.000,4443.0114,S,16910.7091,E,2,17,0.65,345.4,M,6.1,M,,*57
$GPGSV,3,1,12,26,60,084,48,03,59,306,46,04,56,233,44,31,54,125,49*7F
$GPGSV,3,2,12,16,45,020,48,50,23,307,40,28,21,117,42,09,17,241,39*7D
$GPGSV,3,3,12,06,09,226,43,29,07,135,43,195,05,330,32,194,,,26*49
$GLGSV,2,1,08,80,86,027,47,70,76,199,35,79,34,143,43,69,33,050,44*6D
$GLGSV,2,2,08,73,29,327,43,71,25,220,44,87,07,203,25,86,01,248,*6D
$GNRMC,001058.000,A,4443.0114,S,16910.7091,E,0.01,0.00,310524,,,D*67

$GNGGA,001108.000,4443.0114,S,16910.7091,E,2,17,0.65,345.4,M,6.1,M,,*53
$GPGSV,3,1,12,26,60,084,48,03,59,307,46,04,57,233,44,31,54,125,49*7F
$GPGSV,3,2,12,16,45,020,47,50,23,307,40,28,21,117,42,09,17,241,39*72
$GPGSV,3,3,12,06,09,227,43,29,07,135,43,195,05,330,30,194,,,25*49
$GLGSV,2,1,08,80,86,027,46,70,76,199,35,79,34,143,43,69,33,050,43*6B
$GLGSV,2,2,08,73,29,327,43,71,25,220,44,87,07,203,23,86,01,248,*6B
$GNRMC,001108.000,A,4443.0114,S,16910.7091,E,0.02,0.00,310524,,,D*60

$GNGGA,001118.000,4443.0114,S,16910.7091,E,2,17,0.65,345.4,M,6.1,M,,*52
$GPGSV,3,1,12,26,60,084,48,03,59,307,46,04,57,233,44,31,54,125,48*7E
$GPGSV,3,2,12,16,46,021,46,50,23,307,40,28,21,117,42,09,18,241,42*72
$GPGSV,3,3,12,06,09,227,44,29,07,135,43,195,05,330,30,194,,,25*4E
$GLGSV,2,1,08,80,86,027,47,70,76,199,35,79,34,143,43,69,33,050,42*6B
$GLGSV,2,2,08,73,29,327,43,71,25,220,43,87,07,203,26,86,01,248,*69
$GNRMC,001118.000,A,4443.0114,S,16910.7091,E,0.02,0.00,310524,,,D*61

$GNGGA,001128.000,4443.0114,S,16910.7092,E,2,16,0.74,345.4,M,6.1,M,,*53
$GPGSV,3,1,11,26,60,086,48,03,59,307,46,04,57,233,45,31,54,125,46*70
$GPGSV,3,2,11,16,46,021,44,50,23,307,40,28,20,116,42,09,18,241,41*70
$GPGSV,3,3,11,06,09,227,44,29,07,135,43,195,05,330,30*76
$GLGSV,2,1,08,80,86,027,47,70,76,199,35,79,34,143,42,69,33,050,41*69
$GLGSV,2,2,08,73,29,327,43,71,25,220,43,87,07,203,28,86,01,248,*67
$GNRMC,001128.000,A,4443.0114,S,16910.7092,E,0.01,0.00,310524,,,D*62

$GNGGA,001138.000,4443.0113,S,16910.7092,E,2,17,0.65,345.4,M,6.1,M,,*54
$GPGSV,3,1,11,26,60,086,48,03,59,307,45,04,57,233,45,31,53,124,46*75
$GPGSV,3,2,11,16,46,021,42,50,23,307,40,28,20,116,42,09,18,241,39*79
$GPGSV,3,3,11,06,09,227,43,29,07,135,43,195,05,330,34*75
$GLGSV,2,1,08,80,86,027,47,70,76,199,37,79,34,143,42,69,33,050,41*6B
$GLGSV,2,2,08,73,29,327,43,71,25,220,42,87,07,203,30,86,01,248,*6F
$GNRMC,001138.000,A,4443.0113,S,16910.7092,E,0.00,0.00,310524,,,D*65

$GNGGA,001148.000,4443.0113,S,16910.7093,E,2,17,0.65,345.4,M,6.1,M,,*52
$GPGSV,3,1,11,26,60,086,48,03,59,307,45,04,57,233,45,31,53,124,45*76
$GPGSV,3,2,11,16,46,021,42,50,23,307,40,28,20,116,43,09,18,241,38*79
$GPGSV,3,3,11,06,09,227,44,29,07,135,43,195,05,330,30*76
$GLGSV,2,1,08,80,86,027,47,70,76,199,37,79,34,143,42,69,33,050,41*6B
$GLGSV,2,2,08,73,29,327,43,71,25,220,42,87,07,203,29,86,01,248,*67
$GNRMC,001148.000,A,4443.0113,S,16910.7093,E,0.02,0.00,310524,,,D*61

$GNGGA,001158.000,4443.0113,S,16910.7093,E,2,17,0.65,345.4,M,6.1,M,,*53
$GPGSV,3,1,11,26,60,086,48,03,59,307,45,04,57,233,46,31,53,124,45*75
$GPGSV,3,2,11,16,46,021,41,50,23,307,40,28,20,116,43,09,18,241,37*75
$GPGSV,3,3,11,06,09,227,44,29,07,135,42,195,05,330,34*73
$GLGSV,2,1,08,80,86,027,46,70,76,199,37,79,34,143,42,69,33,050,41*6A
$GLGSV,2,2,08,73,29,327,41,71,25,220,41,87,07,203,32,86,01,248,*6C
$GNRMC,001158.000,A,4443.0113,S,16910.7093,E,0.02,0.00,310524,,,D*60

$GNGGA,001208.000,4443.0112,S,16910.7093,E,2,17,0.65,345.4,M,6.1,M,,*54
$GPGSV,3,1,12,26,60,086,48,03,59,307,45,04,57,233,47,31,53,124,45*77
$GPGSV,3,2,12,16,46,021,41,50,23,307,40,28,20,116,44,09,18,241,40*71
$GPGSV,3,3,12,06,09,227,43,29,07,135,44,195,05,330,33,194,,,39*40
$GLGSV,2,1,08,80,86,027,46,70,76,199,37,79,34,143,40,69,33,050,40*69
$GLGSV,2,2,08,73,29,327,39,71,25,220,38,87,07,203,31,86,01,248,*6E
$GNRMC,001208.000,A,4443.0112,S,16910.7093,E,0.00,0.00,310524,,,D*65

$GNGGA,001218.000,4443.0112,S,16910.7093,E,2,17,0.65,345.3,M,6.1,M,,*52
$GPGSV,3,1,12,26,60,086,48,03,59,307,46,04,57,233,47,31,53,124,44*75
$GPGSV,3,2,12,16,46,021,41,50,23,307,40,28,20,116,44,09,18,241,42*73
$GPGSV,3,3,12,06,09,227,43,29,07,135,44,195,05,330,36,194,,,39*45
$GLGSV,2,1,08,80,86,027,47,70,77,198,37,79,34,143,41,69,32,049,41*61
$GLGSV,2,2,08,73,30,327,38,71,26,219,40,87,07,203,33,86,01,248,*63
$GNRMC,001218.000,A,4443.0112,S,16910.7093,E,0.01,0.00,310524,,,D*65

$GNGGA,001228.000,4443.0111,S,16910.7093,E,2,17,0.65,345.3,M,6.1,M,,*52
$GPGSV,3,1,12,26,60,086,48,03,59,307,46,04,57,233,47,31,53,124,44*75
$GPGSV,3,2,12,16,46,021,42,50,23,307,40,28,20,116,44,09,18,241,42*70
$GPGSV,3,3,12,06,09,227,43,29,07,135,44,195,05,330,35,194,,,39*46
$GLGSV,2,1,08,80,87,041,46,70,77,198,37,79,33,143,41,69,32,049,43*64
$GLGSV,2,2,08,73,30,327,36,71,26,219,38,87,07,204,31,86,01,249,*66
$GNRMC,001228.000,A,4443.0111,S,16910.7093,E,0.00,0.00,310524,,,D*64

$GNGGA,001238.000,4443.0110,S,16910.7093,E,2,18,0.61,345.3,M,6.1,M,,*59
$GPGSV,3,1,12,26,60,086,48,03,59,307,46,04,57,233,47,31,53,124,44*75
$GPGSV,3,2,12,16,46,021,42,50,23,307,40,28,20,116,44,09,18,241,42*70
$GPGSV,3,3,12,06,09,227,43,29,07,135,44,195,05,330,34,194,,,38*46
$GLGSV,2,1,08,80,87,041,47,70,77,198,37,79,33,143,41,69,32,049,43*65
$GLGSV,2,2,08,73,30,327,36,71,26,219,40,87,07,204,35,86,01,249,*6D
$GNRMC,001238.000,A,4443.0110,S,16910.7093,E,0.01,0.00,310524,,,D*65

$GNGGA,001248.000,4443.0110,S,16910.7092,E,2,18,0.61,345.2,M,6.1,M,,*5E
$GPGSV,3,1,12,26,60,086,48,03,59,307,46,04,57,233,46,31,53,124,44*74
$GPGSV,3,2,12,16,46,021,44,50,23,307,40,28,20,116,44,09,18,241,41*75
$GPGSV,3,3,12,06,09,227,44,29,07,135,44,195,05,330,35,194,,,38*40
$GLGSV,2,1,08,80,87,041,46,70,77,198,37,79,33,143,41,69,32,049,43*64
$GLGSV,2,2,08,73,30,327,37,71,26,219,41,87,07,204,35,86,01,249,*6D
$GNRMC,001248.000,A,4443.0110,S,16910.7092,E,0.01,0.00,310524,,,D*63

$GNGGA,001258.000,4443.0109,S,16910.7092,E,2,18,0.61,345.2,M,6.1,M,,*57
$GPGSV,3,1,12,26,60,086,48,03,59,307,46,04,57,233,46,31,53,124,44*74
$GPGSV,3,2,12,16,46,021,45,50,23,307,40,28,20,116,44,09,18,241,43*76
$GPGSV,3,3,12,06,09,227,43,29,07,135,43,195,05,330,37,194,,,39*43
$GLGSV,2,1,08,80,87,041,46,70,77,198,38,79,33,143,41,69,32,049,44*6C
$GLGSV,2,2,08,73,30,327,38,71,26,219,41,87,07,204,35,86,01,249,*62
$GNRMC,001258.000,A,4443.0109,S,16910.7092,E,0.01,0.00,310524,,,D*6A

$GNGGA,001308.000,4443.0109,S,16910.7092,E,2,18,0.61,345.1,M,6.1,M,,*50
$GPGSV,3,1,12,26,60,086,48,03,58,309,46,04,58,232,46,31,53,124,45*74
$GPGSV,3,2,12,16,46,021,46,50,23,307,40,28,20,116,43,09,19,240,43*72
$GPGSV,3,3,12,06,09,228,44,29,07,135,42,195,05,330,36,194,,,39*4B
$GLGSV,2,1,08,80,87,041,46,70,77,198,38,79,33,143,43,69,32,049,44*6E
$GLGSV,2,2,08,73,30,327,40,71,26,219,42,87,07,204,37,86,01,249,*6C
$GNRMC,001308.000,A,4443.0109,S,16910.7092,E,0.01,0.00,310524,,,D*6E

$GNGGA,001318.000,4443.0109,S,16910.7092,E,2,18,0.61,345.0,M,6.1,M,,*50
$GPGSV,3,1,12,26,60,086,48,03,58,309,47,04,58,232,46,31,53,124,46*76
$GPGSV,3,2,12,16,47,021,47,50,23,307,40,28,20,116,43,09,19,240,43*72
$GPGSV,3,3,12,06,09,228,43,29,07,135,43,195,05,330,36,194,,,39*4D
$GLGSV,2,1,08,80,87,041,46,70,77,198,38,79,33,143,43,69,32,049,44*6E
$GLGSV,2,2,08,73,30,327,41,71,26,219,42,87,07,204,37,86,01,249,*6D
$GNRMC,001318.000,A,4443.0109,S,16910.7092,E,0.02,0.00,310524,,,D*6C

$GNGGA,001328.000,4443.0109,S,16910.7092,E,2,18,0.61,345.0,M,6.1,M,,*53
$GPGSV,3,1,12,26,60,087,48,03,58,309,47,04,58,232,46,31,53,124,46*77
$GPGSV,3,2,12,16,47,021,47,50,23,307,40,28,20,116,43,09,19,240,42*73
$GPGSV,3,3,12,06,09,228,44,29,07,136,43,195,05,330,37,194,,,40*46
$GLGSV,2,1,08,80,87,041,46,70,77,198,38,79,33,143,43,69,32,049,44*6E
$GLGSV,2,2,08,73,30,327,43,71,26,219,42,87,07,204,37,86,01,249,*6F
$GNRMC,001328.000,A,4443.0109,S,16910.7092,E,0.01,0.00,310524,,,D*6C

$GNGGA,001338.000,4443.0109,S,16910.7092,E,2,16,0.74,344.9,M,6.1,M,,*50
$GPGSV,3,1,12,26,60,087,48,03,58,309,47,04,58,232,45,31,52,124,46*75
$GPGSV,3,2,12,16,47,021,47,50,23,307,40,28,20,116,42,09,19,240,41*71
$GPGSV,3,3,12,06,09,228,43,29,07,136,42,194,04,336,39,195,04,330,38*72
$GLGSV,2,1,08,80,87,041,46,70,77,198,38,79,33,143,43,69,32,049,44*6E
$GLGSV,2,2,08,73,30,327,43,71,26,219,43,87,07,204,38,86,01,249,*61
$GNRMC,001338.000,A,4443.0109,S,16910.7092,E,0.01,0.00,310524,,,D*6D

$GNGGA,001348.000,4443.0109,S,16910.7092,E,2,16,0.74,344.9,M,6.1,M,,*57
$GPGSV,3,1,12,26,60,087,48,03,58,309,47,04,58,232,45,31,52,124,47*74
$GPGSV,3,2,12,16,47,021,47,50,23,307,40,28,20,116,42,09,19,240,40*70
$GPGSV,3,3,12,06,09,228,44,29,07,136,42,194,04,336,39,195,04,330,38*75
$GLGSV,2,1,08,80,87,041,46,70,77,198,38,79,33,143,44,69,32,049,44*69
$GLGSV,2,2,08,73,30,327,44,71,26,219,43,87,07,204,38,86,01,249,*66
$GNRMC,001348.000,A,4443.0109,S,16910.7092,E,0.01,0.00,310524,,,D*6A

$GNGGA,001358.000,4443.0109,S,16910.7092,E,2,16,0.74,344.9,M,6.1,M,,*56
$GPGSV,3,1,12,26,60,087,48,03,58,309,47,04,58,232,45,31,52,124,47*74
$GPGSV,3,2,12,16,47,021,48,50,23,307,40,28,20,116,41,09,19,240,42*7E
$GPGSV,3,3,12,06,09,228,44,29,07,136,43,194,04,336,39,195,04,330,38*74
$GLGSV,2,1,08,80,87,041,46,70,77,198,38,79,33,143,44,69,32,049,44*69
$GLGSV,2,2,08,73,30,327,44,71,26,219,43,87,07,204,38,86,01,249,*66
$GNRMC,001358.000,A,4443.0109,S,16910.7092,E,0.01,0.00,310524,,,D*6B

$GNGGA,001408.000,4443.0110,S,16910.7092,E,2,16,0.74,344.9,M,6.1,M,,*5C
$GPGSV,3,1,12,26,60,087,48,03,58,309,47,04,58,232,43,31,52,124,48*7D
$GPGSV,3,2,12,16,47,021,48,50,23,307,40,28,20,116,39,09,19,240,42*71
$GPGSV,3,3,12,06,09,228,43,29,07,136,42,194,04,336,38,195,04,330,38*73
$GLGSV,2,1,08,80,87,041,45,70,77,198,38,79,33,143,44,69,32,049,43*6D
$GLGSV,2,2,08,73,30,327,44,71,26,219,43,87,07,204,38,86,01,249,*66
$GNRMC,001408.000,A,4443.0110,S,16910.7092,E,0.01,0.00,310524,,,D*61

$GNGGA,001418.000,4443.0110,S,16910.7093,E,2,16,0.74,344.9,M,6.1,M,,*5C
$GPGSV,3,1,12,26,60,087,48,03,58,309,48,04,58,232,43,31,52,124,48*72
$GPGSV,3,2,12,16,47,021,48,50,23,307,40,28,20,116,39,09,19,240,42*71
$GPGSV,3,3,12,06,09,228,45,29,07,136,42,194,04,336,38,195,04,330,38*75
$GLGSV,2,1,08,80,87,041,45,70,78,197,38,79,33,143,43,69,31,049,43*69
$GLGSV,2,2,08,73,31,326,44,71,27,219,43,87,07,204,39,86,01,249,*66
$GNRMC,001418.000,A,4443.0110,S,16910.7093,E,0.01,0.00,310524,,,D*61

$GNGGA,001428.000,4443.0110,S,16910.7093,E,2,16,0.74,344.9,M,6.1,M,,*5F
$GPGSV,3,1,12,26,60,087,48,03,58,309,48,04,58,232,43,31,52,124,48*72
$GPGSV,3,2,12,16,47,021,48,50,23,307,40,28,20,116,37,09,19,240,40*7D
$GPGSV,3,3,12,06,09,228,43,29,07,136,42,194,04,336,35,195,04,330,39*7F
$GLGSV,2,1,08,80,87,062,45,70,78,197,37,79,32,143,43,69,31,049,42*67
$GLGSV,2,2,08,73,31,326,43,71,27,219,42,87,07,204,40,88,01,155,*6E
$GNRMC,001428.000,A,4443.0110,S,16910.7093,E,0.00,0.00,310524,,,D*63

$GNGGA,001438.000,4443.0110,S,16910.7093,E,2,16,0.74,344.9,M,6.1,M,,*5E
$GPGSV,3,1,12,26,60,087,48,03,58,309,48,04,58,232,43,31,52,124,48*72
$GPGSV,3,2,12,16,47,021,48,50,23,307,40,28,20,116,38,09,19,240,37*72
$GPGSV,3,3,12,06,09,228,43,29,07,136,40,194,04,336,35,195,04,330,38*7C
$GLGSV,2,1,08,80,87,062,45,70,78,197,38,79,32,143,42,69,31,049,42*69
$GLGSV,2,2,08,73,31,326,42,71,27,219,41,87,07,204,39,88,01,155,*62
$GNRMC,001438.000,A,4443.0110,S,16910.7093,E,0.00,0.00,310524,,,D*62

$GNGGA,001448.000,4443.0110,S,16910.7092,E,2,16,0.74,344.9,M,6.1,M,,*58
$GPGSV,3,1,12,26,60,087,48,03,58,309,48,04,58,232,43,31,52,124,49*73
$GPGSV,3,2,12,16,47,021,46,50,23,307,40,28,20,116,38,09,19,240,37*7C
$GPGSV,3,3,12,06,09,228,44,29,07,136,42,194,04,336,36,195,04,330,39*7B
$GLGSV,2,1,08,80,87,062,45,70,78,197,38,79,32,143,41,69,31,049,43*6B
$GLGSV,2,2,08,73,31,326,42,71,27,219,39,87,07,204,40,88,01,155,*63
$GNRMC,001448.000,A,4443.0110,S,16910.7092,E,0.01,0.00,310524,,,D*65

$GNGGA,001458.000,4443.0111,S,16910.7092,E,2,16,0.74,344.9,M,6.1,M,,*58
$GPGSV,3,1,12,26,60,087,48,03,58,309,48,04,58,232,43,31,52,124,49*73
$GPGSV,3,2,12,16,47,021,45,50,23,307,40,28,20,116,40,09,19,240,38*7F
$GPGSV,3,3,12,06,09,228,44,29,07,136,42,194,04,336,37,195,04,330,39*7A
$GLGSV,2,1,08,80,87,062,46,70,78,197,38,79,32,143,40,69,31,049,43*69
$GLGSV,2,2,08,73,31,326,41,71,27,219,39,87,07,204,40,88,01,155,*60
$GNRMC,001458.000,A,4443.0111,S,16910.7092,E,0.01,0.00,310524,,,D*65

$GNGGA,001508.000,4443.0111,S,16910.7092,E,2,16,0.74,344.9,M,6.1,M,,*5C
$GPGSV,3,1,12,26,60,087,48,04,59,232,43,03,58,310,48,31,52,124,49*7A
$GPGSV,3,2,12,16,47,021,45,50,23,307,40,28,20,116,41,09,19,240,38*7E
$GPGSV,3,3,12,06,09,229,45,29,07,136,40,194,04,336,35,195,04,330,39*7A
$GLGSV,2,1,08,80,87,062,45,70,78,197,38,79,32,143,40,69,31,049,43*6A
$GLGSV,2,2,08,73,31,326,40,71,27,219,39,87,07,204,41,88,01,155,*60
$GNRMC,001508.000,A,4443.0111,S,16910.7092,E,0.01,0.00,310524,,,D*61

$GNGGA,001518.000,4443.0111,S,16910.7092,E,2,16,0.74,344.9,M,6.1,M,,*5D
$GPGSV,3,1,12,26,60,087,48,04,59,232,43,03,58,310,48,31,52,124,49*7A
$GPGSV,3,2,12,16,48,022,44,50,23,307,40,28,20,116,41,09,19,240,37*7C
$GPGSV,3,3,12,06,09,229,45,29,07,136,40,194,04,336,35,195,04,330,39*7A
$GLGSV,2,1,08,80,87,062,46,70,78,197,38,79,32,143,40,69,31,049,42*68
$GLGSV,2,2,08,73,31,326,40,71,27,219,36,87,07,204,41,88,01,155,*6F
$GNRMC,001518.000,A,4443.0111,S,16910.7092,E,0.01,0.00,310524,,,D*60

$GNGGA,001528.000,4443.0111,S,16910.7092,E,2,16,0.74,344.9,M,6.1,M,,*5E
$GPGSV,3,1,12,04,59,232,42,26,59,089,48,03,58,310,48,31,52,124,49*7F
$GPGSV,3,2,12,16,48,022,44,50,23,307,40,28,19,116,42,09,19,240,33*71
$GPGSV,3,3,12,06,09,229,44,29,07,137,42,194,04,336,36,195,04,330,39*7B
$GLGSV,2,1,08,80,87,062,45,70,78,197,37,79,32,143,39,69,31,049,43*6B
$GLGSV,2,2,08,73,31,326,41,71,27,219,37,87,07,204,42,88,01,155,*6C
$GNRMC,001528.000,A,4443.0111,S,16910.7092,E,0.01,0.00,310524,,,D*63

$GNGGA,001538.000,4443.0111,S,16910.7092,E,2,16,0.74,344.9,M,6.1,M,,*5F
$GPGSV,3,1,12,04,59,232,43,26,59,089,48,03,58,310,48,31,51,123,49*7A
$GPGSV,3,2,12,16,48,022,41,50,23,307,40,28,19,116,42,09,19,240,38*7F
$GPGSV,3,3,12,06,09,229,44,29,07,137,42,194,04,336,36,195,04,330,38*7A
$GLGSV,2,1,08,80,87,062,45,70,78,197,37,79,32,143,40,69,31,049,43*65
$GLGSV,2,2,08,73,31,326,42,71,27,219,37,87,07,204,42,88,01,155,*6F
$GNRMC,001538.000,A,4443.0111,S,16910.7092,E,0.01,0.00,310524,,,D*62

$GNGGA,001548.000,4443.0112,S,16910.7092,E,2,16,0.74,344.9,M,6.1,M,,*5B
$GPGSV,3,1,12,04,59,232,42,26,59,089,48,03,58,310,48,31,51,123,49*7B
$GPGSV,3,2,12,16,48,022,41,50,23,307,40,28,19,116,43,09,19,240,41*70
$GPGSV,3,3,12,06,09,229,44,29,07,137,41,194,04,336,36,195,04,330,38*79
$GLGSV,2,1,08,80,87,062,44,70,78,197,37,79,32,143,41,69,31,049,44*62
$GLGSV,2,2,08,73,31,326,42,71,27,219,38,87,07,204,42,88,01,155,*60
$GNRMC,001548.000,A,4443.0112,S,16910.7092,E,0.00,0.00,310524,,,D*67

$GNGGA,001558.000,4443.0112,S,16910.7092,E,2,16,0.74,344.9,M,6.1,M,,*5A
$GPGSV,3,1,12,04,59,232,43,26,59,089,48,03,58,310,48,31,51,123,48*7B
$GPGSV,3,2,12,16,48,022,41,50,23,307,40,28,19,116,44,09,19,240,41*77
$GPGSV,3,3,12,06,09,229,45,29,07,137,42,194,04,336,36,195,04,330,38*7B
$GLGSV,2,1,08,80,87,062,45,70,78,197,37,79,32,143,42,69,31,049,45*61
$GLGSV,2,2,08,73,31,326,42,71,27,219,39,87,07,204,43,88,01,155,*60
$GNRMC,001558.000,A,4443.0112,S,16910.7092,E,0.01,0.00,310524,,,D*67

$GNGGA,001608.000,4443.0112,S,16910.7092,E,2,16,0.74,344.9,M,6.1,M,,*5C
$GPGSV,3,1,12,04,59,232,43,26,59,089,48,03,58,310,48,31,51,123,48*7B
$GPGSV,3,2,12,16,48,022,41,50,23,307,40,28,19,116,44,09,19,240,40*76
$GPGSV,3,3,12,06,09,229,44,29,07,137,41,194,04,336,36,195,04,330,39*78
$GLGSV,2,1,08,80,87,062,45,70,78,197,37,79,32,143,42,73,31,326,43*66
$GLGSV,2,2,08,69,30,048,45,71,27,219,40,87,07,204,43,88,01,155,*68
$GNRMC,001608.000,A,4443.0112,S,16910.7092,E,0.01,0.00,310524,,,D*61

$GNGGA,001618.000,4443.0112,S,16910.7092,E,2,16,0.74,344.9,M,6.1,M,,*5D
$GPGSV,3,1,12,04,59,232,43,26,59,089,48,03,58,310,48,31,51,123,47*74
$GPGSV,3,2,12,16,48,022,42,50,23,307,40,28,19,116,44,09,19,240,40*75
$GPGSV,3,3,12,06,09,229,45,29,07,137,41,194,04,336,36,195,04,330,38*78
$GLGSV,2,1,08,80,87,062,45,70,79,196,35,73,32,326,43,79,31,143,42*64
$GLGSV,2,2,08,69,30,048,45,71,28,219,41,87,07,204,43,88,01,155,*66
$GNRMC,001618.000,A,4443.0112,S,16910.7092,E,0.01,0.00,310524,,,D*60

$GNGGA,001628.000,4443.0112,S,16910.7092,E,2,16,0.74,344.9,M,6.1,M,,*5E
$GPGSV,3,1,12,04,59,232,42,26,59,089,48,03,58,310,48,31,51,123,47*75
$GPGSV,3,2,12,16,48,022,43,50,23,307,40,28,19,116,44,09,19,240,42*76
$GPGSV,3,3,12,06,09,229,45,29,07,137,41,194,04,336,35,195,04,330,38*7B
$GLGSV,2,1,08,80,87,086,45,70,79,196,36,73,32,326,44,79,31,143,43*6B
$GLGSV,2,2,08,69,30,048,45,71,28,219,42,87,07,205,43,88,01,156,*67
$GNRMC,001628.000,A,4443.0112,S,16910.7092,E,0.02,0.00,310524,,,D*60

$GNGGA,001638.000,4443.0112,S,16910.7093,E,2,16,0.74,344.9,M,6.1,M,,*5E
$GPGSV,3,1,12,04,59,232,42,26,59,089,48,03,58,310,48,31,51,123,46*74
$GPGSV,3,2,12,16,48,022,44,50,23,307,40,28,19,116,44,09,19,240,44*77
$GPGSV,3,3,12,06,09,229,46,29,07,137,41,194,04,336,35,195,04,330,38*78
$GLGSV,2,1,08,80,87,086,45,70,79,196,35,73,32,326,44,79,31,143,44*6F
$GLGSV,2,2,08,69,30,048,45,71,28,219,43,87,07,205,43,88,01,156,*66
$GNRMC,001638.000,A,4443.0112,S,16910.7093,E,0.02,0.00,310524,,,D*60

$GNGGA,001648.000,4443.0113,S,16910.7093,E,2,16,0.74,345.0,M,6.1,M,,*50
$GPGSV,3,1,12,04,59,232,42,26,59,089,48,03,58,310,48,31,51,123,44*76
$GPGSV,3,2,12,16,48,022,46,50,23,307,40,28,19,116,44,09,19,240,44*75
$GPGSV,3,3,12,06,09,229,43,29,07,137,42,194,04,336,36,195,04,330,39*7C
$GLGSV,2,1,08,80,87,086,46,70,79,196,36,73,32,326,44,79,31,143,43*68
$GLGSV,2,2,08,69,30,048,45,71,28,219,44,87,07,205,43,88,01,156,*61
$GNRMC,001648.000,A,4443.0113,S,16910.7093,E,0.02,0.00,310524,,,D*66

$GNGGA,001658.000,4443.0113,S,16910.7093,E,2,16,0.74,345.0,M,6.1,M,,*51
$GPGSV,3,1,12,04,59,232,42,26,59,089,48,03,58,310,48,31,51,123,44*76
$GPGSV,3,2,12,16,48,022,46,50,23,307,40,28,19,116,44,09,19,240,45*74
$GPGSV,3,3,12,06,09,229,43,29,07,137,42,194,04,336,36,195,04,330,39*7C
$GLGSV,2,1,08,80,87,086,46,70,79,196,35,73,32,326,44,79,31,143,43*6B
$GLGSV,2,2,08,69,30,048,45,71,28,219,44,87,07,205,43,88,01,156,*61
$GNRMC,001658.000,A,4443.0113,S,16910.7093,E,0.02,0.00,310524,,,D*67

$GNGGA,001708.000,4443.0113,S,16910.7093,E,2,16,0.74,345.0,M,6.1,M,,*55
$GPGSV,3,1,12,04,60,231,42,26,59,089,48,03,57,311,48,31,51,123,42*77
$GPGSV,3,2,12,16,48,022,47,50,23,307,39,09,20,240,44,28,19,116,44*70
$GPGSV,3,3,12,06,09,229,44,29,07,137,42,194,04,336,36,195,04,330,39*7B
$GLGSV,2,1,08,80,87,086,46,70,79,196,34,73,32,326,44,79,31,143,43*6A
$GLGSV,2,2,08,69,30,048,44,71,28,219,43,87,07,205,43,88,01,156,*67
$GNRMC,001708.000,A,4443.0113,S,16910.7093,E,0.01,0.00,310524,,,D*60

$GNGGA,001718.000,4443.0113,S,16910.7093,E,2,16,0.74,345.0,M,6.1,M,,*54
$GPGSV,3,1,12,04,60,231,42,26,59,089,48,03,57,311,48,31,51,123,42*77
$GPGSV,3,2,12,16,49,022,48,50,23,307,40,09,20,240,44,28,19,116,43*77
$GPGSV,3,3,12,06,09,229,44,29,07,137,42,194,04,336,34,195,04,330,39*79
$GLGSV,2,1,08,80,87,086,46,70,79,196,35,73,32,326,44,79,31,143,43*6B
$GLGSV,2,2,08,69,30,048,44,71,28,219,43,87,07,205,43,88,01,156,*67
$GNRMC,001718.000,A,4443.0113,S,16910.7093,E,0.00,0.00,310524,,,D*60

$GNGGA,001728.000,4443.0113,S,16910.7093,E,2,16,0.74,345.0,M,6.1,M,,*57
$GPGSV,3,1,12,04,60,231,44,26,59,091,48,03,57,311,48,31,50,123,42*79
$GPGSV,3,2,12,16,49,022,48,50,23,307,40,09,20,240,45,28,18,115,42*75
$GPGSV,3,3,12,06,09,229,44,29,07,138,42,194,04,336,31,195,04,330,38*72
$GLGSV,2,1,08,80,87,086,46,70,79,196,35,73,32,326,44,79,31,143,43*6B
$GLGSV,2,2,08,69,30,048,42,71,28,219,41,87,07,205,43,88,01,156,*63
$GNRMC,001728.000,A,4443.0113,S,16910.7093,E,0.02,0.00,310524,,,D*61

$GNGGA,001738.000,4443.0113,S,16910.7093,E,2,17,0.64,345.0,M,6.1,M,,*56
$GPGSV,3,1,12,04,60,231,44,26,59,091,48,03,57,311,47,31,50,123,43*77
$GPGSV,3,2,12,16,49,022,48,50,23,307,40,09,20,240,45,28,18,115,42*75
$GPGSV,3,3,12,06,09,229,43,29,07,138,42,194,05,335,30,195,04,330,37*79
$GLGSV,2,1,08,80,87,086,46,70,79,196,34,73,32,326,42,79,31,143,43*6C
$GLGSV,2,2,08,69,30,048,41,71,28,219,40,87,07,205,43,88,01,156,*61
$GNRMC,001738.000,A,4443.0113,S,16910.7093,E,0.01,0.00,310524,,,D*63

$GNGGA,001748.000,4443.0113,S,16910.7094,E,2,17,0.64,345.0,M,6.1,M,,*56
$GPGSV,3,1,12,04,60,231,44,26,59,091,48,03,57,311,47,31,50,123,44*70
$GPGSV,3,2,12,16,49,022,48,50,23,307,40,09,20,240,44,28,18,115,42*74
$GPGSV,3,3,12,06,09,229,44,29,07,138,41,194,05,335,29,195,04,330,37*75
$GLGSV,2,1,08,80,87,086,45,70,79,196,33,73,32,326,42,79,31,143,43*68
$GLGSV,2,2,08,69,30,048,39,71,28,219,40,87,07,205,43,88,01,156,*6E
$GNRMC,001748.000,A,4443.0113,S,16910.7094,E,0.02,0.00,310524,,,D*60

$GNGGA,001758.000,4443.0113,S,16910.7094,E,2,17,0.64,345.0,M,6.1,M,,*57
$GPGSV,3,1,12,04,60,231,45,26,59,091,48,03,57,311,46,31,50,123,45*71
$GPGSV,3,2,12,16,49,022,48,50,23,307,40,09,20,240,42,28,18,115,40*70
$GPGSV,3,3,12,06,09,229,44,29,07,138,42,194,05,335,29,195,04,330,36*77
$GLGSV,2,1,08,80,87,086,45,70,79,196,33,73,32,326,41,79,31,143,42*6A
$GLGSV,2,2,08,69,30,048,39,71,28,219,39,87,07,205,42,88,01,156,*61
$GNRMC,001758.000,A,4443.0113,S,16910.7094,E,0.01,0.00,310524,,,D*62

$GNGGA,001808.000,4443.0113,S,16910.7094,E,2,17,0.64,344.9,M,6.1,M,,*55
$GPGSV,3,1,12,04,60,231,45,26,59,091,48,03,57,311,46,31,50,123,46*72
$GPGSV,3,2,12,16,49,022,48,50,23,307,40,09,20,240,42,28,18,115,40*70
$GPGSV,3,3,12,06,09,229,43,29,07,138,42,194,05,335,30,195,04,330,36*78
$GLGSV,2,1,08,80,87,086,45,70,81,195,34,73,32,326,41,79,31,143,41*6A
$GLGSV,2,2,08,69,29,047,39,71,28,219,38,87,07,205,41,88,01,156,*64
$GNRMC,001808.000,A,4443.0113,S,16910.7094,E,0.02,0.00,310524,,,D*6B

$GNGGA,001818.000,4443.0112,S,16910.7094,E,2,17,0.64,344.9,M,6.1,M,,*55
$GPGSV,3,1,12,04,60,231,45,26,59,091,48,03,57,311,46,31,50,123,47*73
$GPGSV,3,2,12,16,49,022,48,50,23,307,40,09,20,240,42,28,18,115,40*70
$GPGSV,3,3,12,06,09,229,43,29,07,138,41,194,05,335,30,195,04,330,36*7B
$GLGSV,2,1,08,80,87,107,45,70,81,195,33,73,33,325,41,79,30,143,41*66
$GLGSV,2,2,08,69,29,047,40,71,29,219,37,87,07,205,41,88,01,156,*64
$GNRMC,001818.000,A,4443.0112,S,16910.7094,E,0.01,0.00,310524,,,D*68

$GNGGA,001828.000,4443.0112,S,16910.7093,E,2,17,0.64,344.9,M,6.1,M,,*51
$GPGSV,3,1,12,04,60,231,45,26,59,091,48,03,57,311,46,31,50,123,47*73
$GPGSV,3,2,12,16,49,022,48,50,23,307,40,09,20,240,42,28,18,115,39*7E
$GPGSV,3,3,12,06,09,229,42,29,07,138,41,194,05,335,28,195,04,330,36*73
$GLGSV,2,1,08,80,87,107,46,70,81,195,32,73,33,325,40,79,30,143,40*64
$GLGSV,2,2,08,69,29,047,42,71,29,219,37,87,07,206,39,88,01,157,*6B
$GNRMC,001828.000,A,4443.0112,S,16910.7093,E,0.02,0.00,310524,,,D*6F

$GNGGA,001838.000,4443.0112,S,16910.7093,E,2,17,0.64,344.9,M,6.1,M,,*50
$GPGSV,3,1,12,04,60,231,46,26,59,091,48,03,57,311,45,31,50,123,48*7C
$GPGSV,3,2,12,16,49,022,48,50,23,307,40,09,20,240,39,28,18,115,40*7C
$GPGSV,3,3,12,06,09,229,42,29,07,138,42,194,05,335,30,195,04,330,35*7A
$GLGSV,2,1,08,80,87,107,46,70,81,195,33,73,33,325,40,79,30,143,41*64
$GLGSV,2,2,08,69,29,047,43,71,29,219,37,87,07,206,40,88,01,157,*64
$GNRMC,001838.000,A,4443.0112,S,16910.7093,E,0.01,0.00,310524,,,D*6D

$GNGGA,001848.000,4443.0112,S,16910.7092,E,2,17,0.64,344.9,M,6.1,M,,*56
$GPGSV,3,1,12,04,60,231,46,26,59,091,48,03,57,311,45,31,50,123,49*7D
$GPGSV,3,2,12,16,49,022,46,50,23,307,40,09,20,240,38,28,18,115,40*73
$GPGSV,3,3,12,06,09,229,42,29,07,138,43,194,05,335,30,195,04,330,36*78
$GLGSV,2,1,08,80,87,107,45,70,81,195,32,73,33,325,40,79,30,143,41*66
$GLGSV,2,2,08,69,29,047,43,71,29,219,38,87,07,206,39,88,01,157,*65
$GNRMC,001848.000,A,4443.0112,S,16910.7092,E,0.01,0.00,310524,,,D*6B

$GNGGA,001858.000,4443.0112,S,16910.7092,E,2,17,0.64,344.9,M,6.1,M,,*57
$GPGSV,3,1,12,04,60,231,46,26,59,091,48,03,57,311,45,31,50,123,49*7D
$GPGSV,3,2,12,16,49,022,45,50,23,307,40,09,20,240,39,28,18,115,41*70
$GPGSV,3,3,12,06,09,229,41,29,07,138,42,194,05,335,29,195,04,330,36*72
$GLGSV,2,1,08,80,87,107,45,70,81,195,31,73,33,325,40,79,30,143,42*66
$GLGSV,2,2,08,69,29,047,44,71,29,219,40,87,07,206,38,88,01,157,*6C
$GNRMC,001858.000,A,4443.0112,S,16910.7092,E,0.01,0.00,310524,,,D*6A

$GNGGA,001908.000,4443.0112,S,16910.7092,E,2,17,0.64,344.9,M,6.1,M,,*53
$GPGSV,3,1,12,04,61,231,46,26,59,091,48,03,56,313,45,31,50,123,49*7F
$GPGSV,3,2,12,16,49,022,43,50,23,307,40,09,21,239,40,28,18,115,41*77
$GPGSV,3,3,12,06,09,230,41,29,07,138,42,194,05,335,30,195,04,330,36*72
$GLGSV,2,1,08,80,87,107,45,70,81,195,31,73,33,325,41,79,30,143,41*64
$GLGSV,2,2,08,69,29,047,44,71,29,219,41,87,07,206,38,88,01,157,*6D
$GNRMC,001908.000,A,4443.0112,S,16910.7092,E,0.02,0.00,310524,,,D*6D

$GNGGA,001918.000,4443.0111,S,16910.7092,E,2,17,0.64,344.9,M,6.1,M,,*51
$GPGSV,3,1,12,04,61,231,46,26,59,091,48,03,56,313,45,31,50,123,50*77
$GPGSV,3,2,12,16,49,023,43,50,23,307,40,09,21,239,40,28,18,115,42*75
$GPGSV,3,3,12,06,09,230,41,29,07,138,42,194,05,335,27,195,04,330,36*74
$GLGSV,2,1,08,80,87,107,46,70,81,195,31,73,33,325,42,79,30,143,41*64
$GLGSV,2,2,08,69,29,047,44,71,29,219,43,87,07,206,38,88,01,157,*6F
$GNRMC,001918.000,A,4443.0111,S,16910.7092,E,0.03,0.00,310524,,,D*6E

$GNGGA,001928.000,4443.0111,S,16910.7093,E,2,17,0.64,344.9,M,6.1,M,,*53
$GPGSV,3,1,12,04,61,231,46,26,59,093,48,03,56,313,46,31,50,123,50*76
$GPGSV,3,2,12,16,49,023,43,50,23,307,40,09,21,239,40,28,18,115,42*75
$GPGSV,3,3,12,06,09,230,41,29,07,138,42,194,05,335,27,195,04,330,36*74
$GLGSV,2,1,08,80,87,107,46,70,81,195,30,73,33,325,43,79,30,143,41*64
$GLGSV,2,2,08,69,29,047,44,71,29,219,43,87,07,206,37,88,01,157,*60
$GNRMC,001928.000,A,4443.0111,S,16910.7093,E,0.02,0.00,310524,,,D*6D

$GNGGA,001938.000,4443.0111,S,16910.7094,E,2,17,0.64,345.0,M,6.1,M,,*5D
$GPGSV,3,1,12,04,61,231,45,26,59,093,48,03,56,313,46,31,50,123,50*75
$GPGSV,3,2,12,16,49,023,41,50,23,307,40,09,21,239,42,28,18,115,44*73
$GPGSV,3,3,12,06,09,230,41,29,07,138,42,194,05,335,27,195,04,330,36*74
$GLGSV,2,1,08,80,87,107,46,70,81,195,30,73,33,325,44,79,30,143,41*63
$GLGSV,2,2,08,69,29,047,44,71,29,219,44,87,07,206,35,88,01,157,*65
$GNRMC,001938.000,A,4443.0111,S,16910.7094,E,0.02,0.00,310524,,,D*6B

$GNGGA,001948.000,4443.0111,S,16910.7094,E,2,17,0.64,345.0,M,6.1,M,,*5A
$GPGSV,3,1,12,04,61,231,45,26,59,093,48,03,56,313,47,31,50,123,50*74
$GPGSV,3,2,12,16,49,023,41,50,23,307,40,09,21,239,43,28,18,115,44*72
$GPGSV,3,3,12,06,09,230,41,29,07,138,42,194,05,335,31,195,04,330,37*72
$GLGSV,2,1,08,80,87,107,46,70,81,195,30,73,33,325,44,79,30,143,42*60
$GLGSV,2,2,08,69,29,047,44,71,29,219,44,87,07,206,35,88,01,157,*65
$GNRMC,001948.000,A,4443.0111,S,16910.7094,E,0.01,0.00,310524,,,D*6F

$GNGGA,001958.000,4443.0111,S,16910.7095,E,2,17,0.64,345.0,M,6.1,M,,*5A
$GPGSV,3,1,12,04,61,231,45,26,59,093,48,03,56,313,47,31,50,123,50*74
$GPGSV,3,2,12,16,49,023,41,50,23,307,40,09,21,239,43,28,18,115,44*72
$GPGSV,3,3,12,06,09,230,40,29,07,138,42,194,05,335,29,195,04,330,37*7A
$GLGSV,2,1,08,80,87,107,45,70,81,195,30,73,33,325,45,79,30,143,42*62
$GLGSV,2,2,08,69,29,047,43,71,29,219,44,87,07,206,35,88,01,157,*62
$GNRMC,001958.000,A,4443.0111,S,16910.7095,E,0.01,0.00,310524,,,D*6F

$GNGGA,002008.000,4443.0111,S,16910.7096,E,2,17,0.64,345.0,M,6.1,M,,*56
$GPGSV,3,1,12,04,61,231,45,26,59,093,47,03,56,313,48,31,50,123,50*74
$GPGSV,3,2,12,16,49,023,43,50,23,307,40,09,21,239,43,28,18,115,45*71
$GPGSV,3,3,12,06,09,230,40,29,07,138,43,194,05,335,31,195,04,330,37*72
$GLGSV,2,1,08,80,87,107,45,70,82,193,30,73,33,325,44,79,30,143,42*66
$GLGSV,2,2,08,71,29,218,43,69,28,046,42,87,07,206,31,88,01,157,*61
$GNRMC,002008.000,A,4443.0111,S,16910.7096,E,0.00,0.00,310524,,,D*62

$GNGGA,002018.000,4443.0111,S,16910.7096,E,2,17,0.64,345.1,M,6.1,M,,*56
$GPGSV,3,1,12,04,61,231,44,26,59,093,47,03,56,313,48,31,50,123,50*75
$GPGSV,3,2,12,16,49,023,44,50,23,307,40,09,21,239,43,28,18,115,45*76
$GPGSV,3,3,12,06,09,230,41,29,07,138,43,194,05,335,34,195,04,330,37*76
$GLGSV,2,1,08,80,86,121,46,70,82,193,30,73,34,324,44,71,29,218,42*6B
$GLGSV,2,2,08,79,29,143,41,69,28,046,40,87,07,206,34,88,01,157,*61
$GNRMC,002018.000,A,4443.0111,S,16910.7096,E,0.02,0.00,310524,,,D*61

$GNGGA,002028.000,4443.0111,S,16910.7097,E,2,17,0.64,345.2,M,6.1,M,,*57
$GPGSV,3,1,12,04,61,231,43,26,59,093,47,03,56,313,48,31,50,123,50*72
$GPGSV,3,2,12,16,49,023,44,50,23,307,40,09,21,239,43,28,18,115,45*76
$GPGSV,3,3,12,06,09,230,41,29,07,138,44,194,05,335,36,195,04,330,38*7C
$GLGSV,2,1,08,80,86,121,45,70,82,193,30,73,34,324,44,71,29,218,42*68
$GLGSV,2,2,08,79,29,143,41,69,28,046,40,87,06,207,31,88,02,157,*67
$GNRMC,002028.000,A,4443.0111,S,16910.7097,E,0.02,0.00,310524,,,D*63

$GNGGA,002038.000,4443.0111,S,16910.7097,E,2,17,0.64,345.2,M,6.1,M,,*56
$GPGSV,3,1,12,04,61,231,42,26,59,093,46,03,56,313,48,31,50,123,49*7A
$GPGSV,3,2,12,16,49,023,45,50,23,307,40,09,21,239,43,28,18,115,45*77
$GPGSV,3,3,12,06,09,230,39,29,07,138,44,194,05,335,36,195,04,330,38*73
$GLGSV,2,1,08,80,86,121,45,70,82,193,30,73,34,324,44,71,29,218,41*6B
$GLGSV,2,2,08,79,29,143,42,69,28,046,39,87,06,207,33,88,02,157,*68
$GNRMC,002038.000,A,4443.0111,S,16910.7097,E,0.01,0.00,310524,,,D*61

$GNGGA,002048.000,4443.0112,S,16910.7097,E,2,17,0.64,345.2,M,6.1,M,,*52
