$GNGGA,040213.099,4443.0073,S,16910.7093,E,1,04,1.32,355.6,M,6.1,M,,*5C
$GPGSA,A,3,,,,,,,,,,,,,1.65,1.32,0.98*01
$GLGSA,A,3,82,73,83,81,,,,,,,,,1.65,1.32,0.98*11
$GNRMC,040213.099,A,4443.0073,S,16910.7093,E,0.07,0.00,060624,,,A*69
$GNVTG,0.00,T,,M,0.07,N,0.13,K,A*26

$GNGGA,040215.000,4443.0074,S,16910.7094,E,1,04,1.32,355.8,M,6.1,M,,*54
$GPGSA,A,3,,,,,,,,,,,,,1.65,1.32,0.98*01
$GLGSA,A,3,82,73,83,81,,,,,,,,,1.65,1.32,0.98*11
$GNRMC,040215.000,A,4443.0074,S,16910.7094,E,0.19,0.00,060624,,,A*60
$GNVTG,0.00,T,,M,0.19,N,0.36,K,A*2E

$GNGGA,040216.000,4443.0074,S,16910.7095,E,1,04,1.32,354.9,M,6.1,M,,*56
$GPGSA,A,3,,,,,,,,,,,,,1.65,1.32,0.98*01
$GLGSA,A,3,82,73,83,81,,,,,,,,,1.65,1.32,0.98*11
$GNRMC,040216.000,A,4443.0074,S,16910.7095,E,0.16,0.00,060624,,,A*6D
$GNVTG,0.00,T,,M,0.16,N,0.30,K,A*27

$GNGGA,040217.000,4443.0075,S,16910.7095,E,1,04,1.32,354.8,M,6.1,M,,*57
$GPGSA,A,3,,,,,,,,,,,,,1.65,1.32,0.98*01
$GLGSA,A,3,82,73,83,81,,,,,,,,,1.65,1.32,0.98*11
$GPGSV,4,1,14,50,33,327,,05,06,238,35,193,,,,194,,,*71
$GPGSV,4,2,14,195,,,,02,,,40,21,,,42,09,,,39*47
$GPGSV,4,3,14,16,,,39,13,,,41,08,,,44,27,,,43*7B
$GPGSV,4,4,14,14,,,44,30,,,45*7B
$GLGSV,2,1,08,82,34,067,41,73,33,251,42,81,32,127,39,83,10,030,19*64
$GLGSV,2,2,08,76,,,,75,,,,70,,,34,67,,,*6F
$GNRMC,040217.000,A,4443.0075,S,16910.7095,E,0.10,0.00,060624,,,A*6B
$GNVTG,0.00,T,,M,0.10,N,0.18,K,A*2B

$GNGGA,040218.000,4443.0077,S,16910.7095,E,1,04,1.32,353.4,M,6.1,M,,*51
$GPGSA,A,3,,,,,,,,,,,,,1.65,1.32,0.98*01
$GLGSA,A,3,82,73,83,81,,,,,,,,,1.65,1.32,0.98*11
$GNRMC,040218.000,A,4443.0077,S,16910.7095,E,0.09,0.00,060624,,,A*6E
$GNVTG,0.00,T,,M,0.09,N,0.17,K,A*2C

$GNGGA,040219.000,4443.0079,S,16910.7095,E,1,04,1.32,352.4,M,6.1,M,,*5F
$GPGSA,A,3,,,,,,,,,,,,,1.65,1.32,0.98*01
$GLGSA,A,3,82,73,83,81,,,,,,,,,1.65,1.32,0.98*11
$GNRMC,040219.000,A,4443.0079,S,16910.7095,E,0.02,0.00,060624,,,A*6A
$GNVTG,0.00,T,,M,0.02,N,0.04,K,A*25

$GNGGA,040220.000,4443.0080,S,16910.7095,E,1,04,1.32,353.5,M,6.1,M,,*53
$GPGSA,A,3,,,,,,,,,,,,,1.65,1.32,0.98*01
$GLGSA,A,3,82,73,83,81,,,,,,,,,1.65,1.32,0.98*11
$GNRMC,040220.000,A,4443.0080,S,16910.7095,E,0.12,0.00,060624,,,A*67
$GNVTG,0.00,T,,M,0.12,N,0.23,K,A*21

$GNGGA,040221.000,4443.0080,S,16910.7096,E,1,04,1.33,354.9,M,6.1,M,,*5B
$GPGSA,A,3,,,,,,,,,,,,,1.65,1.33,0.98*00
$GLGSA,A,3,82,73,83,81,,,,,,,,,1.65,1.33,0.98*10
$GNRMC,040221.000,A,4443.0080,S,16910.7096,E,0.18,0.00,060624,,,A*6F
$GNVTG,0.00,T,,M,0.18,N,0.33,K,A*2A

$GNGGA,040222.000,4443.0080,S,16910.7097,E,1,04,1.32,355.1,M,6.1,M,,*51
$GPGSA,A,3,,,,,,,,,,,,,1.65,1.32,0.98*01
$GLGSA,A,3,82,73,83,81,,,,,,,,,1.65,1.32,0.98*11
$GPGSV,4,1,14,50,33,327,37,05,06,238,35,193,,,,194,,,*75
$GPGSV,4,2,14,195,,,,02,,,40,21,,,42,09,,,39*47
$GPGSV,4,3,14,16,,,40,13,,,41,08,,,44,27,,,44*72
$GPGSV,4,4,14,14,,,44,30,,,45*7B
$GLGSV,2,1,08,82,34,067,41,73,33,251,42,81,32,127,39,83,10,030,14*69
$GLGSV,2,2,08,76,,,,75,,,,70,,,34,67,,,*6F
$GNRMC,040222.000,A,4443.0080,S,16910.7097,E,0.25,0.00,060624,,,A*63
$GNVTG,0.00,T,,M,0.25,N,0.47,K,A*27

$GNGGA,040223.000,4443.0081,S,16910.7098,E,1,04,1.32,354.6,M,6.1,M,,*58
$GPGSA,A,3,,,,,,,,,,,,,1.65,1.32,0.98*01
$GLGSA,A,3,82,73,83,81,,,,,,,,,1.65,1.32,0.98*11
$GNRMC,040223.000,A,4443.0081,S,16910.7098,E,0.16,0.00,060624,,,A*6C
$GNVTG,0.00,T,,M,0.16,N,0.29,K,A*2F

$GNGGA,040224.000,4443.0082,S,16910.7098,E,1,04,1.32,354.0,M,6.1,M,,*5A
$GPGSA,A,3,,,,,,,,,,,,,1.65,1.32,0.98*01
$GLGSA,A,3,82,73,83,81,,,,,,,,,1.65,1.32,0.98*11
$GNRMC,040224.000,A,4443.0082,S,16910.7098,E,0.15,0.00,060624,,,A*6B
$GNVTG,0.00,T,,M,0.15,N,0.27,K,A*22

$GNGGA,040225.000,4443.0119,S,16910.7090,E,1,09,0.90,342.9,M,6.1,M,,*5A
$GPGSA,A,3,21,09,16,08,27,,,,,,,,1.25,0.90,0.86*03
$GLGSA,A,3,82,73,83,81,,,,,,,,,1.25,0.90,0.86*13
$GNRMC,040225.000,A,4443.0119,S,16910.7090,E,0.21,0.00,060624,,,A*66
$GNVTG,0.00,T,,M,0.21,N,0.38,K,A*2B

$GNGGA,040226.000,4443.0118,S,16910.7089,E,1,09,0.90,343.7,M,6.1,M,,*5F
$GPGSA,A,3,21,09,16,08,27,,,,,,,,1.25,0.90,0.86*03
$GLGSA,A,3,82,73,83,81,,,,,,,,,1.25,0.90,0.86*13
$GNRMC,040226.000,A,4443.0118,S,16910.7089,E,0.18,0.00,060624,,,A*66
$GNVTG,0.00,T,,M,0.18,N,0.34,K,A*2D

$GNGGA,041440.000,4443.0093,S,16910.7099,E,1,11,0.79,360.7,M,6.1,M,,*54
$GPGSA,A,3,14,02,21,,,,,,,,,,1.16,0.79,0.85*03
$GLGSA,A,3,82,72,70,73,80,79,81,71,,,,,1.16,0.79,0.85*1E
$GNRMC,041440.000,A,4443.0093,S,16910.7099,E,0.14,0.00,060624,,,A*6E
$GNVTG,0.00,T,,M,0.14,N,0.26,K,A*22

$GNGGA,041441.000,4443.0092,S,16910.7093,E,1,11,0.79,360.3,M,6.1,M,,*5A
$GPGSA,A,3,14,02,21,,,,,,,,,,1.16,0.79,0.85*03
$GLGSA,A,3,82,72,70,73,80,79,81,71,,,,,1.16,0.79,0.85*1E
$GNRMC,041441.000,A,4443.0092,S,16910.7093,E,0.16,0.00,060624,,,A*66
$GNVTG,0.00,T,,M,0.16,N,0.29,K,A*2F

$GNGGA,041442.000,4443.0090,S,16910.7095,E,1,11,0.79,361.2,M,6.1,M,,*5D
$GPGSA,A,3,14,02,21,,,,,,,,,,1.16,0.79,0.85*03
$GLGSA,A,3,82,72,70,73,80,79,81,71,,,,,1.16,0.79,0.85*1E
$GNRMC,041442.000,A,4443.0090,S,16910.7095,E,0.08,0.00,060624,,,A*6E
$GNVTG,0.00,T,,M,0.08,N,0.14,K,A*2E

$GNGGA,041443.000,4443.0088,S,16910.7095,E,1,11,0.79,362.0,M,6.1,M,,*54
$GPGSA,A,3,14,02,21,,,,,,,,,,1.16,0.79,0.85*03
$GLGSA,A,3,82,72,70,73,80,79,81,71,,,,,1.16,0.79,0.85*1E
$GNRMC,041443.000,A,4443.0088,S,16910.7095,E,0.01,0.00,060624,,,A*6F
$GNVTG,0.00,T,,M,0.01,N,0.03,K,A*21

$GNGGA,041900.247,4443.0106,S,16910.7084,E,1,10,0.81,344.8,M,6.1,M,,*52
$GPGSA,A,3,02,14,21,22,09,07,13,08,30,27,,,1.13,0.81,0.78*01
$GLGSA,A,3,,,,,,,,,,,,,1.13,0.81,0.78*1B
$GNRMC,041900.247,A,4443.0106,S,16910.7084,E,0.04,0.00,060624,,,A*66
$GNVTG,0.00,T,,M,0.04,N,0.08,K,A*2F

$GNGGA,041902.000,4443.0106,S,16910.7082,E,1,10,0.81,345.1,M,6.1,M,,*5F
$GPGSA,A,3,02,14,21,22,09,07,13,08,30,27,,,1.13,0.81,0.78*01
$GLGSA,A,3,,,,,,,,,,,,,1.13,0.81,0.78*1B
$GNRMC,041902.000,A,4443.0106,S,16910.7082,E,0.05,0.00,060624,,,A*62
$GNVTG,0.00,T,,M,0.05,N,0.09,K,A*2F

$GNGGA,041903.000,4443.0106,S,16910.7082,E,1,10,0.81,344.9,M,6.1,M,,*57
$GPGSA,A,3,02,14,21,22,09,07,13,08,30,27,,,1.13,0.81,0.78*01
$GLGSA,A,3,,,,,,,,,,,,,1.13,0.81,0.78*1B
$GNRMC,041903.000,A,4443.0106,S,16910.7082,E,0.02,0.00,060624,,,A*64
$GNVTG,0.00,T,,M,0.02,N,0.04,K,A*25

$GNGGA,042330.230,4443.0110,S,16910.7082,E,1,11,0.75,346.6,M,6.1,M,,*5F
$GPGSA,A,3,14,02,07,21,22,09,08,13,30,17,27,,1.08,0.75,0.77*09
$GLGSA,A,3,,,,,,,,,,,,,1.08,0.75,0.77*15
$GNRMC,042330.230,A,4443.0110,S,16910.7082,E,0.06,0.00,060624,,,A*6F
$GNVTG,0.00,T,,M,0.06,N,0.11,K,A*25

$GNGGA,042332.000,4443.0109,S,16910.7083,E,1,11,0.75,347.7,M,6.1,M,,*55
$GPGSA,A,3,14,02,07,21,22,09,08,13,30,17,27,,1.08,0.75,0.77*09
$GLGSA,A,3,,,,,,,,,,,,,1.08,0.75,0.77*15
$GNRMC,042332.000,A,4443.0109,S,16910.7083,E,0.06,0.00,060624,,,A*65
$GNVTG,0.00,T,,M,0.06,N,0.10,K,A*24

$GNGGA,042333.000,4443.0110,S,16910.7084,E,1,11,0.75,347.8,M,6.1,M,,*54
$GPGSA,A,3,14,02,07,21,22,09,08,13,30,17,27,,1.08,0.75,0.77*09
$GLGSA,A,3,,,,,,,,,,,,,1.08,0.75,0.77*15
$GNRMC,042333.000,A,4443.0110,S,16910.7084,E,0.07,0.00,060624,,,A*6A
$GNVTG,0.00,T,,M,0.07,N,0.13,K,A*26

$GNGGA,042610.800,4443.0075,S,16910.7093,E,1,09,0.83,356.8,M,6.1,M,,*5C
$GPGSA,A,3,,,,,,,,,,,,,1.20,0.83,0.87*05
$GLGSA,A,3,82,72,79,73,80,81,71,83,70,,,,1.20,0.83,0.87*17
$GNRMC,042610.800,A,4443.0075,S,16910.7093,E,0.15,0.00,060624,,,A*61
$GNVTG,0.00,T,,M,0.15,N,0.28,K,A*2D

$GNGGA,042612.000,4443.0076,S,16910.7096,E,1,09,0.83,356.3,M,6.1,M,,*5B
$GPGSA,A,3,,,,,,,,,,,,,1.20,0.83,0.87*05
$GLGSA,A,3,82,72,79,73,80,81,71,83,70,,,,1.20,0.83,0.87*17
$GNRMC,042612.000,A,4443.0076,S,16910.7096,E,0.10,0.00,060624,,,A*68
$GNVTG,0.00,T,,M,0.10,N,0.18,K,A*2B

$GNGGA,043610.809,4443.0052,S,16910.7100,E,1,11,0.85,354.8,M,6.1,M,,*57
$GPGSA,A,3,21,14,,,,,,,,,,,1.16,0.85,0.80*07
$GLGSA,A,3,73,74,79,71,82,80,81,72,70,,,,1.16,0.85,0.80*1B
$GNRMC,043610.809,A,4443.0052,S,16910.7100,E,0.30,0.00,060624,,,A*60
$GNVTG,0.00,T,,M,0.30,N,0.56,K,A*23

$GNGGA,045340.663,4443.0078,S,16910.7115,E,1,08,1.30,352.0,M,6.1,M,,*56
$GPGSA,A,3,,,,,,,,,,,,,1.53,1.30,0.82*0D
$GLGSA,A,3,79,74,73,82,80,81,72,71,,,,,1.53,1.30,0.82*10
$GNRMC,045340.663,A,4443.0078,S,16910.7115,E,0.18,0.00,060624,,,A*62
$GNVTG,0.00,T,,M,0.18,N,0.34,K,A*2D

$GNGGA,045342.000,4443.0083,S,16910.7110,E,1,08,1.30,350.0,M,6.1,M,,*54
$GPGSA,A,3,,,,,,,,,,,,,1.53,1.30,0.82*0D
$GLGSA,A,3,79,74,73,82,80,81,72,71,,,,,1.53,1.30,0.82*10
$GNRMC,045342.000,A,4443.0083,S,16910.7110,E,0.22,0.00,060624,,,A*6B
$GNVTG,0.00,T,,M,0.22,N,0.41,K,A*26

$GNGGA,050440.593,4443.0110,S,16910.7072,E,1,09,0.86,357.7,M,6.70,74,73,82,81,80,71,83,72,,,,1.22,0.86,0.86*1C
$GNRMC,050440.593,A,4443.0110,S,16910.7072,E,0.25,0.00,060624,,,A*6C
$GNVTG,0.00,T,,M,0.25,N,0.46,K,A*26

$GNGGA,050442.000,4443.0105,S,16910.7075,E,1,09,0.86,356.9,M,6.1,M,,*58
$GPGSA,A,3,,,,,,,,,,,,,1.22,0.86,0.86*03
$GLGSA,A,3,70,74,73,82,81,80,71,83,72,,,,1.22,0.86,0.86*1C
$GNRMC,050442.000,A,4443.0105,S,16910.7075,E,0.21,0.00,060624,,,A*66
$GNVTG,0.00,T,,M,0.21,N,0.40,K,A*24

$GNGGA,050443.000,4443.0102,S,16910.7079,E,1,09,0.86,356.5,M,6.1,M,,*5E
$GPGSA,A,3,,,,,,,,,,,,,1.22,0.86,0.86*03
$GLGSA,A,3,70,74,73,82,81,80,71,83,72,,,,1.22,0.86,0.86*1C
$GNRMC,050443.000,A,4443.0102,S,16910.7079,E,0.19,0.00,060624,,,A*67
$GNVTG,0.00,T,,M,0.19,N,0.35,K,A*2D

$GNGGA,050444.000,4443.0100,S,16910.7081,E,1,09,0.86,355.3,M,6.1,M,,*59
$GPGSA,A,3,,,,,,,,,,,,,1.22,0.86,0.86*03
$GLGSA,A,3,70,74,73,82,81,80,71,83,72,,,,1.22,0.86,0.86*1C
$GNRMC,050444.000,A,4443.0100,S,16910.7081,E,0.04,0.00,060624,,,A*69
$GNVTG,0.00,T,,M,0.04,N,0.07,K,A*20

$GNGGA,050730.249,4443.0138,S,16910.7115,E,1,10,0.89,352.5,M,6.1,M,,*57
$GPGSA,A,3,14,21,22,02,09,07,19,13,08,30,,,1.20,0.89,0.81*02
$GLGSA,A,3,,,,,,,,,,,,,1.20,0.89,0.81*15
$GNRMC,050730.249,A,4443.0138,S,16910.7115,E,0.11,0.00,060624,,,A*65
$GNVTG,0.00,T,,M,0.11,N,0.20,K,A*21

$GNGGA,050732.000,4443.0140,S,16910.7115,E,1,09,0.99,352.8,M,6.1,M,,*51
$GPGSA,A,3,14,21,22,02,07,19,13,08,30,,,,1.29,0.99,0.82*00
$GLGSA,A,3,,,,,,,,,,,,,1.29,0.99,0.82*1E
$GNRMC,050732.000,A,4443.0140,S,16910.7115,E,0.09,0.00,060624,,,A*6E
$GNVTG,0.00,T,,M,0.09,N,0.17,K,A*2C

$GNGGA,050733.000,4443.0140,S,16910.7116,E,1,09,0.99,353.0,M,6.1,M,,*5A
$GPGSA,A,3,14,21,22,02,07,19,13,08,30,,,,1.29,0.99,0.82*00
$GLGSA,A,3,,,,,,,,,,,,,1.29,0.99,0.82*1E
$GNRMC,050733.000,A,4443.0140,S,16910.7116,E,0.13,0.00,060624,,,A*67
$GNVTG,0.00,T,,M,0.13,N,0.24,K,A*27

$GNGGA,050940.803,4443.0078,S,16910.7122,E,1,08,1.06,345.6,M,6.1,M,,*51
$GPGSA,A,3,,,,,,,,,,,,,1.39,1.06,0.90*07
$GLGSA,A,3,82,74,72,81,73,80,71,83,,,,,1.39,1.06,0.90*1F
$GNRMC,050940.803,A,4443.0078,S,16910.7122,E,0.06,0.00,060624,,,A*6F
$GNVTG,0.00,T,,M,0.06,N,0.11,K,A*25

$GNGGA,050942.000,4443.0081,S,16910.7121,E,1,08,1.06,345.8,M,6.1,M,,*53
$GPGSA,A,3,,,,,,,,,,,,,1.39,1.06,0.90*07
$GLGSA,A,3,82,74,72,81,73,80,71,83,,,,,1.39,1.06,0.90*1F
$GNRMC,050942.000,A,4443.0081,S,16910.7121,E,0.10,0.00,060624,,,A*64
$GNVTG,0.00,T,,M,0.10,N,0.18,K,A*2B

$GNGGA,050943.000,4443.0082,S,16910.7120,E,1,08,1.06,345.4,M,6.1,M,,*5C
$GPGSA,A,3,,,,,,,,,,,,,1.39,1.06,0.90*07
$GLGSA,A,3,82,74,72,81,73,80,71,83,,,,,1.39,1.06,0.90*1F
$GNRMC,050943.000,A,4443.0082,S,16910.7120,E,0.08,0.00,060624,,,A*6E
$GNVTG,0.00,T,,M,0.08,N,0.15,K,A*2F

$GNGGA,051410.789,4443.0082,S,16910.7131,E,1,08,1.07,340.1,M,6.1,M,,*51
$GPGSA,A,3,,,,,,,,,,,,,1.40,1.07,0.90*08
$GLGSA,A,3,81,74,82,73,83,80,71,72,,,,,1.40,1.07,0.90*10
$GNRMC,051410.789,A,4443.0082,S,16910.7131,E,0.33,0.00,060624,,,A*6A
$GNVTG,0.00,T,,M,0.33,N,0.61,K,A*24

$GNGGA,051412.000,4443.0082,S,16910.7130,E,1,08,1.07,339.6,M,6.1,M,,*5D
$GPGSA,A,3,,,,,,,,,,,,,1.40,1.07,0.90*08
$GLGSA,A,3,81,74,82,73,83,80,71,72,,,,,1.40,1.07,0.90*10
$GNRMC,051412.000,A,4443.0082,S,16910.7130,E,0.22,0.00,060624,,,A*6F
$GNVTG,0.00,T,,M,0.22,N,0.40,K,A*27

$GNGGA,051413.000,4443.0082,S,16910.7128,E,1,08,1.07,339.2,M,6.1,M,,*51
$GPGSA,A,3,,,,,,,,,,,,,1.40,1.07,0.90*08
$GLGSA,A,3,81,74,82,73,83,80,71,72,,,,,1.40,1.07,0.90*10
$GNRMC,051413.000,A,4443.0082,S,16910.7128,E,0.06,0.00,060624,,,A*61
$GNVTG,0.00,T,,M,0.06,N,0.10,K,A*24

$GNGGA,052500.594,4443.0104,S,16910.7103,E,1,11,0.80,346.7,M,6.1,M,,*54
$GPGSA,A,3,02,14,21,19,07,08,22,13,30,15,17,,1.13,0.80,0.80*01
$GLGSA,A,3,,,,,,,,,,,,,1.13,0.80,0.80*1D
$GNRMC,052500.594,A,4443.0104,S,16910.7103,E,0.05,0.00,060624,,,A*6C
$GNVTG,0.00,T,,M,0.05,N,0.09,K,A*2F

$GNGGA,052502.000,4443.0103,S,16910.7102,E,1,11,0.80,348.0,M,6.1,M,,*51
$GPGSA,A,3,02,14,21,19,07,08,22,13,30,15,17,,1.13,0.80,0.80*01
$GLGSA,A,3,,,,,,,,,,,,,1.13,0.80,0.80*1D
$GNRMC,052502.000,A,4443.0103,S,16910.7102,E,0.03,0.00,060624,,,A*66
$GNVTG,0.00,T,,M,0.03,N,0.06,K,A*26

$GNGGA,053141.300,4443.0106,S,16910.7081,E,1,07,1.28,360.5,M,6.1,M,,*54
$GPGSA,A,3,,,,,,,,,,,,,1.59,1.28,0.94*09
$GLGSA,A,3,80,74,73,82,71,72,83,,,,,,1.59,1.28,0.94*18
$GNRMC,053141.300,A,4443.0106,S,16910.7081,E,0.22,0.00,060624,,,A*6B
$GNVTG,0.00,T,,M,0.22,N,0.40,K,A*27

$GNGGA,053143.000,4443.0104,S,16910.7082,E,1,07,1.28,360.2,M,6.1,M,,*53
$GPGSA,A,3,,,,,,,,,,,,,1.59,1.28,0.94*09
$GLGSA,A,3,80,74,73,82,71,72,83,,,,,,1.59,1.28,0.94*18
$GNRMC,053143.000,A,4443.0104,S,16910.7082,E,0.24,0.00,060624,,,A*6D
$GNVTG,0.00,T,,M,0.24,N,0.44,K,A*25

$GNGGA,053144.000,4443.0106,S,16910.7082,E,1,07,1.28,359.6,M,6.1,M,,*58
$GPGSA,A,3,,,,,,,,,,,,,1.59,1.28,0.94*09
$GLGSA,A,3,80,74,73,82,71,72,83,,,,,,1.59,1.28,0.94*18
$GNRMC,053144.000,A,4443.0106,S,16910.7082,E,0.15,0.00,060624,,,A*6A
$GNVTG,0.00,T,,M,0.15,N,0.29,K,A*2C

$GNGGA,053145.000,4443.0106,S,16910.7083,E,1,07,1.28,359.3,M,6.1,M,,*5D
$GPGSA,A,3,,,,,,,,,,,,,1.59,1.28,0.94*09
$GLGSA,A,3,80,74,73,82,71,72,83,,,,,,1.59,1.28,0.94*18
$GNRMC,053145.000,A,4443.0106,S,16910.7083,E,0.14,0.00,060624,,,A*6B
$GNVTG,0.00,T,,M,0.14,N,0.26,K,A*22

$GNGGA,053146.000,4443.0108,S,16910.7084,E,1,07,1.28,359.2,M,6.1,M,,*56
$GPGSA,A,3,,,,,,,,,,,,,1.59,1.28,0.94*09
$GLGSA,A,3,80,74,73,82,71,72,83,,,,,,1.59,1.28,0.94*18
$GPGSV,4,1,14,50,33,327,,193,,,,194,,,,195,,,*70
$GPGSV,4,2,14,14,,,48,02,,,47,21,,,47,19,,,39*70
$GPGSV,4,3,14,13,,,44,22,,,47,07,,,46,08,,,43*70
$GPGSV,4,4,14,30,,,45,15,,,38*71
$GLGSV,2,1,07,73,65,192,39,83,54,060,31,82,43,131,43,80,38,093,46*6A
$GLGSV,2,2,07,74,27,236,37,72,24,236,41,71,19,287,41*50
$GNRMC,053146.000,A,4443.0108,S,16910.7084,E,0.02,0.00,060624,,,A*66
$GNVTG,0.00,T,,M,0.02,N,0.04,K,A*25

$GNGGA,053147.000,4443.0109,S,16910.7085,E,1,07,1.28,359.0,M,6.1,M,,*55
$GPGSA,A,3,,,,,,,,,,,,,1.59,1.28,0.94*09
$GLGSA,A,3,80,74,73,82,71,72,83,,,,,,1.59,1.28,0.94*18
$GNRMC,053147.000,A,4443.0109,S,16910.7085,E,0.03,0.00,060624,,,A*66
$GNVTG,0.00,T,,M,0.03,N,0.05,K,A*25

$GNGGA,053148.000,4443.0108,S,16910.7086,E,1,07,1.28,359.1,M,6.1,M,,*59
$GPGSA,A,3,,,,,,,,,,,,,1.59,1.28,0.94*09
$GLGSA,A,3,80,74,73,82,71,72,83,,,,,,1.59,1.28,0.94*18
$GNRMC,053148.000,A,4443.0108,S,16910.7086,E,0.07,0.00,060624,,,A*6F
$GNVTG,0.00,T,,M,0.07,N,0.13,K,A*26

$GNGGA,053149.000,4443.0108,S,16910.7086,E,1,07,1.28,359.3,M,6.1,M,,*5A
$GPGSA,A,3,,,,,,,,,,,,,1.59,1.28,0.94*09
$GLGSA,A,3,80,74,73,82,71,72,83,,,,,,1.59,1.28,0.94*18
$GNRMC,053149.000,A,4443.0108,S,16910.7086,E,0.01,0.00,060624,,,A*68
$GNVTG,0.00,T,,M,0.01,N,0.02,K,A*20

$GNGGA,053150.000,4443.0108,S,16910.7086,E,1,07,1.28,359.6,M,6.1,M,,*57
$GPGSA,A,3,,,,,,,,,,,,,1.59,1.28,0.94*09
$GLGSA,A,3,80,74,73,82,71,72,83,,,,,,1.59,1.28,0.94*18
$GNRMC,053150.000,A,4443.0108,S,16910.7086,E,0.04,0.00,060624,,,A*65
$GNVTG,0.00,T,,M,0.04,N,0.08,K,A*2F

$GNGGA,053151.000,4443.0107,S,16910.7085,E,1,07,1.28,359.9,M,6.1,M,,*55
$GPGSA,A,3,,,,,,,,,,,,,1.59,1.28,0.94*09
$GLGSA,A,3,80,74,73,82,71,72,83,,,,,,1.59,1.28,0.94*18
$GPGSV,4,1,14,50,33,327,39,193,,,,194,,,,195,,,*7A
$GPGSV,4,2,14,14,,,49,02,,,47,21,,,47,19,,,39*71
$GPGSV,4,3,14,13,,,44,22,,,47,07,,,45,08,,,43*73
$GPGSV,4,4,14,30,,,46,15,,,39*73
$GLGSV,2,1,08,73,65,192,38,83,54,060,31,82,43,131,43,80,38,093,46*64
$GLGSV,2,2,08,74,27,236,37,72,24,236,41,71,19,287,41,81,04,160,*65
$GNRMC,053151.000,A,4443.0107,S,16910.7085,E,0.08,0.00,060624,,,A*64
$GNVTG,0.00,T,,M,0.08,N,0.15,K,A*2F

$GNGGA,053152.000,4443.0106,S,16910.7085,E,1,07,1.28,360.2,M,6.1,M,,*56
$GPGSA,A,3,,,,,,,,,,,,,1.59,1.28,0.94*09
$GLGSA,A,3,80,74,73,82,71,72,83,,,,,,1.59,1.28,0.94*18
$GNRMC,053152.000,A,4443.0106,S,16910.7085,E,0.05,0.00,060624,,,A*6B
$GNVTG,0.00,T,,M,0.05,N,0.09,K,A*2F

$GNGGA,053153.000,4443.0105,S,16910.7086,E,1,07,1.28,360.4,M,6.1,M,,*51
$GPGSA,A,3,,,,,,,,,,,,,1.59,1.28,0.94*09
$GLGSA,A,3,80,74,73,82,71,72,83,,,,,,1.59,1.28,0.94*18
$GNRMC,053153.000,A,4443.0105,S,16910.7086,E,0.06,0.00,060624,,,A*69
$GNVTG,0.00,T,,M,0.06,N,0.11,K,A*25

$GNGGA,053154.000,4443.0104,S,16910.7086,E,1,07,1.28,360.7,M,6.1,M,,*54
$GPGSA,A,3,,,,,,,,,,,,,1.59,1.28,0.94*09
$GLGSA,A,3,80,74,73,82,71,72,83,,,,,,1.59,1.28,0.94*18
$GNRMC,053154.000,A,4443.0104,S,16910.7086,E,0.09,0.00,060624,,,A*60
$GNVTG,0.00,T,,M,0.09,N,0.16,K,A*2D

$GNGGA,053155.000,4443.0102,S,16910.7086,E,1,17,0.70,344.5,M,6.1,M,,*5A
$GPGSA,A,3,14,02,21,19,13,22,07,08,30,15,,,1.03,0.70,0.76*00
$GLGSA,A,3,80,74,73,82,71,72,83,,,,,,1.03,0.70,0.76*17
$GNRMC,053155.000,A,4443.0102,S,16910.7086,E,0.04,0.00,060624,,,A*6A
$GNVTG,0.00,T,,M,0.04,N,0.07,K,A*20

$GNGGA,054141.093,4443.0113,S,16910.7098,E,1,07,1.26,353.9,M,6.1,M,,*54
$GPGSA,A,3,,,,,,,,,,,,,1.56,1.26,0.92*0E
$GLGSA,A,3,80,74,82,83,73,72,71,,,,,,1.56,1.26,0.92*1F
$GPGSV,4,1,15,50,33,327,,193,,,,194,,,,195,,,*71
$GPGSV,4,2,15,21,,,42,14,,,48,02,,,46,22,,,47*74
$GPGSV,4,3,15,19,,,41,07,,,46,08,,,41,13,,,45*7C
$GPGSV,4,4,15,30,,,44,15,,,36,17,,,46*7B
$GLGSV,2,1,08,73,68,180,39,83,58,068,33,82,40,136,44,80,35,088,45*6A
$GLGSV,2,2,08,74,31,232,41,72,23,242,39,71,15,291,42,66,,,*5E
$GNRMC,054141.093,A,4443.0113,S,16910.7098,E,0.09,0.00,060624,,,A*60
$GNVTG,0.00,T,,M,0.09,N,0.16,K,A*2D

$GNGGA,054143.000,4443.0114,S,16910.7097,E,1,07,1.26,353.3,M,6.1,M,,*5E
$GPGSA,A,3,,,,,,,,,,,,,1.56,1.26,0.92*0E
$GLGSA,A,3,80,74,82,83,73,72,71,,,,,,1.56,1.26,0.92*1F
$GNRMC,054143.000,A,4443.0114,S,16910.7097,E,0.04,0.00,060624,,,A*6D
$GNVTG,0.00,T,,M,0.04,N,0.07,K,A*20

$GNGGA,054144.000,4443.0113,S,16910.7095,E,1,07,1.26,353.5,M,6.1,M,,*5A
$GPGSA,A,3,,,,,,,,,,,,,1.56,1.26,0.92*0E
$GLGSA,A,3,80,74,82,83,73,72,71,,,,,,1.56,1.26,0.92*1F
$GNRMC,054144.000,A,4443.0113,S,16910.7095,E,0.21,0.00,060624,,,A*68
$GNVTG,0.00,T,,M,0.21,N,0.38,K,A*2B

$GNGGA,054145.000,4443.0113,S,16910.7096,E,1,07,1.26,353.0,M,6.1,M,,*5D
$GPGSA,A,3,,,,,,,,,,,,,1.56,1.26,0.92*0E
$GLGSA,A,3,80,74,82,83,73,72,71,,,,,,1.56,1.26,0.92*1F
$GNRMC,054145.000,A,4443.0113,S,16910.7096,E,0.13,0.00,060624,,,A*6B
$GNVTG,0.00,T,,M,0.13,N,0.25,K,A*26

$GNGGA,054146.000,4443.0112,S,16910.7096,E,1,07,1.26,353.4,M,6.1,M,,*5B
$GPGSA,A,3,,,,,,,,,,,,,1.56,1.26,0.92*0E
$GLGSA,A,3,80,74,82,83,73,72,71,,,,,,1.56,1.26,0.92*1F
$GNRMC,054146.000,A,4443.0112,S,16910.7096,E,0.04,0.00,060624,,,A*6F
$GNVTG,0.00,T,,M,0.04,N,0.07,K,A*20

$GNGGA,054147.000,4443.0111,S,16910.7096,E,1,07,1.26,352.9,M,6.1,M,,*55
$GPGSA,A,3,,,,,,,,,,,,,1.56,1.26,0.92*0E
$GLGSA,A,3,80,74,82,83,73,72,71,,,,,,1.56,1.26,0.92*1F
$GPGSV,4,1,14,50,33,327,,193,,,,194,,,,195,,,*70
$GPGSV,4,2,14,21,,,42,14,,,48,02,,,46,22,,,46*74
$GPGSV,4,3,14,19,,,41,07,,,46,08,,,41,13,,,45*7D
$GPGSV,4,4,14,30,,,45,15,,,36*7F
$GLGSV,2,1,08,73,68,180,38,83,58,068,33,82,40,136,44,80,35,088,45*6B
$GLGSV,2,2,08,74,31,232,41,72,23,242,39,71,15,291,42,66,,,*5E
$GNRMC,054147.000,A,4443.0111,S,16910.7096,E,0.02,0.00,060624,,,A*6B
$GNVTG,0.00,T,,M,0.02,N,0.03,K,A*22

$GNGGA,054148.000,4443.0110,S,16910.7097,E,1,07,1.26,352.6,M,6.1,M,,*55
$GPGSA,A,3,,,,,,,,,,,,,1.56,1.26,0.92*0E
$GLGSA,A,3,80,74,82,83,73,72,71,,,,,,1.56,1.26,0.92*1F
$GNRMC,054148.000,A,4443.0110,S,16910.7097,E,0.01,0.00,060624,,,A*67
$GNVTG,0.00,T,,M,0.01,N,0.01,K,A*23

$GNGGA,054149.000,4443.0110,S,16910.7097,E,1,07,1.26,352.0,M,6.1,M,,*52
$GPGSA,A,3,,,,,,,,,,,,,1.56,1.26,0.92*0E
$GLGSA,A,3,80,74,82,83,73,72,71,,,,,,1.56,1.26,0.92*1F
$GNRMC,054149.000,A,4443.0110,S,16910.7097,E,0.05,0.00,060624,,,A*62
$GNVTG,0.00,T,,M,0.05,N,0.10,K,A*27

$GNGGA,054150.000,4443.0109,S,16910.7097,E,1,07,1.26,351.7,M,6.1,M,,*56
$GPGSA,A,3,,,,,,,,,,,,,1.56,1.26,0.92*0E
$GLGSA,A,3,80,74,82,83,73,72,71,,,,,,1.56,1.26,0.92*1F
$GNRMC,054150.000,A,4443.0109,S,16910.7097,E,0.03,0.00,060624,,,A*64
$GNVTG,0.00,T,,M,0.03,N,0.05,K,A*25

$GNGGA,054151.000,4443.0109,S,16910.7097,E,1,07,1.26,351.6,M,6.1,M,,*56
$GPGSA,A,3,,,,,,,,,,,,,1.56,1.26,0.92*0E
$GLGSA,A,3,80,74,82,83,73,72,71,,,,,,1.56,1.26,0.92*1F
$GNRMC,054151.000,A,4443.0109,S,16910.7097,E,0.06,0.00,060624,,,A*60
$GNVTG,0.00,T,,M,0.06,N,0.11,K,A*25

$GNGGA,054152.000,4443.0109,S,16910.7096,E,1,07,1.26,351.7,M,6.1,M,,*55
$GPGSA,A,3,,,,,,,,,,,,,1.56,1.26,0.92*0E
$GLGSA,A,3,80,74,82,83,73,72,71,,,,,,1.56,1.26,0.92*1F
$GPGSV,4,1,14,50,33,327,38,193,,,,194,,,,195,,,*7B
$GPGSV,4,2,14,21,,,42,14,,,48,02,,,46,22,,,46*74
$GPGSV,4,3,14,19,,,41,07,,,46,08,,,41,13,,,45*7D
$GPGSV,4,4,14,30,,,46,15,,,36*7C
$GLGSV,2,1,08,73,68,180,38,83,58,068,33,82,40,136,43,80,35,088,45*6C
$GLGSV,2,2,08,74,31,232,41,72,23,242,38,71,15,291,41,66,,,*5C
$GNRMC,054152.000,A,4443.0109,S,16910.7096,E,0.05,0.00,060624,,,A*61
$GNVTG,0.00,T,,M,0.05,N,0.09,K,A*2F

$GNGGA,054153.000,4443.0109,S,16910.7096,E,1,07,1.26,351.8,M,6.1,M,,*5B
$GPGSA,A,3,,,,,,,,,,,,,1.56,1.26,0.92*0E
$GLGSA,A,3,80,74,82,83,73,72,71,,,,,,1.56,1.26,0.92*1F
$GNRMC,054153.000,A,4443.0109,S,16910.7096,E,0.09,0.00,060624,,,A*6C
$GNVTG,0.00,T,,M,0.09,N,0.17,K,A*2C

$GNGGA,054154.000,4443.0109,S,16910.7096,E,1,07,1.26,352.0,M,6.1,M,,*57
$GPGSA,A,3,,,,,,,,,,,,,1.56,1.26,0.92*0E
$GLGSA,A,3,80,74,82,83,73,72,71,,,,,,1.56,1.26,0.92*1F
$GNRMC,054154.000,A,4443.0109,S,16910.7096,E,0.08,0.00,060624,,,A*6A
$GNVTG,0.00,T,,M,0.08,N,0.15,K,A*2F

$GNGGA,054155.000,4443.0104,S,16910.7125,E,1,10,1.19,346.5,M,6.1,M,,*58
$GPGSA,A,3,21,14,02,,,,,,,,,,1.47,1.19,0.86*03
$GLGSA,A,3,80,74,82,83,73,72,71,,,,,,1.47,1.19,0.86*16
$GNRMC,054155.000,A,4443.0104,S,16910.7125,E,0.07,0.00,060624,,,A*60
$GNVTG,0.00,T,,M,0.07,N,0.12,K,A*27

$GNGGA,054156.000,4443.0104,S,16910.7125,E,1,10,1.19,346.6,M,6.1,M,,*58
$GPGSA,A,3,21,14,02,,,,,,,,,,1.47,1.19,0.86*03
$GLGSA,A,3,80,74,82,83,73,72,71,,,,,,1.47,1.19,0.86*16
$GNRMC,054156.000,A,4443.0104,S,16910.7125,E,0.15,0.00,060624,,,A*60
$GNVTG,0.00,T,,M,0.15,N,0.28,K,A*2D

$GNGGA,054640.591,4443.0120,S,16910.7122,E,1,08,0.95,337.2,M,6.1,M,,*5A
$GPGSA,A,3,,,,,,,,,,,,,1.32,0.95,0.91*06
$GLGSA,A,3,72,74,73,82,71,80,84,83,,,,,1.32,0.95,0.91*1B
$GNRMC,054640.591,A,4443.0120,S,16910.7122,E,0.14,0.00,060624,,,A*6D
$GNVTG,0.00,T,,M,0.14,N,0.26,K,A*22

$GNGGA,054642.000,4443.0123,S,16910.7123,E,1,08,0.95,336.1,M,6.1,M,,*55
$GPGSA,A,3,,,,,,,,,,,,,1.32,0.95,0.91*06
$GLGSA,A,3,72,74,73,82,71,80,84,83,,,,,1.32,0.95,0.91*1B
$GPGSV,4,1,14,50,33,327,,193,,,,194,,,,195,,,*70
$GPGSV,4,2,14,14,,,46,02,,,45,21,,,43,19,,,44*72
$GPGSV,4,3,14,22,,,48,07,,,41,08,,,42,13,,,47*7A
$GPGSV,4,4,14,30,,,49,17,,,47*77
$GLGSV,2,1,08,73,69,173,45,83,59,073,31,82,38,139,43,74,33,230,38*64
$GLGSV,2,2,08,80,33,085,43,72,22,245,41,84,17,004,28,71,13,293,41*61
$GNRMC,054642.000,A,4443.0123,S,16910.7123,E,0.01,0.00,060624,,,A*64
$GNVTG,0.00,T,,M,0.01,N,0.02,K,A*20

$GNGGA,054643.000,4443.0122,S,16910.7123,E,1,08,0.95,337.5,M,6.1,M,,*50
$GPGSA,A,3,,,,,,,,,,,,,1.32,0.95,0.91*06
$GLGSA,A,3,72,74,73,82,71,80,84,83,,,,,1.32,0.95,0.91*1B
$GNRMC,054643.000,A,4443.0122,S,16910.7123,E,0.02,0.00,060624,,,A*67
$GNVTG,0.00,T,,M,0.02,N,0.03,K,A*22

$GNGGA,054644.000,4443.0121,S,16910.7125,E,1,08,0.95,337.2,M,6.1,M,,*55
$GPGSA,A,3,,,,,,,,,,,,,1.32,0.95,0.91*06
$GLGSA,A,3,72,74,73,82,71,80,84,83,,,,,1.32,0.95,0.91*1B
$GNRMC,054644.000,A,4443.0121,S,16910.7125,E,0.05,0.00,060624,,,A*62
$GNVTG,0.00,T,,M,0.05,N,0.10,K,A*27

$GNGGA,054645.000,4443.0120,S,16910.7126,E,1,08,0.95,336.9,M,6.1,M,,*5C
$GPGSA,A,3,,,,,,,,,,,,,1.32,0.95,0.91*06
$GLGSA,A,3,72,74,73,82,71,80,84,83,,,,,1.32,0.95,0.91*1B
$GNRMC,054645.000,A,4443.0120,S,16910.7126,E,0.03,0.00,060624,,,A*67
$GNVTG,0.00,T,,M,0.03,N,0.06,K,A*26

$GNGGA,054646.000,4443.0120,S,16910.7126,E,1,08,0.95,336.9,M,6.1,M,,*5F
$GPGSA,A,3,,,,,,,,,,,,,1.32,0.95,0.91*06
$GLGSA,A,3,72,74,73,82,71,80,84,83,,,,,1.32,0.95,0.91*1B
$GNRMC,054646.000,A,4443.0120,S,16910.7126,E,0.04,0.00,060624,,,A*63
$GNVTG,0.00,T,,M,0.04,N,0.07,K,A*20

$GNGGA,054800.592,4443.0107,S,16910.7089,E,1,11,0.83,347.8,M,6.1,M,,*54
$GPGSA,A,3,02,14,21,15,17,07,22,19,08,13,30,,1.16,0.83,0.81*06
$GLGSA,A,3,,,,,,,,,,,,,1.16,0.83,0.81*1A
$GNRMC,054800.592,A,4443.0107,S,16910.7089,E,0.08,0.00,060624,,,A*6C
$GNVTG,0.00,T,,M,0.08,N,0.14,K,A*2E

$GNGGA,054802.000,4443.0105,S,16910.7088,E,1,11,0.83,346.2,M,6.1,M,,*50
$GPGSA,A,3,02,14,21,15,17,07,22,19,08,13,30,,1.16,0.83,0.81*06
$GLGSA,A,3,,,,,,,,,,,,,1.16,0.83,0.81*1A
$GNRMC,054802.000,A,4443.0105,S,16910.7088,E,0.04,0.00,060624,,,A*6F
$GNVTG,0.00,T,,M,0.04,N,0.07,K,A*20

$GNGGA,055440.809,4443.0115,S,16910.7115,E,1,07,1.22,340.3,M,6.1,M,,*54
$GPGSA,A,3,,,,,,,,,,,,,1.51,1.22,0.89*07
$GLGSA,A,3,82,74,72,73,80,71,83,,,,,,1.51,1.22,0.89*16
$GNRMC,055440.809,A,4443.0115,S,16910.7115,E,0.25,0.00,060624,,,A*62
$GNVTG,0.00,T,,M,0.25,N,0.46,K,A*26

$GNGGA,055442.000,4443.0116,S,16910.7117,E,1,07,1.22,338.0,M,6.1,M,,*5A
$GPGSA,A,3,,,,,,,,,,,,,1.51,1.22,0.89*07
$GLGSA,A,3,82,74,72,73,80,71,83,,,,,,1.51,1.22,0.89*16
$GPGSV,4,1,14,50,33,327,,193,,,,194,,,,195,,,*70
$GPGSV,4,2,14,14,,,44,19,,,44,21,,,45,02,,,45*76
$GPGSV,4,3,14,22,,,46,07,,,46,08,,,42,13,,,47*73
$GPGSV,4,4,14,30,,,46,17,,,48*77
$GLGSV,2,1,07,73,70,161,42,83,61,082,33,74,36,228,38,82,35,142,41*6F
$GLGSV,2,2,07,80,30,081,44,72,21,249,40,71,10,295,41*51
$GNRMC,055442.000,A,4443.0116,S,16910.7117,E,0.22,0.00,060624,,,A*67
$GNVTG,0.00,T,,M,0.22,N,0.41,K,A*26

$GNGGA,055443.000,4443.0115,S,16910.7118,E,1,07,1.22,335.9,M,6.1,M,,*53
$GPGSA,A,3,,,,,,,,,,,,,1.51,1.22,0.89*07
$GLGSA,A,3,82,74,72,73,80,71,83,,,,,,1.51,1.22,0.89*16
$GNRMC,055443.000,A,4443.0115,S,16910.7118,E,0.21,0.00,060624,,,A*69
$GNVTG,0.00,T,,M,0.21,N,0.39,K,A*2A

$GNGGA,055444.000,4443.0115,S,16910.7119,E,1,07,1.22,334.9,M,6.1,M,,*54
$GPGSA,A,3,,,,,,,,,,,,,1.51,1.22,0.89*07
$GLGSA,A,3,82,74,72,73,80,71,83,,,,,,1.51,1.22,0.89*16
$GNRMC,055444.000,A,4443.0115,S,16910.7119,E,0.02,0.00,060624,,,A*6E
$GNVTG,0.00,T,,M,0.02,N,0.04,K,A*25

$GNGGA,055445.000,4443.0115,S,16910.7119,E,1,07,1.22,334.2,M,6.1,M,,*5E
$GPGSA,A,3,,,,,,,,,,,,,1.51,1.22,0.89*07
$GLGSA,A,3,82,74,72,73,80,71,83,,,,,,1.51,1.22,0.89*16
$GNRMC,055445.000,A,4443.0115,S,16910.7119,E,0.04,0.00,060624,,,A*69
$GNVTG,0.00,T,,M,0.04,N,0.07,K,A*20

$GNGGA,055446.000,4443.0115,S,16910.7119,E,1,07,1.22,333.6,M,6.1,M,,*5E
$GPGSA,A,3,,,,,,,,,,,,,1.51,1.22,0.89*07
$GLGSA,A,3,82,74,72,73,80,71,83,,,,,,1.51,1.22,0.89*16
$GNRMC,055446.000,A,4443.0115,S,16910.7119,E,0.03,0.00,060624,,,A*6D
$GNVTG,0.00,T,,M,0.03,N,0.06,K,A*26

$GNGGA,055447.000,4443.0116,S,16910.7120,E,1,07,1.22,333.2,M,6.1,M,,*52
$GPGSA,A,3,,,,,,,,,,,,,1.51,1.22,0.89*07
$GLGSA,A,3,82,74,72,73,80,71,83,,,,,,1.51,1.22,0.89*16
$GPGSV,4,1,14,50,33,327,,193,,,,194,,,,195,,,*70
$GPGSV,4,2,14,14,,,43,19,,,44,21,,,45,02,,,45*71
$GPGSV,4,3,14,22,,,46,07,,,46,08,,,41,13,,,47*70
$GPGSV,4,4,14,30,,,45,17,,,48*74
$GLGSV,2,1,07,73,70,161,42,83,61,082,32,74,36,228,39,82,35,142,41*6F
$GLGSV,2,2,07,80,30,081,44,72,21,249,40,71,10,295,38*5F
$GNRMC,055447.000,A,4443.0116,S,16910.7120,E,0.09,0.00,060624,,,A*6F
$GNVTG,0.00,T,,M,0.09,N,0.16,K,A*2D

$GNGGA,055448.000,4443.0117,S,16910.7120,E,1,07,1.22,333.4,M,6.1,M,,*5A
$GPGSA,A,3,,,,,,,,,,,,,1.51,1.22,0.89*07
$GLGSA,A,3,82,74,72,73,80,71,83,,,,,,1.51,1.22,0.89*16
$GNRMC,055448.000,A,4443.0117,S,16910.7120,E,0.09,0.00,060624,,,A*61
$GNVTG,0.00,T,,M,0.09,N,0.17,K,A*2C

$GNGGA,055449.000,4443.0118,S,16910.7120,E,1,07,1.22,333.3,M,6.1,M,,*53
$GPGSA,A,3,,,,,,,,,,,,,1.51,1.22,0.89*07
$GLGSA,A,3,82,74,72,73,80,71,83,,,,,,1.51,1.22,0.89*16
$GNRMC,055449.000,A,4443.0118,S,16910.7120,E,0.04,0.00,060624,,,A*62
$GNVTG,0.00,T,,M,0.04,N,0.07,K,A*20

$GNGGA,055450.000,4443.0119,S,16910.7120,E,1,07,1.22,333.4,M,6.1,M,,*5D
$GPGSA,A,3,,,,,,,,,,,,,1.51,1.22,0.89*07
$GLGSA,A,3,82,74,72,73,80,71,83,,,,,,1.51,1.22,0.89*16
$GNRMC,055450.000,A,4443.0119,S,16910.7120,E,0.08,0.00,060624,,,A*67
$GNVTG,0.00,T,,M,0.08,N,0.15,K,A*2F

$GNGGA,055451.000,4443.0119,S,16910.7120,E,1,07,1.22,333.7,M,6.1,M,,*5F
$GPGSA,A,3,,,,,,,,,,,,,1.51,1.22,0.89*07
$GLGSA,A,3,82,74,72,73,80,71,83,,,,,,1.51,1.22,0.89*16
$GNRMC,055451.000,A,4443.0119,S,16910.7120,E,0.08,0.00,060624,,,A*66
$GNVTG,0.00,T,,M,0.08,N,0.14,K,A*2E

$GNGGA,055530.592,4443.0104,S,16910.7104,E,1,11,0.84,345.0,M,6.1,M,,*51
$GPGSA,A,3,19,14,21,02,22,07,08,13,30,15,17,,1.17,0.84,0.81*00
$GLGSA,A,3,,,,,,,,,,,,,1.17,0.84,0.81*1C
$GNRMC,055530.592,A,4443.0104,S,16910.7104,E,0.04,0.00,060624,,,A*68
$GNVTG,0.00,T,,M,0.04,N,0.08,K,A*2F

$GNGGA,055532.000,4443.0105,S,16910.7103,E,1,11,0.84,344.3,M,6.1,M,,*59
$GPGSA,A,3,19,14,21,02,22,07,08,13,30,15,17,,1.17,0.84,0.81*00
$GLGSA,A,3,,,,,,,,,,,,,1.17,0.84,0.81*1C
$GNRMC,055532.000,A,4443.0105,S,16910.7103,E,0.14,0.00,060624,,,A*63
$GNVTG,0.00,T,,M,0.14,N,0.25,K,A*21

$GNGGA,055533.000,4443.0103,S,16910.7101,E,1,11,0.84,343.7,M,6.1,M,,*5F
$GPGSA,A,3,19,14,21,02,22,07,08,13,30,15,17,,1.17,0.84,0.81*00
$GLGSA,A,3,,,,,,,,,,,,,1.17,0.84,0.81*1C
$GNRMC,055533.000,A,4443.0103,S,16910.7101,E,0.04,0.00,060624,,,A*67
$GNVTG,0.00,T,,M,0.04,N,0.08,K,A*2F

$GNGGA,060210.592,4443.0124,S,16910.7113,E,1,08,1.01,350.3,M,6.1,M,,*55
$GPGSA,A,3,,,,,,,,,,,,,1.30,1.01,0.82*0A
$GLGSA,A,3,82,74,73,72,80,71,65,83,,,,,1.30,1.01,0.82*18
$GNRMC,060210.592,A,4443.0124,S,16910.7113,E,0.13,0.00,060624,,,A*69
$GNVTG,0.00,T,,M,0.13,N,0.25,K,A*26

$GNGGA,060212.000,4443.0126,S,16910.7109,E,1,08,1.01,351.9,M,6.1,M,,*5B
$GPGSA,A,3,,,,,,,,,,,,,1.30,1.01,0.82*0A
$GLGSA,A,3,82,74,73,72,80,71,65,83,,,,,1.30,1.01,0.82*18
$GNRMC,060212.000,A,4443.0126,S,16910.7109,E,0.16,0.00,060624,,,A*69
$GNVTG,0.00,T,,M,0.16,N,0.30,K,A*27

$GNGGA,060241.088,4443.0108,S,16910.7102,E,1,05,2.00,361.2,M,6.1,M,,*5D
$GPGSA,A,3,,,,,,,,,,,,,2.19,2.00,0.89*0B
$GLGSA,A,3,82,74,73,80,65,,,,,,,,2.19,2.00,0.89*11
$GPGSV,4,1,15,50,33,327,,193,,,,194,,,,195,,,*71
$GPGSV,4,2,15,02,,,45,14,,,49,19,,,45,21,,,47*79
$GPGSV,4,3,15,22,,,48,07,,,43,08,,,40,13,,,44*78
$GPGSV,4,4,15,30,,,45,15,,,38,17,,,47*75
$GLGSV,2,1,08,73,71,147,34,74,40,225,41,82,32,145,43,80,27,078,44*60
$GLGSV,2,2,08,65,09,197,33,72,,,37,83,,,29,71,,,41*5A
$GNRMC,060241.088,A,4443.0108,S,16910.7102,E,0.20,0.00,060624,,,A*6D
$GNVTG,0.00,T,,M,0.20,N,0.37,K,A*25

$GNGGA,060243.000,4443.0102,S,16910.7098,E,1,05,2.00,360.3,M,6.1,M,,*57
$GPGSA,A,3,,,,,,,,,,,,,2.19,2.00,0.89*0B
$GLGSA,A,3,82,74,73,80,65,,,,,,,,2.19,2.00,0.89*11
$GNRMC,060243.000,A,4443.0102,S,16910.7098,E,0.14,0.00,060624,,,A*60
$GNVTG,0.00,T,,M,0.14,N,0.26,K,A*22

$GNGGA,060244.000,4443.0098,S,16910.7095,E,1,05,2.00,359.3,M,6.1,M,,*55
$GPGSA,A,3,,,,,,,,,,,,,2.19,2.00,0.89*0B
$GLGSA,A,3,82,74,73,80,65,,,,,,,,2.19,2.00,0.89*11
$GNRMC,060244.000,A,4443.0098,S,16910.7095,E,0.20,0.00,060624,,,A*6F
$GNVTG,0.00,T,,M,0.20,N,0.37,K,A*25

$GNGGA,060245.000,4443.0096,S,16910.7094,E,1,05,2.00,358.6,M,6.1,M,,*5F
$GPGSA,A,3,,,,,,,,,,,,,2.19,2.00,0.89*0B
$GLGSA,A,3,82,74,73,80,65,,,,,,,,2.19,2.00,0.89*11
$GNRMC,060245.000,A,4443.0096,S,16910.7094,E,0.22,0.00,060624,,,A*63
$GNVTG,0.00,T,,M,0.22,N,0.40,K,A*27

$GNGGA,060246.000,4443.0096,S,16910.7092,E,1,05,2.00,358.5,M,6.1,M,,*59
$GPGSA,A,3,,,,,,,,,,,,,2.19,2.00,0.89*0B
$GLGSA,A,3,82,74,73,80,65,,,,,,,,2.19,2.00,0.89*11
$GNRMC,060246.000,A,4443.0096,S,16910.7092,E,0.09,0.00,060624,,,A*6F
$GNVTG,0.00,T,,M,0.09,N,0.17,K,A*2C

$GNGGA,060247.000,4443.0095,S,16910.7091,E,1,05,2.00,358.7,M,6.1,M,,*5A
$GPGSA,A,3,,,,,,,,,,,,,2.19,2.00,0.89*0B
$GLGSA,A,3,82,74,73,80,65,,,,,,,,2.19,2.00,0.89*11
$GPGSV,4,1,14,21,36,112,47,50,33,327,39,193,,,,194,,,*70
$GPGSV,4,2,14,195,,,,02,,,45,14,,,49,19,,,45*45
$GPGSV,4,3,14,22,,,48,07,,,44,08,,,40,13,,,44*7E
$GPGSV,4,4,14,30,,,45,15,,,39*70
$GLGSV,2,1,08,73,71,147,34,74,40,225,41,82,32,145,44,80,27,078,44*67
$GLGSV,2,2,08,65,09,197,34,72,,,36,83,,,30,71,,,41*54
$GNRMC,060247.000,A,4443.0095,S,16910.7091,E,0.07,0.00,060624,,,A*60
$GNVTG,0.00,T,,M,0.07,N,0.14,K,A*21

$GNGGA,060248.000,4443.0097,S,16910.7092,E,1,05,1.99,358.8,M,6.1,M,,*58
$GPGSA,A,3,,,,,,,,,,,,,2.19,1.99,0.89*08
$GLGSA,A,3,82,74,73,80,65,,,,,,,,2.19,1.99,0.89*12
$GNRMC,060248.000,A,4443.0097,S,16910.7092,E,0.06,0.00,060624,,,A*6F
$GNVTG,0.00,T,,M,0.06,N,0.11,K,A*25

$GNGGA,060249.000,4443.0098,S,16910.7091,E,1,05,2.00,359.3,M,6.1,M,,*5C
$GPGSA,A,3,,,,,,,,,,,,,2.19,2.00,0.89*0B
$GLGSA,A,3,82,74,73,80,65,,,,,,,,2.19,2.00,0.89*11
$GNRMC,060249.000,A,4443.0098,S,16910.7091,E,0.07,0.00,060624,,,A*63
$GNVTG,0.00,T,,M,0.07,N,0.13,K,A*26

$GNGGA,060250.000,4443.0099,S,16910.7089,E,1,05,2.00,360.1,M,6.1,M,,*54
$GPGSA,A,3,,,,,,,,,,,,,2.19,2.00,0.89*0B
$GLGSA,A,3,82,74,73,80,65,,,,,,,,2.19,2.00,0.89*11
$GNRMC,060250.000,A,4443.0099,S,16910.7089,E,0.23,0.00,060624,,,A*65
$GNVTG,0.00,T,,M,0.23,N,0.43,K,A*25

$GNGGA,060251.000,4443.0099,S,16910.7088,E,1,05,2.00,361.2,M,6.1,M,,*56
$GPGSA,A,3,,,,,,,,,,,,,2.19,2.00,0.89*0B
$GLGSA,A,3,82,74,73,80,65,,,,,,,,2.19,2.00,0.89*11
$GNRMC,060251.000,A,4443.0099,S,16910.7088,E,0.15,0.00,060624,,,A*60
$GNVTG,0.00,T,,M,0.15,N,0.28,K,A*2D

$GNGGA,060252.000,4443.0098,S,16910.7087,E,1,05,2.00,361.4,M,6.1,M,,*5D
$GPGSA,A,3,,,,,,,,,,,,,2.19,2.00,0.89*0B
$GLGSA,A,3,82,74,73,80,65,,,,,,,,2.19,2.00,0.89*11
$GPGSV,4,1,14,21,36,112,47,50,33,327,39,193,,,,194,,,*70
$GPGSV,4,2,14,195,,,,02,,,44,14,,,49,19,,,45*44
$GPGSV,4,3,14,22,,,48,07,,,44,08,,,39,13,,,44*70
$GPGSV,4,4,14,30,,,45,15,,,39*70
$GLGSV,2,1,08,73,71,147,34,74,40,225,41,82,32,145,44,80,27,078,43*60
$GLGSV,2,2,08,65,09,197,34,72,,,36,83,,,30,71,,,41*54
$GNRMC,060252.000,A,4443.0098,S,16910.7087,E,0.05,0.00,060624,,,A*6C
$GNVTG,0.00,T,,M,0.05,N,0.09,K,A*2F

$GNGGA,060253.000,4443.0097,S,16910.7088,E,1,05,2.00,361.1,M,6.1,M,,*59
$GPGSA,A,3,,,,,,,,,,,,,2.19,2.00,0.89*0B
$GLGSA,A,3,82,74,73,80,65,,,,,,,,2.19,2.00,0.89*11
$GNRMC,060253.000,A,4443.0097,S,16910.7088,E,0.08,0.00,060624,,,A*60
$GNVTG,0.00,T,,M,0.08,N,0.15,K,A*2F

$GNGGA,060254.000,4443.0095,S,16910.7088,E,1,05,2.00,361.3,M,6.1,M,,*5E
$GPGSA,A,3,,,,,,,,,,,,,2.19,2.00,0.89*0B
$GLGSA,A,3,82,74,73,80,65,,,,,,,,2.19,2.00,0.89*11
$GNRMC,060254.000,A,4443.0095,S,16910.7088,E,0.10,0.00,060624,,,A*6C
$GNVTG,0.00,T,,M,0.10,N,0.19,K,A*2A

$GNGGA,060610.594,4443.0114,S,16910.7113,E,1,08,1.00,349.6,M,6.1,M,,*58
$GPGSA,A,3,,,,,,,,,,,,,1.29,1.00,0.82*03
$GLGSA,A,3,82,74,73,80,65,72,71,83,,,,,1.29,1.00,0.82*11
$GNRMC,060610.594,A,4443.0114,S,16910.7113,E,0.21,0.00,060624,,,A*69
$GNVTG,0.00,T,,M,0.21,N,0.38,K,A*2B

$GNGGA,061010.792,4443.0096,S,16910.7132,E,1,07,1.16,346.0,M,6.1,M,,*52
$GPGSA,A,3,,,,,,,,,,,,,1.44,1.16,0.86*0B
$GLGSA,A,3,82,74,80,72,73,83,71,,,,,,1.44,1.16,0.86*1A
$GNRMC,061010.792,A,4443.0096,S,16910.7132,E,0.20,0.00,060624,,,A*63
$GNVTG,0.00,T,,M,0.20,N,0.37,K,A*25

$GNGGA,061012.000,4443.0094,S,16910.7132,E,1,06,1.55,346.7,M,6.1,M,,*5F
$GPGSA,A,3,,,,,,,,,,,,,1.78,1.55,0.87*02
$GLGSA,A,3,82,74,80,72,73,83,,,,,,,1.78,1.55,0.87*15
$GPGSV,4,1,13,50,33,327,,193,,,,194,,,,195,,,*77
$GPGSV,4,2,13,22,,,46,14,,,47,02,,,46,21,,,44*7A
$GPGSV,4,3,13,19,,,41,07,,,42,13,,,45,30,,,48*7C
$GPGSV,4,4,13,15,,,38*74
$GLGSV,2,1,08,73,71,134,38,83,62,101,29,74,43,222,40,82,28,147,42*63
$GLGSV,2,2,08,80,24,074,42,72,17,256,40,71,04,300,41,65,,,*57
$GNRMC,061012.000,A,4443.0094,S,16910.7132,E,0.16,0.00,060624,,,A*6A
$GNVTG,0.00,T,,M,0.16,N,0.30,K,A*27

$GNGGA,061013.000,4443.0095,S,16910.7131,E,1,06,1.56,347.1,M,6.1,M,,*58
$GPGSA,A,3,,,,,,,,,,,,,1.78,1.56,0.87*01
$GLGSA,A,3,82,74,80,72,73,83,,,,,,,1.78,1.56,0.87*16
$GNRMC,061013.000,A,4443.0095,S,16910.7131,E,0.17,0.00,060624,,,A*68
$GNVTG,0.00,T,,M,0.17,N,0.32,K,A*24

$GNGGA,061014.000,4443.0100,S,16910.7128,E,1,06,1.55,347.4,M,6.1,M,,*5C
$GPGSA,A,3,,,,,,,,,,,,,1.78,1.55,0.87*02
$GLGSA,A,3,82,74,80,72,73,83,,,,,,,1.78,1.55,0.87*15
$GNRMC,061014.000,A,4443.0100,S,16910.7128,E,0.09,0.00,060624,,,A*65
$GNVTG,0.00,T,,M,0.09,N,0.16,K,A*2D

$GNGGA,061015.000,4443.0102,S,16910.7125,E,1,06,1.55,348.0,M,6.1,M,,*59
$GPGSA,A,3,,,,,,,,,,,,,1.78,1.55,0.87*02
$GLGSA,A,3,82,74,80,72,73,83,,,,,,,1.78,1.55,0.87*15
$GNRMC,061015.000,A,4443.0102,S,16910.7125,E,0.03,0.00,060624,,,A*61
$GNVTG,0.00,T,,M,0.03,N,0.06,K,A*26

$GNGGA,061016.000,4443.0105,S,16910.7124,E,1,06,1.55,348.1,M,6.1,M,,*5D
$GPGSA,A,3,,,,,,,,,,,,,1.78,1.55,0.87*02
$GLGSA,A,3,82,74,80,72,73,83,,,,,,,1.78,1.55,0.87*15
$GNRMC,061016.000,A,4443.0105,S,16910.7124,E,0.09,0.00,060624,,,A*6E
$GNVTG,0.00,T,,M,0.09,N,0.16,K,A*2D

$GNGGA,061210.598,4443.0120,S,16910.7128,E,1,08,0.96,359.2,M,6.1,M,,*55
$GPGSA,A,3,,,,,,,,,,,,,1.27,0.96,0.83*02
$GLGSA,A,3,74,73,82,72,80,65,83,84,,,,,1.27,0.96,0.83*1A
$GNRMC,061210.598,A,4443.0120,S,16910.7128,E,0.21,0.00,060624,,,A*6F
$GNVTG,0.00,T,,M,0.21,N,0.38,K,A*2B

$GNGGA,061212.000,4443.0126,S,16910.7131,E,1,08,0.96,357.5,M,6.1,M,,*54
$GPGSA,A,3,,,,,,,,,,,,,1.27,0.96,0.83*02
$GLGSA,A,3,74,73,82,72,80,65,83,84,,,,,1.27,0.96,0.83*1A
$GNRMC,061212.000,A,4443.0126,S,16910.7131,E,0.10,0.00,060624,,,A*65
$GNVTG,0.00,T,,M,0.10,N,0.18,K,A*2B

$GNGGA,061610.800,4443.0114,S,16910.7117,E,1,07,1.29,353.8,M,6.1,M,,*5C
$GPGSA,A,3,,,,,,,,,,,,,1.53,1.29,0.82*05
$GLGSA,A,3,74,73,82,72,80,83,65,,,,,,1.53,1.29,0.82*11
$GNRMC,061610.800,A,4443.0114,S,16910.7117,E,0.19,0.00,060624,,,A*67
$GNVTG,0.00,T,,M,0.19,N,0.35,K,A*2D

$GNGGA,061612.000,4443.0114,S,16910.7118,E,1,07,1.29,354.0,M,6.1,M,,*56
$GPGSA,A,3,,,,,,,,,,,,,1.53,1.29,0.82*05
$GLGSA,A,3,74,73,82,72,80,83,65,,,,,,1.53,1.29,0.82*11
$GNRMC,061612.000,A,4443.0114,S,16910.7118,E,0.21,0.00,060624,,,A*69
$GNVTG,0.00,T,,M,0.21,N,0.39,K,A*2A

$GNGGA,061613.000,4443.0118,S,16910.7120,E,1,07,1.29,354.7,M,6.1,M,,*57
$GPGSA,A,3,,,,,,,,,,,,,1.53,1.29,0.82*05
$GLGSA,A,3,74,73,82,72,80,83,65,,,,,,1.53,1.29,0.82*11
$GNRMC,061613.000,A,4443.0118,S,16910.7120,E,0.18,0.00,060624,,,A*65
$GNVTG,0.00,T,,M,0.18,N,0.33,K,A*2A

$GNGGA,061644.000,4443.0072,S,16910.6649,E,1,03,2.04,146.9,M,6.1,M,,*56
$GPGSA,A,2,,,,,,,,,,,,,2.27,2.04,1.00*03
$GLGSA,A,2,74,82,80,,,,,,,,,,2.27,2.04,1.00*1E
$GNRMC,061644.000,A,4443.0072,S,16910.6649,E,0.25,0.00,060624,,,A*6D
$GNVTG,0.00,T,,M,0.25,N,0.47,K,A*27

$GNGGA,061645.000,4443.0065,S,16910.6645,E,1,03,2.04,146.1,M,6.1,M,,*55
$GPGSA,A,2,,,,,,,,,,,,,2.27,2.04,1.00*03
$GLGSA,A,2,74,82,80,,,,,,,,,,2.27,2.04,1.00*1E
$GNRMC,061645.000,A,4443.0065,S,16910.6645,E,0.16,0.00,060624,,,A*66
$GNVTG,0.00,T,,M,0.16,N,0.30,K,A*27

$GNGGA,061646.000,4443.0057,S,16910.6641,E,1,03,2.04,146.1,M,6.1,M,,*53
$GPGSA,A,2,,,,,,,,,,,,,2.27,2.04,1.00*03
$GLGSA,A,2,74,82,80,,,,,,,,,,2.27,2.04,1.00*1E
$GNRMC,061646.000,A,4443.0057,S,16910.6641,E,0.19,0.00,060624,,,A*6F
$GNVTG,0.00,T,,M,0.19,N,0.35,K,A*2D

$GNGGA,061647.000,4443.0053,S,16910.6644,E,1,03,2.04,148.4,M,6.1,M,,*58
$GPGSA,A,2,,,,,,,,,,,,,2.27,2.04,1.00*03
$GLGSA,A,2,74,82,80,,,,,,,,,,2.27,2.04,1.00*1E
$GNRMC,061647.000,A,4443.0053,S,16910.6644,E,0.18,0.00,060624,,,A*6E
$GNVTG,0.00,T,,M,0.18,N,0.34,K,A*2D

$GNGGA,062010.802,4443.0136,S,16910.7138,E,1,07,1.26,346.1,M,6.1,M,,*54
$GPGSA,A,3,,,,,,,,,,,,,1.50,1.26,0.81*0A
$GLGSA,A,3,82,74,80,72,73,65,83,,,,,,1.50,1.26,0.81*1E
$GNRMC,062010.802,A,4443.0136,S,16910.7138,E,0.10,0.00,060624,,,A*64
$GNVTG,0.00,T,,M,0.10,N,0.18,K,A*2B

$GNGGA,062041.305,4443.0120,S,16910.7130,E,1,06,1.26,345.6,M,6.1,M,,*56
$GPGSA,A,3,,,,,,,,,,,,,1.52,1.26,0.84*0D
$GLGSA,A,3,74,73,80,82,72,65,,,,,,,1.52,1.26,0.84*12
$GNRMC,062041.305,A,4443.0120,S,16910.7130,E,0.13,0.00,060624,,,A*60
$GNVTG,0.00,T,,M,0.13,N,0.25,K,A*26

$GNGGA,062043.000,4443.0121,S,16910.7131,E,1,06,1.26,346.2,M,6.1,M,,*55
$GPGSA,A,3,,,,,,,,,,,,,1.52,1.26,0.84*0D
$GLGSA,A,3,74,73,80,82,72,65,,,,,,,1.52,1.26,0.84*12
$GNRMC,062043.000,A,4443.0121,S,16910.7131,E,0.13,0.00,060624,,,A*64
$GNVTG,0.00,T,,M,0.13,N,0.25,K,A*26

$GNGGA,062044.000,4443.0124,S,16910.7131,E,1,06,1.26,347.2,M,6.1,M,,*56
$GPGSA,A,3,,,,,,,,,,,,,1.52,1.26,0.84*0D
$GLGSA,A,3,74,73,80,82,72,65,,,,,,,1.52,1.26,0.84*12
$GNRMC,062044.000,A,4443.0124,S,16910.7131,E,0.13,0.00,060624,,,A*66
$GNVTG,0.00,T,,M,0.13,N,0.23,K,A*20

$GNGGA,062045.000,4443.0126,S,16910.7130,E,1,06,1.26,347.8,M,6.1,M,,*5E
$GPGSA,A,3,,,,,,,,,,,,,1.52,1.26,0.84*0D
$GLGSA,A,3,74,73,80,82,72,65,,,,,,,1.52,1.26,0.84*12
$GPGSV,4,1,14,50,33,327,39,07,21,030,45,193,,,,194,,,*71
$GPGSV,4,2,14,195,,,,19,,,43,14,,,47,02,,,46*4E
$GPGSV,4,3,14,21,,,45,22,,,47,13,,,43,08,,,37*73
$GPGSV,4,4,14,30,,,43,15,,,43*7B
$GLGSV,2,1,07,73,70,116,41,74,48,218,39,82,24,149,40,80,20,070,44*66
$GLGSV,2,2,07,72,14,261,40,65,11,206,34,83,,,33*68
$GNRMC,062045.000,A,4443.0126,S,16910.7130,E,0.08,0.00,060624,,,A*6E
$GNVTG,0.00,T,,M,0.08,N,0.15,K,A*2F

$GNGGA,062046.000,4443.0129,S,16910.7131,E,1,06,1.26,348.2,M,6.1,M,,*56
$GPGSA,A,3,,,,,,,,,,,,,1.52,1.26,0.84*0D
$GLGSA,A,3,74,73,80,82,72,65,,,,,,,1.52,1.26,0.84*12
$GNRMC,062046.000,A,4443.0129,S,16910.7131,E,0.26,0.00,060624,,,A*6F
$GNVTG,0.00,T,,M,0.26,N,0.48,K,A*2B

$GNGGA,062047.000,4443.0132,S,16910.7130,E,1,06,1.26,348.5,M,6.1,M,,*5B
$GPGSA,A,3,,,,,,,,,,,,,1.52,1.26,0.84*0D
$GLGSA,A,3,74,73,80,82,72,65,,,,,,,1.52,1.26,0.84*12
$GNRMC,062047.000,A,4443.0132,S,16910.7130,E,0.23,0.00,060624,,,A*60
$GNVTG,0.00,T,,M,0.23,N,0.44,K,A*22

$GNGGA,062048.000,4443.0134,S,16910.7130,E,1,06,1.26,348.6,M,6.1,M,,*51
$GPGSA,A,3,,,,,,,,,,,,,1.52,1.26,0.84*0D
$GLGSA,A,3,74,73,80,82,72,65,,,,,,,1.52,1.26,0.84*12
$GNRMC,062048.000,A,4443.0134,S,16910.7130,E,0.08,0.00,060624,,,A*60
$GNVTG,0.00,T,,M,0.08,N,0.15,K,A*2F

$GNGGA,062049.000,4443.0136,S,16910.7130,E,1,06,1.26,348.7,M,6.1,M,,*53
$GPGSA,A,3,,,,,,,,,,,,,1.52,1.26,0.84*0D
$GLGSA,A,3,74,73,80,82,72,65,,,,,,,1.52,1.26,0.84*12
$GNRMC,062049.000,A,4443.0136,S,16910.7130,E,0.11,0.00,060624,,,A*6B
$GNVTG,0.00,T,,M,0.11,N,0.21,K,A*20

$GNGGA,062050.000,4443.0137,S,16910.7130,E,1,06,1.26,348.6,M,6.1,M,,*5B
$GPGSA,A,3,,,,,,,,,,,,,1.52,1.26,0.84*0D
$GLGSA,A,3,74,73,80,82,72,65,,,,,,,1.52,1.26,0.84*12
$GPGSV,4,1,14,50,33,327,38,07,21,030,45,193,,,,194,,,*70
$GPGSV,4,2,14,195,,,,19,,,44,14,,,47,02,,,46*49
$GPGSV,4,3,14,21,,,46,22,,,47,13,,,43,08,,,37*70
$GPGSV,4,4,14,30,,,44,15,,,43*7C
$GLGSV,2,1,07,73,70,116,41,74,48,218,39,82,24,149,38,80,20,070,44*69
$GLGSV,2,2,07,72,14,261,40,65,11,206,35,83,,,33*69
$GNRMC,062050.000,A,4443.0137,S,16910.7130,E,0.09,0.00,060624,,,A*6B
$GNVTG,0.00,T,,M,0.09,N,0.17,K,A*2C

$GNGGA,062051.000,4443.0138,S,16910.7131,E,1,06,1.26,348.6,M,6.1,M,,*54
$GPGSA,A,3,,,,,,,,,,,,,1.52,1.26,0.84*0D
$GLGSA,A,3,74,73,80,82,72,65,,,,,,,1.52,1.26,0.84*12
$GNRMC,062051.000,A,4443.0138,S,16910.7131,E,0.14,0.00,060624,,,A*68
$GNVTG,0.00,T,,M,0.14,N,0.25,K,A*21

$GNGGA,062052.000,4443.0139,S,16910.7132,E,1,06,1.26,348.6,M,6.1,M,,*55
$GPGSA,A,3,,,,,,,,,,,,,1.52,1.26,0.84*0D
$GLGSA,A,3,74,73,80,82,72,65,,,,,,,1.52,1.26,0.84*12
$GNRMC,062052.000,A,4443.0139,S,16910.7132,E,0.03,0.00,060624,,,A*6F
$GNVTG,0.00,T,,M,0.03,N,0.05,K,A*25

$GNGGA,062053.000,4443.0140,S,16910.7133,E,1,06,1.26,348.5,M,6.1,M,,*58
$GPGSA,A,3,,,,,,,,,,,,,1.52,1.26,0.84*0D
$GLGSA,A,3,74,73,80,82,72,65,,,,,,,1.52,1.26,0.84*12
$GNRMC,062053.000,A,4443.0140,S,16910.7133,E,0.04,0.00,060624,,,A*66
$GNVTG,0.00,T,,M,0.04,N,0.07,K,A*20

$GNGGA,062130.229,4443.0116,S,16910.7098,E,1,07,1.23,340.0,M,6.1,M,,*5F
$GPGSA,A,3,14,02,07,21,19,08,22,,,,,,1.50,1.23,0.86*0B
$GLGSA,A,3,,,,,,,,,,,,,1.50,1.23,0.86*14
$GNRMC,062130.229,A,4443.0116,S,16910.7098,E,0.04,0.00,060624,,,A*68
$GNVTG,0.00,T,,M,0.04,N,0.08,K,A*2F

$GNGGA,062132.000,4443.0118,S,16910.7097,E,1,06,1.30,340.0,M,6.1,M,,*56
$GPGSA,A,3,14,02,07,21,19,22,,,,,,,1.62,1.30,0.97*00
$GLGSA,A,3,,,,,,,,,,,,,1.62,1.30,0.97*17
$GPGSV,4,1,14,14,78,157,46,22,63,238,47,02,41,107,46,19,37,317,46*75
$GPGSV,4,2,14,21,33,122,45,50,33,327,,07,21,030,45,08,03,127,39*79
$GPGSV,4,3,14,193,,,,194,,,,195,,,,13,,,42*45
$GPGSV,4,4,14,30,,,45,17,,,48*74
$GLGSV,3,1,09,76,,,,74,,,,81,,,,68,,,*6B
$GLGSV,3,2,09,82,,,,73,,,,65,,,,83,,,*6B
$GLGSV,3,3,09,66,,,*6C
$GNRMC,062132.000,A,4443.0118,S,16910.7097,E,0.03,0.00,060624,,,A*65
$GNVTG,0.00,T,,M,0.03,N,0.06,K,A*26

$GNGGA,062133.000,4443.0119,S,16910.7096,E,1,06,1.30,340.0,M,6.1,M,,*57
$GPGSA,A,3,14,02,07,21,19,22,,,,,,,1.62,1.30,0.97*00
$GLGSA,A,3,,,,,,,,,,,,,1.62,1.30,0.97*17
$GNRMC,062133.000,A,4443.0119,S,16910.7096,E,0.01,0.00,060624,,,A*66
$GNVTG,0.00,T,,M,0.01,N,0.03,K,A*21

$GNGGA,062134.000,4443.0120,S,16910.7095,E,1,06,1.30,339.9,M,6.1,M,,*5E
$GPGSA,A,3,14,02,07,21,19,22,,,,,,,1.62,1.30,0.97*00
$GLGSA,A,3,,,,,,,,,,,,,1.62,1.30,0.97*17
$GNRMC,062134.000,A,4443.0120,S,16910.7095,E,0.06,0.00,060624,,,A*6F
$GNVTG,0.00,T,,M,0.06,N,0.11,K,A*25

$GNGGA,062135.000,4443.0121,S,16910.7094,E,1,06,1.30,339.7,M,6.1,M,,*51
$GPGSA,A,3,14,02,07,21,19,22,,,,,,,1.62,1.30,0.97*00
$GLGSA,A,3,,,,,,,,,,,,,1.62,1.30,0.97*17
$GNRMC,062135.000,A,4443.0121,S,16910.7094,E,0.03,0.00,060624,,,A*6B
$GNVTG,0.00,T,,M,0.03,N,0.06,K,A*26

$GNGGA,062210.795,4443.0133,S,16910.7144,E,1,08,0.96,342.5,M,6.1,M,,*5C
$GPGSA,A,3,,,,,,,,,,,,,1.25,0.96,0.81*02
$GLGSA,A,3,74,80,82,65,73,72,83,84,,,,,1.25,0.96,0.81*1A
$GPGSV,4,1,14,50,33,327,,193,,,,194,,,,195,,,*70
$GPGSV,4,2,14,21,,,46,14,,,46,07,,,43,02,,,47*7D
$GPGSV,4,3,14,22,,,47,08,,,36,19,,,48,13,,,41*76
$GPGSV,4,4,14,30,,,47,15,,,44*78
$GLGSV,2,1,08,73,70,114,42,83,60,115,32,74,48,217,40,84,37,003,29*69
$GLGSV,2,2,08,82,23,149,41,80,20,069,41,72,14,262,37,65,11,206,31*68
$GNRMC,062210.795,A,4443.0133,S,16910.7144,E,0.07,0.00,060624,,,A*6F
$GNVTG,0.00,T,,M,0.07,N,0.13,K,A*26

$GNGGA,062212.000,4443.0135,S,16910.7145,E,1,08,0.96,341.2,M,6.1,M,,*56
$GPGSA,A,3,,,,,,,,,,,,,1.25,0.96,0.81*02
$GLGSA,A,3,74,80,82,65,73,72,83,84,,,,,1.25,0.96,0.81*1A
$GNRMC,062212.000,A,4443.0135,S,16910.7145,E,0.03,0.00,060624,,,A*65
$GNVTG,0.00,T,,M,0.03,N,0.06,K,A*26

$GNGGA,062213.000,4443.0138,S,16910.7146,E,1,08,0.96,341.3,M,6.1,M,,*58
$GPGSA,A,3,,,,,,,,,,,,,1.25,0.96,0.81*02
$GLGSA,A,3,74,80,82,65,73,72,83,84,,,,,1.25,0.96,0.81*1A
$GNRMC,062213.000,A,4443.0138,S,16910.7146,E,0.07,0.00,060624,,,A*6E
$GNVTG,0.00,T,,M,0.07,N,0.12,K,A*27

$GNGGA,062214.000,4443.0139,S,16910.7144,E,1,08,0.96,341.0,M,6.1,M,,*5F
$GPGSA,A,3,,,,,,,,,,,,,1.25,0.96,0.81*02
$GLGSA,A,3,74,80,82,65,73,72,83,84,,,,,1.25,0.96,0.81*1A
$GNRMC,062214.000,A,4443.0139,S,16910.7144,E,0.14,0.00,060624,,,A*68
$GNVTG,0.00,T,,M,0.14,N,0.26,K,A*22

$GNGGA,062215.000,4443.0139,S,16910.7142,E,1,08,0.96,341.3,M,6.1,M,,*5B
$GPGSA,A,3,,,,,,,,,,,,,1.25,0.96,0.81*02
$GLGSA,A,3,74,80,82,65,73,72,83,84,,,,,1.25,0.96,0.81*1A
$GNRMC,062215.000,A,4443.0139,S,16910.7142,E,0.15,0.00,060624,,,A*6E
$GNVTG,0.00,T,,M,0.15,N,0.29,K,A*2C

$GNGGA,062216.000,4443.0139,S,16910.7141,E,1,08,0.96,341.7,M,6.1,M,,*5F
$GPGSA,A,3,,,,,,,,,,,,,1.25,0.96,0.81*02
$GLGSA,A,3,74,80,82,65,73,72,83,84,,,,,1.25,0.96,0.81*1A
$GPGSV,4,1,14,50,33,327,,193,,,,194,,,,195,,,*70
$GPGSV,4,2,14,21,,,46,14,,,46,07,,,43,02,,,46*7C
$GPGSV,4,3,14,22,,,47,08,,,35,19,,,48,13,,,41*75
$GPGSV,4,4,14,30,,,47,15,,,43*7F
$GLGSV,2,1,08,73,70,114,43,83,60,115,32,74,48,217,40,84,37,003,29*68
$GLGSV,2,2,08,82,23,149,41,80,20,069,42,72,14,262,35,65,11,206,29*60
$GNRMC,062216.000,A,4443.0139,S,16910.7141,E,0.12,0.00,060624,,,A*69
$GNVTG,0.00,T,,M,0.12,N,0.22,K,A*20

$GNGGA,062410.798,4443.0137,S,16910.7130,E,1,07,1.03,344.0,M,6.1,M,,*51
$GPGSA,A,3,,,,,,,,,,,,,1.32,1.03,0.83*0B
$GLGSA,A,3,74,83,82,73,80,72,84,,,,,,1.32,1.03,0.83*10
$GNRMC,062410.798,A,4443.0137,S,16910.7130,E,0.22,0.00,060624,,,A*64
$GNVTG,0.00,T,,M,0.22,N,0.42,K,A*25

$GNGGA,062412.000,4443.0135,S,16910.7128,E,1,07,1.03,344.1,M,6.1,M,,*5F
$GPGSA,A,3,,,,,,,,,,,,,1.32,1.03,0.83*0B
$GLGSA,A,3,74,83,82,73,80,72,84,,,,,,1.32,1.03,0.83*10
$GPGSV,4,1,13,50,33,327,,193,,,,194,,,,195,,,*77
$GPGSV,4,2,13,02,,,48,14,,,48,21,,,42,07,,,45*79
$GPGSV,4,3,13,22,,,43,19,,,42,13,,,45,30,,,44*75
$GPGSV,4,4,13,17,,,39*77
$GLGSV,2,1,07,73,69,111,45,83,60,117,27,74,49,216,42,84,38,003,30*6F
$GLGSV,2,2,07,82,22,150,38,80,19,069,44,72,13,263,40*5C
$GNRMC,062412.000,A,4443.0135,S,16910.7128,E,0.14,0.00,060624,,,A*6E
$GNVTG,0.00,T,,M,0.14,N,0.26,K,A*22

$GNGGA,062413.000,4443.0135,S,16910.7127,E,1,07,1.03,343.9,M,6.1,M,,*5E
$GPGSA,A,3,,,,,,,,,,,,,1.32,1.03,0.83*0B
$GLGSA,A,3,74,83,82,73,80,72,84,,,,,,1.32,1.03,0.83*10
$GNRMC,062413.000,A,4443.0135,S,16910.7127,E,0.12,0.00,060624,,,A*66
$GNVTG,0.00,T,,M,0.12,N,0.22,K,A*20

$GNGGA,062414.000,4443.0135,S,16910.7126,E,1,07,1.03,343.7,M,6.1,M,,*56
$GPGSA,A,3,,,,,,,,,,,,,1.32,1.03,0.83*0B
$GLGSA,A,3,74,83,82,73,80,72,84,,,,,,1.32,1.03,0.83*10
$GNRMC,062414.000,A,4443.0135,S,16910.7126,E,0.08,0.00,060624,,,A*6B
$GNVTG,0.00,T,,M,0.08,N,0.14,K,A*2E

$GNGGA,062415.000,4443.0135,S,16910.7126,E,1,07,1.03,343.4,M,6.1,M,,*54
$GPGSA,A,3,,,,,,,,,,,,,1.32,1.03,0.83*0B
$GLGSA,A,3,74,83,82,73,80,72,84,,,,,,1.32,1.03,0.83*10
$GNRMC,062415.000,A,4443.0135,S,16910.7126,E,0.11,0.00,060624,,,A*62
$GNVTG,0.00,T,,M,0.11,N,0.20,K,A*21

$GNGGA,062416.000,4443.0136,S,16910.7126,E,1,07,1.03,343.1,M,6.1,M,,*51
$GPGSA,A,3,,,,,,,,,,,,,1.32,1.03,0.83*0B
$GLGSA,A,3,74,83,82,73,80,72,84,,,,,,1.32,1.03,0.83*10
$GNRMC,062416.000,A,4443.0136,S,16910.7126,E,0.05,0.00,060624,,,A*67
$GNVTG,0.00,T,,M,0.05,N,0.10,K,A*27

$GNGGA,062417.000,4443.0136,S,16910.7126,E,1,07,1.02,342.8,M,6.1,M,,*59
$GPGSA,A,3,,,,,,,,,,,,,1.32,1.02,0.83*0A
$GLGSA,A,3,74,83,82,73,80,72,84,,,,,,1.32,1.02,0.83*11
$GPGSV,4,1,13,14,77,151,48,50,33,327,39,193,,,,194,,,49*71
$GPGSV,4,2,13,195,,,,02,,,48,21,,,42,07,,,45*4D
$GPGSV,4,3,13,22,,,43,19,,,43,13,,,45,30,,,44*74
$GPGSV,4,4,13,17,,,39*77
$GLGSV,2,1,08,73,69,111,45,83,60,117,27,74,49,216,42,84,38,003,31*61
$GLGSV,2,2,08,82,22,150,38,80,19,069,43,72,13,263,40,65,,,*57
$GNRMC,062417.000,A,4443.0136,S,16910.7126,E,0.08,0.00,060624,,,A*6B
$GNVTG,0.00,T,,M,0.08,N,0.14,K,A*2E

$GNGGA,062418.000,4443.0136,S,16910.7128,E,1,07,1.03,342.3,M,6.1,M,,*52
$GPGSA,A,3,,,,,,,,,,,,,1.32,1.03,0.83*0B
$GLGSA,A,3,74,83,82,73,80,72,84,,,,,,1.32,1.03,0.83*10
$GNRMC,062418.000,A,4443.0136,S,16910.7128,E,0.08,0.00,060624,,,A*6A
$GNVTG,0.00,T,,M,0.08,N,0.15,K,A*2F

$GNGGA,062419.000,4443.0135,S,16910.7128,E,1,07,1.03,341.9,M,6.1,M,,*59
$GPGSA,A,3,,,,,,,,,,,,,1.32,1.03,0.83*0B
$GLGSA,A,3,74,83,82,73,80,72,84,,,,,,1.32,1.03,0.83*10
$GNRMC,062419.000,A,4443.0135,S,16910.7128,E,0.03,0.00,060624,,,A*63
$GNVTG,0.00,T,,M,0.03,N,0.06,K,A*26

$GNGGA,062420.000,4443.0136,S,16910.7130,E,1,07,1.03,341.5,M,6.1,M,,*55
$GPGSA,A,3,,,,,,,,,,,,,1.32,1.03,0.83*0B
$GLGSA,A,3,74,83,82,73,80,72,84,,,,,,1.32,1.03,0.83*10
$GNRMC,062420.000,A,4443.0136,S,16910.7130,E,0.06,0.00,060624,,,A*66
$GNVTG,0.00,T,,M,0.06,N,0.12,K,A*26

$GNGGA,062421.000,4443.0136,S,16910.7130,E,1,07,1.03,341.4,M,6.1,M,,*55
$GPGSA,A,3,,,,,,,,,,,,,1.32,1.03,0.83*0B
$GLGSA,A,3,74,83,82,73,80,72,84,,,,,,1.32,1.03,0.83*10
$GNRMC,062421.000,A,4443.0136,S,16910.7130,E,0.05,0.00,060624,,,A*64
$GNVTG,0.00,T,,M,0.05,N,0.10,K,A*27

$GNGGA,062500.591,4443.0115,S,16910.7096,E,1,10,0.91,347.2,M,6.1,M,,*5A
$GPGSA,A,3,02,14,22,21,19,07,30,13,15,17,,,1.22,0.91,0.81*0A
$GLGSA,A,3,,,,,,,,,,,,,1.22,0.91,0.81*1E
$GNRMC,062500.591,A,4443.0115,S,16910.7096,E,0.04,0.00,060624,,,A*66
$GNVTG,0.00,T,,M,0.04,N,0.07,K,A*20

$GNGGA,062502.000,4443.0113,S,16910.7099,E,1,10,0.91,348.2,M,6.1,M,,*53
$GPGSA,A,3,02,14,22,21,19,07,30,13,15,17,,,1.22,0.91,0.81*0A
$GLGSA,A,3,,,,,,,,,,,,,1.22,0.91,0.81*1E
$GNRMC,062502.000,A,4443.0113,S,16910.7099,E,0.02,0.00,060624,,,A*66
$GNVTG,0.00,T,,M,0.02,N,0.04,K,A*25

$GNGGA,062503.000,4443.0114,S,16910.7099,E,1,10,0.91,348.5,M,6.1,M,,*52
$GPGSA,A,3,02,14,22,21,19,07,30,13,15,17,,,1.22,0.91,0.81*0A
$GLGSA,A,3,,,,,,,,,,,,,1.22,0.91,0.81*1E
$GNRMC,062503.000,A,4443.0114,S,16910.7099,E,0.09,0.00,060624,,,A*6B
$GNVTG,0.00,T,,M,0.09,N,0.16,K,A*2D

$GNGGA,062541.302,4443.0146,S,16910.7118,E,1,06,1.04,343.7,M,6.1,M,,*59
$GPGSA,A,3,,,,,,,,,,,,,1.34,1.04,0.85*0C
$GLGSA,A,3,74,73,82,72,80,84,,,,,,,1.34,1.04,0.85*1C
$GPGSV,4,1,15,50,33,327,,193,,,,194,,,,195,,,*71
$GPGSV,4,2,15,02,,,46,14,,,48,21,,,42,19,,,47*7C
$GPGSV,4,3,15,22,,,40,07,,,43,30,,,45,13,,,46*7C
$GPGSV,4,4,15,15,,,44,24,,,33,17,,,46*7B
$GLGSV,2,1,07,73,69,109,48,74,50,216,40,84,39,003,26,82,21,150,43*62
$GLGSV,2,2,07,80,18,068,42,72,13,263,40,83,,,*64
$GNRMC,062541.302,A,4443.0146,S,16910.7118,E,0.17,0.00,060624,,,A*6C
$GNVTG,0.00,T,,M,0.17,N,0.31,K,A*27

$GNGGA,062543.000,4443.0146,S,16910.7119,E,1,06,1.04,343.2,M,6.1,M,,*5E
$GPGSA,A,3,,,,,,,,,,,,,1.34,1.04,0.85*0C
$GLGSA,A,3,74,73,82,72,80,84,,,,,,,1.34,1.04,0.85*1C
$GNRMC,062543.000,A,4443.0146,S,16910.7119,E,0.18,0.00,060624,,,A*61
$GNVTG,0.00,T,,M,0.18,N,0.34,K,A*2D

$GNGGA,062544.000,4443.0147,S,16910.7122,E,1,06,1.04,342.6,M,6.1,M,,*55
$GPGSA,A,3,,,,,,,,,,,,,1.34,1.04,0.85*0C
$GLGSA,A,3,74,73,82,72,80,84,,,,,,,1.34,1.04,0.85*1C
$GNRMC,062544.000,A,4443.0147,S,16910.7122,E,0.10,0.00,060624,,,A*67
$GNVTG,0.00,T,,M,0.10,N,0.19,K,A*2A

$GNGGA,062545.000,4443.0147,S,16910.7124,E,1,06,1.04,342.4,M,6.1,M,,*50
$GPGSA,A,3,,,,,,,,,,,,,1.34,1.04,0.85*0C
$GLGSA,A,3,74,73,82,72,80,84,,,,,,,1.34,1.04,0.85*1C
$GNRMC,062545.000,A,4443.0147,S,16910.7124,E,0.12,0.00,060624,,,A*62
$GNVTG,0.00,T,,M,0.12,N,0.23,K,A*21

$GNGGA,063010.807,4443.0123,S,16910.7095,E,1,07,1.02,343.8,M,6.1,M,,*58
$GPGSA,A,3,,,,,,,,,,,,,1.30,1.02,0.81*0A
$GLGSA,A,3,74,83,72,82,73,80,84,,,,,,1.30,1.02,0.81*11
$GNRMC,063010.807,A,4443.0123,S,16910.7095,E,0.15,0.00,060624,,,A*67
$GNVTG,0.00,T,,M,0.15,N,0.28,K,A*2D

$GNGGA,063012.000,4443.0123,S,16910.7096,E,1,07,1.02,344.4,M,6.1,M,,*5D
$GPGSA,A,3,,,,,,,,,,,,,1.30,1.02,0.81*0A
$GLGSA,A,3,74,83,72,82,73,80,84,,,,,,1.30,1.02,0.81*11
$GNRMC,063012.000,A,4443.0123,S,16910.7096,E,0.15,0.00,060624,,,A*69
$GNVTG,0.00,T,,M,0.15,N,0.27,K,A*22

$GNGGA,063013.000,4443.0123,S,16910.7096,E,1,07,1.02,344.0,M,6.1,M,,*58
$GPGSA,A,3,,,,,,,,,,,,,1.30,1.02,0.81*0A
$GLGSA,A,3,74,83,72,82,73,80,84,,,,,,1.30,1.02,0.81*11
$GPGSV,4,1,14,50,33,327,,193,,,,194,,,,195,,,*70
$GPGSV,4,2,14,14,,,47,07,,,44,22,,,48,02,,,46*77
$GPGSV,4,3,14,21,,,43,19,,,45,24,,,28,13,,,45*79
$GPGSV,4,4,14,30,,,46,15,,,35*7F
$GLGSV,2,1,08,73,68,102,44,83,58,123,33,74,52,214,40,84,41,003,32*6D
$GLGSV,2,2,08,82,19,150,37,80,17,066,45,72,11,265,38,65,,,*5C
$GNRMC,063013.000,A,4443.0123,S,16910.7096,E,0.15,0.00,060624,,,A*68
$GNVTG,0.00,T,,M,0.15,N,0.28,K,A*2D

$GNGGA,063043.095,4443.0104,S,16910.7018,E,1,04,2.01,331.3,M,6.1,M,,*50
$GPGSA,A,3,,,,,,,,,,,,,2.22,2.01,0.94*0E
$GLGSA,A,3,74,80,82,73,,,,,,,,,2.22,2.01,0.94*17
$GNRMC,063043.095,A,4443.0104,S,16910.7018,E,0.08,0.00,060624,,,A*6E
$GNVTG,0.00,T,,M,0.08,N,0.16,K,A*2C

$GNGGA,063045.000,4443.0108,S,16910.7022,E,1,04,2.01,332.0,M,6.1,M,,*5F
$GPGSA,A,3,,,,,,,,,,,,,2.22,2.01,0.94*0E
$GLGSA,A,3,74,80,82,73,,,,,,,,,2.22,2.01,0.94*17
$GNRMC,063045.000,A,4443.0108,S,16910.7022,E,0.12,0.00,060624,,,A*6A
$GNVTG,0.00,T,,M,0.12,N,0.22,K,A*20

$GNGGA,063046.000,4443.0109,S,16910.7025,E,1,04,2.01,332.0,M,6.1,M,,*5A
$GPGSA,A,3,,,,,,,,,,,,,2.22,2.01,0.94*0E
$GLGSA,A,3,74,80,82,73,,,,,,,,,2.22,2.01,0.94*17
$GNRMC,063046.000,A,4443.0109,S,16910.7025,E,0.19,0.00,060624,,,A*64
$GNVTG,0.00,T,,M,0.19,N,0.36,K,A*2E

$GNGGA,063047.000,4443.0109,S,16910.7028,E,1,04,2.01,331.7,M,6.1,M,,*52
$GPGSA,A,3,,,,,,,,,,,,,2.22,2.01,0.94*0E
$GLGSA,A,3,74,80,82,73,,,,,,,,,2.22,2.01,0.94*17
$GNRMC,063047.000,A,4443.0109,S,16910.7028,E,0.27,0.00,060624,,,A*65
$GNVTG,0.00,T,,M,0.27,N,0.50,K,A*23

$GNGGA,063048.000,4443.0108,S,16910.7028,E,1,04,2.01,331.5,M,6.1,M,,*5E
$GPGSA,A,3,,,,,,,,,,,,,2.22,2.01,0.94*0E
$GLGSA,A,3,74,80,82,73,,,,,,,,,2.22,2.01,0.94*17
$GPGSV,4,1,14,02,40,112,46,50,33,327,39,193,,,,194,,,*71
$GPGSV,4,2,14,195,,,,14,,,47,21,,,42,19,,,44*4C
$GPGSV,4,3,14,22,,,47,07,,,46,13,,,46,30,,,47*7D
$GPGSV,4,4,14,17,,,42,15,,,36*7D
$GLGSV,2,1,06,73,68,101,43,74,52,214,41,82,19,151,40,80,17,066,43*61
$GLGSV,2,2,06,72,,,31,83,,,32*6E
$GNRMC,063048.000,A,4443.0108,S,16910.7028,E,0.17,0.00,060624,,,A*68
$GNVTG,0.00,T,,M,0.17,N,0.31,K,A*27

$GNGGA,063049.000,4443.0109,S,16910.7029,E,1,04,2.01,331.0,M,6.1,M,,*5A
$GPGSA,A,3,,,,,,,,,,,,,2.22,2.01,0.94*0E
$GLGSA,A,3,74,80,82,73,,,,,,,,,2.22,2.01,0.94*17
$GNRMC,063049.000,A,4443.0109,S,16910.7029,E,0.14,0.00,060624,,,A*6A
$GNVTG,0.00,T,,M,0.14,N,0.25,K,A*21

$GNGGA,063050.000,4443.0109,S,16910.7028,E,1,04,2.01,330.7,M,6.1,M,,*55
$GPGSA,A,3,,,,,,,,,,,,,2.22,2.01,0.94*0E
$GLGSA,A,3,74,80,82,73,,,,,,,,,2.22,2.01,0.94*17
$GNRMC,063050.000,A,4443.0109,S,16910.7028,E,0.08,0.00,060624,,,A*6E
$GNVTG,0.00,T,,M,0.08,N,0.15,K,A*2F

$GNGGA,063051.000,4443.0108,S,16910.7027,E,1,04,2.01,330.5,M,6.1,M,,*58
$GPGSA,A,3,,,,,,,,,,,,,2.22,2.01,0.94*0E
$GLGSA,A,3,74,80,82,73,,,,,,,,,2.22,2.01,0.94*17
$GNRMC,063051.000,A,4443.0108,S,16910.7027,E,0.13,0.00,060624,,,A*6B
$GNVTG,0.00,T,,M,0.13,N,0.24,K,A*27

$GNGGA,063052.000,4443.0108,S,16910.7024,E,1,04,2.01,330.2,M,6.1,M,,*5F
$GPGSA,A,3,,,,,,,,,,,,,2.22,2.01,0.94*0E
$GLGSA,A,3,74,80,82,73,,,,,,,,,2.22,2.01,0.94*17
$GNRMC,063052.000,A,4443.0108,S,16910.7024,E,0.18,0.00,060624,,,A*60
$GNVTG,0.00,T,,M,0.18,N,0.33,K,A*2A

$GNGGA,063053.000,4443.0107,S,16910.7022,E,1,04,2.01,330.0,M,6.1,M,,*55
$GPGSA,A,3,,,,,,,,,,,,,2.22,2.01,0.94*0E
$GLGSA,A,3,74,80,82,73,,,,,,,,,2.22,2.01,0.94*17
$GPGSV,4,1,14,02,40,112,46,50,33,327,39,193,,,,194,,,*71
$GPGSV,4,2,14,195,,,,14,,,47,21,,,42,19,,,44*4C
$GPGSV,4,3,14,22,,,47,07,,,47,13,,,46,30,,,47*7C
$GPGSV,4,4,14,17,,,43,15,,,36*7C
$GLGSV,2,1,07,73,68,101,43,74,52,214,41,82,19,151,40,80,17,066,43*60
$GLGSV,2,2,07,72,,,30,66,,,,83,,,31*6D
$GNRMC,063053.000,A,4443.0107,S,16910.7022,E,0.19,0.00,060624,,,A*69
$GNVTG,0.00,T,,M,0.19,N,0.35,K,A*2D

$GNGGA,063054.000,4443.0106,S,16910.7021,E,1,04,2.01,330.0,M,6.1,M,,*50
$GPGSA,A,3,,,,,,,,,,,,,2.22,2.01,0.94*0E
$GLGSA,A,3,74,80,82,73,,,,,,,,,2.22,2.01,0.94*17
$GNRMC,063054.000,A,4443.0106,S,16910.7021,E,0.16,0.00,060624,,,A*63
$GNVTG,0.00,T,,M,0.16,N,0.30,K,A*27

$GNGGA,063055.000,4443.0106,S,16910.7022,E,1,04,2.01,330.0,M,6.1,M,,*52
$GPGSA,A,3,,,,,,,,,,,,,2.22,2.01,0.94*0E
$GLGSA,A,3,74,80,82,73,,,,,,,,,2.22,2.01,0.94*17
$GNRMC,063055.000,A,4443.0106,S,16910.7022,E,0.13,0.00,060624,,,A*64
$GNVTG,0.00,T,,M,0.13,N,0.23,K,A*20

$GNGGA,063140.000,4443.0135,S,16910.7126,E,1,10,1.12,344.3,M,6.1,M,,*56
$GPGSA,A,3,14,02,21,22,,,,,,,,,1.33,1.12,0.71*03
$GLGSA,A,3,74,73,72,82,80,75,,,,,,,1.33,1.12,0.71*19
$GNRMC,063140.000,A,4443.0135,S,16910.7126,E,0.15,178.01,060624,,,A*6D
$GNVTG,178.01,T,,M,0.15,N,0.28,K,A*22

$GNGGA,063141.000,4443.0135,S,16910.7126,E,1,09,1.18,344.3,M,6.1,M,,*55
$GPGSA,A,3,14,02,21,22,,,,,,,,,1.40,1.18,0.76*0A
$GLGSA,A,3,74,73,72,82,80,,,,,,,,1.40,1.18,0.76*12
$GNRMC,063141.000,A,4443.0135,S,16910.7126,E,0.08,178.01,060624,,,A*60
$GNVTG,178.01,T,,M,0.08,N,0.15,K,A*20

$GNGGA,063142.000,4443.0132,S,16910.7125,E,1,09,1.18,343.9,M,6.1,M,,*5F
$GPGSA,A,3,14,02,21,22,,,,,,,,,1.40,1.18,0.76*0A
$GLGSA,A,3,74,73,72,82,80,,,,,,,,1.40,1.18,0.76*12
$GNRMC,063142.000,A,4443.0132,S,16910.7125,E,0.14,178.01,060624,,,A*6A
$GNVTG,178.01,T,,M,0.14,N,0.25,K,A*2E

$GNGGA,063143.000,4443.0132,S,16910.7125,E,1,09,1.18,343.9,M,6.1,M,,*5E
$GPGSA,A,3,14,02,21,22,,,,,,,,,1.40,1.18,0.76*0A
$GLGSA,A,3,74,73,72,82,80,,,,,,,,1.40,1.18,0.76*12
$GNRMC,063143.000,A,4443.0132,S,16910.7125,E,0.02,178.01,060624,,,A*6C
$GNVTG,178.01,T,,M,0.02,N,0.04,K,A*2A

$GNGGA,064140.751,4443.0144,S,16910.7128,E,1,07,0.98,344.7,M,6.1,M,,*5B
$GPGSA,A,3,,,,,,,,,,,,,1.25,0.98,0.77*05
$GLGSA,A,3,74,73,75,82,80,72,84,,,,,,1.25,0.98,0.77*17
$GNRMC,064140.751,A,4443.0144,S,16910.7128,E,0.14,0.00,060624,,,A*6F
$GNVTG,0.00,T,,M,0.14,N,0.26,K,A*22

$GNGGA,064142.000,4443.0145,S,16910.7130,E,1,07,0.98,344.7,M,6.1,M,,*52
$GPGSA,A,3,,,,,,,,,,,,,1.25,0.98,0.77*05
$GLGSA,A,3,74,73,75,82,80,72,84,,,,,,1.25,0.98,0.77*17
$GNRMC,064142.000,A,4443.0145,S,16910.7130,E,0.12,0.00,060624,,,A*60
$GNVTG,0.00,T,,M,0.12,N,0.21,K,A*23

$GNGGA,064143.000,4443.0145,S,16910.7131,E,1,07,0.98,345.2,M,6.1,M,,*56
$GPGSA,A,3,,,,,,,,,,,,,1.25,0.98,0.77*05
$GLGSA,A,3,74,73,75,82,80,72,84,,,,,,1.25,0.98,0.77*17
$GNRMC,064143.000,A,4443.0145,S,16910.7131,E,0.12,0.00,060624,,,A*60
$GNVTG,0.00,T,,M,0.12,N,0.22,K,A*20

$GNGGA,064541.191,4443.0166,S,16910.7170,E,1,05,1.52,346.8,M,6.1,M,,*51
$GPGSA,A,3,,,,,,,,,,,,,1.71,1.52,0.80*0B
$GLGSA,A,3,74,73,75,82,80,,,,,,,,1.71,1.52,0.80*10
$GNRMC,064541.191,A,4443.0166,S,16910.7170,E,0.03,0.00,060624,,,A*6B
$GNVTG,0.00,T,,M,0.03,N,0.05,K,A*25

$GNGGA,064543.000,4443.0164,S,16910.7166,E,1,05,1.52,346.4,M,6.1,M,,*53
$GPGSA,A,3,,,,,,,,,,,,,1.72,1.52,0.80*08
$GLGSA,A,3,74,73,75,82,80,,,,,,,,1.72,1.52,0.80*13
$GNRMC,064543.000,A,4443.0164,S,16910.7166,E,0.07,0.00,060624,,,A*61
