$GNGGA,001341.085,4441.7435,S,16908.0702,E,1,06,1.27,-4.7,M,6.2,M,,*7E
$GPGSA,A,2,12,05,25,,,,,,,,,,1.60,1.27,0.98*00
$GLGSA,A,2,73,67,84,,,,,,,,,,1.60,1.27,0.98*14
$GNRMC,001341.085,A,4441.7435,S,16908.0702,E,0.06,102.43,261124,,,A*64
$GNVTG,102.43,T,,M,0.06,N,0.11,K,A*21

$GNGGA,001343.000,4441.7432,S,16908.0705,E,1,06,1.27,12.7,M,6.2,M,,*6B
$GPGSA,A,2,12,05,25,,,,,,,,,,1.60,1.27,0.98*00
$GLGSA,A,2,73,67,84,,,,,,,,,,1.60,1.27,0.98*14
$GPGSV,3,1,09,25,51,269,42,05,50,002,26,12,48,340,44,50,33,327,*77
$GPGSV,3,2,09,193,,,,194,,,,195,,,,29,,,39*4A
$GPGSV,3,3,09,06,,,33*76
$GLGSV,2,1,06,73,35,307,43,84,35,253,40,67,33,124,29,83,,,29*56
$GLGSV,2,2,06,68,,,,74,,,46*6C
$GNRMC,001343.000,A,4441.7432,S,16908.0705,E,0.06,102.43,261124,,,A*6B
$GNVTG,102.43,T,,M,0.06,N,0.11,K,A*21

$GNGGA,001450.086,4441.7433,S,16908.0782,E,1,05,3.90,265.3,M,6.2,M,,*55
$GPGSA,A,3,29,25,12,,,,,,,,,,4.02,3.90,0.99*01
$GLGSA,A,3,74,73,,,,,,,,,,,4.02,3.90,0.99*15
$GNRMC,001450.086,A,4441.7433,S,16908.0782,E,0.08,0.00,261124,,,A*64
$GNVTG,0.00,T,,M,0.08,N,0.14,K,A*2E

$GNGGA,001452.000,4441.7432,S,16908.0791,E,1,05,3.89,262.5,M,6.2,M,,*53
$GPGSA,A,3,29,25,12,,,,,,,,,,4.02,3.89,0.99*09
$GLGSA,A,3,74,73,,,,,,,,,,,4.02,3.89,0.99*1D
$GPGSV,2,1,07,25,51,270,33,12,48,340,34,29,36,238,31,50,33,327,*72
$GPGSV,2,2,07,193,,,,194,,,,195,,,*44
$GLGSV,1,1,02,74,40,248,32,73,34,307,33*68
$GNRMC,001452.000,A,4441.7432,S,16908.0791,E,0.08,0.00,261124,,,A*6B
$GNVTG,0.00,T,,M,0.08,N,0.16,K,A*2C

$GNGGA,001453.000,4441.7431,S,16908.0800,E,1,05,3.89,263.6,M,6.2,M,,*54
$GPGSA,A,3,29,25,12,,,,,,,,,,4.02,3.89,0.99*09
$GLGSA,A,3,74,73,,,,,,,,,,,4.02,3.89,0.99*1D
$GNRMC,001453.000,A,4441.7431,S,16908.0800,E,0.09,0.00,261124,,,A*6F
$GNVTG,0.00,T,,M,0.09,N,0.16,K,A*2D

$GNGGA,001454.000,4441.7431,S,16908.0806,E,1,05,3.89,264.5,M,6.2,M,,*51
$GPGSA,A,3,29,25,12,,,,,,,,,,4.02,3.89,0.99*09
$GLGSA,A,3,74,73,,,,,,,,,,,4.02,3.89,0.99*1D
$GNRMC,001454.000,A,4441.7431,S,16908.0806,E,0.08,0.00,261124,,,A*6F
$GNVTG,0.00,T,,M,0.08,N,0.14,K,A*2E

$GNGGA,001455.000,4441.7430,S,16908.0815,E,1,05,3.89,263.7,M,6.2,M,,*56
$GPGSA,A,3,29,25,12,,,,,,,,,,4.02,3.89,0.99*09
$GLGSA,A,3,74,73,,,,,,,,,,,4.02,3.89,0.99*1D
$GNRMC,001455.000,A,4441.7430,S,16908.0815,E,0.13,0.00,261124,,,A*67
$GNVTG,0.00,T,,M,0.13,N,0.25,K,A*26

$GNGGA,001456.000,4441.7431,S,16908.0814,E,1,05,3.89,264.8,M,6.2,M,,*5D
$GPGSA,A,3,29,25,12,,,,,,,,,,4.02,3.89,0.99*09
$GLGSA,A,3,74,73,,,,,,,,,,,4.02,3.89,0.99*1D
$GNRMC,001456.000,A,4441.7431,S,16908.0814,E,0.22,0.00,261124,,,A*66
$GNVTG,0.00,T,,M,0.22,N,0.41,K,A*26

$GNGGA,001457.000,4441.7432,S,16908.0814,E,1,05,3.89,263.6,M,6.2,M,,*56
$GPGSA,A,3,29,25,12,,,,,,,,,,4.01,3.89,0.99*0A
$GLGSA,A,3,74,73,,,,,,,,,,,4.01,3.89,0.99*1E
$GPGSV,2,1,07,25,51,270,34,12,48,340,33,29,36,238,31,50,33,327,33*72
$GPGSV,2,2,07,193,,,,194,,,35,195,,,32*43
$GLGSV,1,1,02,74,40,248,33,73,34,307,33*69
$GNRMC,001457.000,A,4441.7432,S,16908.0814,E,0.30,0.00,261124,,,A*67
$GNVTG,0.00,T,,M,0.30,N,0.55,K,A*20

$GNGGA,001458.000,4441.7431,S,16908.0807,E,1,05,3.89,264.0,M,6.2,M,,*59
$GPGSA,A,3,29,25,12,,,,,,,,,,4.01,3.89,0.99*0A
$GLGSA,A,3,74,73,,,,,,,,,,,4.01,3.89,0.99*1E
$GNRMC,001458.000,A,4441.7431,S,16908.0807,E,0.19,0.00,261124,,,A*62
$GNVTG,0.00,T,,M,0.19,N,0.36,K,A*2E

$GNGGA,001459.000,4441.7430,S,16908.0801,E,1,05,3.89,263.7,M,6.2,M,,*5F
$GPGSA,A,3,29,25,12,,,,,,,,,,4.02,3.89,0.99*09
$GLGSA,A,3,74,73,,,,,,,,,,,4.02,3.89,0.99*1D
$GNRMC,001459.000,A,4441.7430,S,16908.0801,E,0.03,0.00,261124,,,A*6F
$GNVTG,0.00,T,,M,0.03,N,0.06,K,A*26

$GNGGA,001500.000,4441.7429,S,16908.0801,E,1,05,3.89,262.5,M,6.2,M,,*59
$GPGSA,A,3,29,25,12,,,,,,,,,,4.01,3.89,0.99*0A
$GLGSA,A,3,74,73,,,,,,,,,,,4.01,3.89,0.99*1E
$GNRMC,001500.000,A,4441.7429,S,16908.0801,E,0.08,0.00,261124,,,A*61
$GNVTG,0.00,T,,M,0.08,N,0.14,K,A*2E

$GNGGA,001501.000,4441.7430,S,16908.0806,E,1,05,3.89,262.8,M,6.2,M,,*5A
$GPGSA,A,3,29,25,12,,,,,,,,,,4.01,3.89,0.99*0A
$GLGSA,A,3,74,73,,,,,,,,,,,4.01,3.89,0.99*1E
$GNRMC,001501.000,A,4441.7430,S,16908.0806,E,0.06,0.00,261124,,,A*61
$GNVTG,0.00,T,,M,0.06,N,0.10,K,A*24

$GNGGA,001502.000,4441.7430,S,16908.0814,E,1,05,3.89,262.3,M,6.2,M,,*51
$GPGSA,A,3,29,25,12,,,,,,,,,,4.01,3.89,0.99*0A
$GLGSA,A,3,74,73,,,,,,,,,,,4.01,3.89,0.99*1E
$GPGSV,2,1,08,25,51,270,34,12,48,340,33,29,36,238,32,42,31,321,*79
$GPGSV,2,2,08,193,,,,194,,,35,195,,,31,20,,,28*47
$GLGSV,1,1,02,74,40,248,34,73,34,307,33*6E
$GNRMC,001502.000,A,4441.7430,S,16908.0814,E,0.08,0.00,261124,,,A*6F
$GNVTG,0.00,T,,M,0.08,N,0.15,K,A*2F

$GNGGA,001503.000,4441.7429,S,16908.0812,E,1,05,3.89,262.5,M,6.2,M,,*58
$GPGSA,A,3,29,25,12,,,,,,,,,,4.01,3.89,0.99*0A
$GLGSA,A,3,74,73,,,,,,,,,,,4.01,3.89,0.99*1E
$GNRMC,001503.000,A,4441.7429,S,16908.0812,E,0.10,0.00,261124,,,A*69
$GNVTG,0.00,T,,M,0.10,N,0.19,K,A*2A

$GNGGA,001504.000,4441.7428,S,16908.0810,E,1,05,3.89,263.1,M,6.2,M,,*59
$GPGSA,A,3,29,25,12,,,,,,,,,,4.01,3.89,0.99*0A
$GLGSA,A,3,74,73,,,,,,,,,,,4.01,3.89,0.99*1E
$GNRMC,001504.000,A,4441.7428,S,16908.0810,E,0.15,0.00,261124,,,A*68
$GNVTG,0.00,T,,M,0.15,N,0.27,K,A*22

$GNGGA,001505.000,4441.7427,S,16908.0807,E,1,05,3.89,263.7,M,6.2,M,,*57
$GPGSA,A,3,29,25,12,,,,,,,,,,4.01,3.89,0.99*0A
$GLGSA,A,3,74,73,,,,,,,,,,,4.01,3.89,0.99*1E
$GNRMC,001505.000,A,4441.7427,S,16908.0807,E,0.13,0.00,261124,,,A*66
$GNVTG,0.00,T,,M,0.13,N,0.25,K,A*26

$GNGGA,001506.000,4441.7425,S,16908.0800,E,1,05,3.89,264.3,M,6.2,M,,*52
$GPGSA,A,3,29,25,12,,,,,,,,,,4.01,3.89,0.99*0A
$GLGSA,A,3,74,73,,,,,,,,,,,4.01,3.89,0.99*1E
$GNRMC,001506.000,A,4441.7425,S,16908.0800,E,0.07,0.00,261124,,,A*65
$GNVTG,0.00,T,,M,0.07,N,0.14,K,A*21

$GNGGA,001507.000,4441.7425,S,16908.0799,E,1,05,3.89,263.8,M,6.2,M,,*50
$GPGSA,A,3,29,25,12,,,,,,,,,,4.01,3.89,0.99*0A
$GLGSA,A,3,74,73,,,,,,,,,,,4.01,3.89,0.99*1E
$GPGSV,2,1,07,25,51,270,33,12,48,340,32,29,36,238,32,42,31,321,*70
$GPGSV,2,2,07,194,,,35,195,,,32,20,,,29*71
$GLGSV,1,1,02,74,40,248,34,73,34,307,33*6E
$GNRMC,001507.000,A,4441.7425,S,16908.0799,E,0.09,0.00,261124,,,A*65
$GNVTG,0.00,T,,M,0.09,N,0.17,K,A*2C

$GNGGA,001508.000,4441.7425,S,16908.0795,E,1,05,3.89,264.5,M,6.2,M,,*59
$GPGSA,A,3,29,25,12,,,,,,,,,,4.01,3.89,0.99*0A
$GLGSA,A,3,74,73,,,,,,,,,,,4.01,3.89,0.99*1E
$GNRMC,001508.000,A,4441.7425,S,16908.0795,E,0.02,0.00,261124,,,A*6D
$GNVTG,0.00,T,,M,0.02,N,0.04,K,A*25

$GNGGA,001509.000,4441.7426,S,16908.0802,E,1,05,3.89,265.0,M,6.2,M,,*5E
$GPGSA,A,3,29,25,12,,,,,,,,,,4.01,3.89,0.99*0A
$GLGSA,A,3,74,73,,,,,,,,,,,4.01,3.89,0.99*1E
$GNRMC,001509.000,A,4441.7426,S,16908.0802,E,0.08,0.00,261124,,,A*64
$GNVTG,0.00,T,,M,0.08,N,0.15,K,A*2F

$GNGGA,001510.000,4441.7428,S,16908.0807,E,1,05,3.89,265.8,M,6.2,M,,*55
$GPGSA,A,3,29,25,12,,,,,,,,,,4.01,3.89,0.99*0A
$GLGSA,A,3,74,73,,,,,,,,,,,4.01,3.89,0.99*1E
$GNRMC,001510.000,A,4441.7428,S,16908.0807,E,0.12,0.00,261124,,,A*6C
$GNVTG,0.00,T,,M,0.12,N,0.23,K,A*21

$GNGGA,001511.000,4441.7429,S,16908.0809,E,1,05,3.89,266.9,M,6.2,M,,*59
$GPGSA,A,3,29,25,12,,,,,,,,,,4.01,3.89,0.99*0A
$GLGSA,A,3,74,73,,,,,,,,,,,4.01,3.89,0.99*1E
$GNRMC,001511.000,A,4441.7429,S,16908.0809,E,0.12,0.00,261124,,,A*62
$GNVTG,0.00,T,,M,0.12,N,0.23,K,A*21

$GNGGA,001512.000,4441.7430,S,16908.0819,E,1,05,3.88,267.6,M,6.2,M,,*5C
$GPGSA,A,3,29,25,12,,,,,,,,,,4.01,3.88,0.99*0B
$GLGSA,A,3,74,73,,,,,,,,,,,4.01,3.88,0.99*1F
$GPGSV,2,1,07,25,51,270,33,12,48,340,32,29,36,238,32,48,13,066,*7A
$GPGSV,2,2,07,194,,,34,195,,,32,20,,,29*70
$GLGSV,1,1,02,74,40,248,34,73,34,307,34*69
$GNRMC,001512.000,A,4441.7430,S,16908.0819,E,0.16,0.00,261124,,,A*6C
$GNVTG,0.00,T,,M,0.16,N,0.29,K,A*2F

$GNGGA,001513.000,4441.7429,S,16908.0821,E,1,05,3.88,268.4,M,6.2,M,,*53
$GPGSA,A,3,29,25,12,,,,,,,,,,4.01,3.88,0.99*0B
$GLGSA,A,3,74,73,,,,,,,,,,,4.01,3.88,0.99*1F
$GNRMC,001513.000,A,4441.7429,S,16908.0821,E,0.16,0.00,261124,,,A*6E
$GNVTG,0.00,T,,M,0.16,N,0.29,K,A*2F

$GNGGA,001514.000,4441.7430,S,16908.0829,E,1,05,3.88,269.0,M,6.2,M,,*51
$GPGSA,A,3,29,25,12,,,,,,,,,,4.01,3.88,0.99*0B
$GLGSA,A,3,74,73,,,,,,,,,,,4.01,3.88,0.99*1F
$GNRMC,001514.000,A,4441.7430,S,16908.0829,E,0.23,0.00,261124,,,A*6F
$GNVTG,0.00,T,,M,0.23,N,0.42,K,A*24

$GNGGA,001515.000,4441.7430,S,16908.0836,E,1,05,3.88,270.0,M,6.2,M,,*56
$GPGSA,A,3,29,25,12,,,,,,,,,,4.01,3.88,0.99*0B
$GLGSA,A,3,74,73,,,,,,,,,,,4.01,3.88,0.99*1F
$GNRMC,001515.000,A,4441.7430,S,16908.0836,E,0.37,0.00,261124,,,A*65
$GNVTG,0.00,T,,M,0.37,N,0.68,K,A*29

$GNGGA,001516.000,4441.7430,S,16908.0841,E,1,05,3.88,270.6,M,6.2,M,,*53
$GPGSA,A,3,29,25,12,,,,,,,,,,4.01,3.88,0.99*0B
$GLGSA,A,3,74,73,,,,,,,,,,,4.01,3.88,0.99*1F
$GNRMC,001516.000,A,4441.7430,S,16908.0841,E,0.39,0.00,261124,,,A*68
$GNVTG,0.00,T,,M,0.39,N,0.72,K,A*2C

$GNGGA,001517.000,4441.7431,S,16908.0846,E,1,05,3.88,271.4,M,6.2,M,,*57
$GPGSA,A,3,29,25,12,,,,,,,,,,4.01,3.88,0.99*0B
$GLGSA,A,3,74,73,,,,,,,,,,,4.01,3.88,0.99*1F
$GPGSV,2,1,07,25,51,270,33,12,48,340,31,29,36,238,32,48,13,066,*79
$GPGSV,2,2,07,194,,,34,195,,,32,20,,,28*71
$GLGSV,1,1,02,74,40,248,34,73,34,307,34*69
$GNRMC,001517.000,A,4441.7431,S,16908.0846,E,0.32,0.00,261124,,,A*64
$GNVTG,0.00,T,,M,0.32,N,0.59,K,A*2E

$GNGGA,001518.000,4441.7430,S,16908.0853,E,1,05,3.88,272.3,M,6.2,M,,*59
$GPGSA,A,3,29,25,12,,,,,,,,,,4.01,3.88,0.99*0B
$GLGSA,A,3,74,73,,,,,,,,,,,4.01,3.88,0.99*1F
$GNRMC,001518.000,A,4441.7430,S,16908.0853,E,0.47,0.00,261124,,,A*6C
$GNVTG,0.00,T,,M,0.47,N,0.87,K,A*2F

$GNGGA,001519.000,4441.7432,S,16908.0865,E,1,05,3.88,273.2,M,6.2,M,,*5F
$GPGSA,A,3,29,25,12,,,,,,,,,,4.00,3.88,0.99*0A
$GLGSA,A,3,74,73,,,,,,,,,,,4.00,3.88,0.99*1E
$GNRMC,001519.000,A,4441.7432,S,16908.0865,E,1.23,98.93,261124,,,A*52
$GNVTG,98.93,T,,M,1.23,N,2.29,K,A*11

$GNGGA,001520.000,4441.7433,S,16908.0877,E,1,05,3.88,274.1,M,6.2,M,,*53
$GPGSA,A,3,29,25,12,,,,,,,,,,4.00,3.88,0.99*0A
$GLGSA,A,3,74,73,,,,,,,,,,,4.00,3.88,0.99*1E
$GNRMC,001520.000,A,4441.7433,S,16908.0877,E,1.16,92.11,261124,,,A*5C
$GNVTG,92.11,T,,M,1.16,N,2.16,K,A*1B

$GNGGA,001521.000,4441.7434,S,16908.0889,E,1,05,3.88,273.9,M,6.2,M,,*5B
$GPGSA,A,3,29,25,12,,,,,,,,,,4.00,3.88,0.99*0A
$GLGSA,A,3,74,73,,,,,,,,,,,4.00,3.88,0.99*1E
$GNRMC,001521.000,A,4441.7434,S,16908.0889,E,0.93,92.33,261124,,,A*57
$GNVTG,92.33,T,,M,0.93,N,1.73,K,A*17

$GNGGA,001522.000,4441.7434,S,16908.0898,E,1,05,3.88,273.8,M,6.2,M,,*59
$GPGSA,A,3,29,25,12,,,,,,,,,,4.00,3.88,0.99*0A
$GLGSA,A,3,74,73,,,,,,,,,,,4.00,3.88,0.99*1E
$GPGSV,2,1,07,25,51,270,33,12,48,340,30,29,36,238,32,42,31,321,*72
$GPGSV,2,2,07,194,,,33,195,,,32,20,,,26*78
$GLGSV,1,1,03,74,40,248,34,73,34,307,33,67,33,125,*58
$GNRMC,001522.000,A,4441.7434,S,16908.0898,E,0.29,92.33,261124,,,A*55
$GNVTG,92.33,T,,M,0.29,N,0.55,K,A*13

$GNGGA,001523.000,4441.7436,S,16908.0907,E,1,05,3.88,273.1,M,6.2,M,,*54
$GPGSA,A,3,29,25,12,,,,,,,,,,4.00,3.88,0.99*0A
$GLGSA,A,3,74,73,,,,,,,,,,,4.00,3.88,0.99*1E
$GNRMC,001523.000,A,4441.7436,S,16908.0907,E,0.65,105.35,261124,,,A*60
$GNVTG,105.35,T,,M,0.65,N,1.20,K,A*21

$GNGGA,001524.000,4441.7438,S,16908.0918,E,1,05,3.88,273.2,M,6.2,M,,*50
$GPGSA,A,3,29,25,12,,,,,,,,,,4.00,3.88,0.99*0A
$GLGSA,A,3,74,73,,,,,,,,,,,4.00,3.88,0.99*1E
$GNRMC,001524.000,A,4441.7438,S,16908.0918,E,1.11,100.72,261124,,,A*63
$GNVTG,100.72,T,,M,1.11,N,2.06,K,A*22

$GNGGA,001525.000,4441.7439,S,16908.0923,E,1,05,3.88,272.7,M,6.2,M,,*5C
$GPGSA,A,3,29,25,12,,,,,,,,,,4.00,3.88,0.99*0A
$GLGSA,A,3,74,73,,,,,,,,,,,4.00,3.88,0.99*1E
$GNRMC,001525.000,A,4441.7439,S,16908.0923,E,1.08,106.50,261124,,,A*65
$GNVTG,106.50,T,,M,1.08,N,1.99,K,A*29

$GNGGA,001526.000,4441.7442,S,16908.0936,E,1,05,3.88,272.5,M,6.2,M,,*55
$GPGSA,A,3,29,25,12,,,,,,,,,,4.00,3.88,0.99*0A
$GLGSA,A,3,74,73,,,,,,,,,,,4.00,3.88,0.99*1E
$GNRMC,001526.000,A,4441.7442,S,16908.0936,E,0.59,119.28,261124,,,A*6A
$GNVTG,119.28,T,,M,0.59,N,1.10,K,A*2C

$GNGGA,001527.000,4441.7444,S,16908.0945,E,1,05,3.88,272.4,M,6.2,M,,*57
$GPGSA,A,3,29,25,12,,,,,,,,,,4.00,3.88,0.99*0A
$GLGSA,A,3,74,73,,,,,,,,,,,4.00,3.88,0.99*1E
$GPGSV,2,1,07,25,51,270,34,12,48,340,30,29,36,238,32,42,31,321,*75
$GPGSV,2,2,07,194,,,33,195,,,32,20,,,25*7B
$GLGSV,1,1,04,74,40,248,34,73,34,307,33,67,33,125,,68,32,063,*65
$GNRMC,001527.000,A,4441.7444,S,16908.0945,E,0.45,119.28,261124,,,A*64
$GNVTG,119.28,T,,M,0.45,N,0.83,K,A*2A

$GNGGA,001528.000,4441.7446,S,16908.0953,E,1,05,3.88,272.1,M,6.2,M,,*58
$GPGSA,A,3,29,25,12,,,,,,,,,,4.00,3.88,0.99*0A
$GLGSA,A,3,74,73,,,,,,,,,,,4.00,3.88,0.99*1E
$GNRMC,001528.000,A,4441.7446,S,16908.0953,E,0.41,119.28,261124,,,A*6A
$GNVTG,119.28,T,,M,0.41,N,0.76,K,A*24

$GNGGA,001529.000,4441.7448,S,16908.0964,E,1,05,3.87,272.2,M,6.2,M,,*5F
$GPGSA,A,3,29,25,12,,,,,,,,,,4.00,3.87,0.99*05
$GLGSA,A,3,74,73,,,,,,,,,,,4.00,3.87,0.99*11
$GNRMC,001529.000,A,4441.7448,S,16908.0964,E,1.13,109.09,261124,,,A*65
$GNVTG,109.09,T,,M,1.13,N,2.09,K,A*2A

$GNGGA,001530.000,4441.7450,S,16908.0980,E,1,05,3.87,271.7,M,6.2,M,,*52
$GPGSA,A,3,29,25,12,,,,,,,,,,4.00,3.87,0.99*05
$GLGSA,A,3,74,73,,,,,,,,,,,4.00,3.87,0.99*11
$GNRMC,001530.000,A,4441.7450,S,16908.0980,E,1.33,110.99,261124,,,A*6D
$GNVTG,110.99,T,,M,1.33,N,2.46,K,A*22

$GNGGA,001531.000,4441.7445,S,16908.0966,E,1,08,1.54,270.9,M,6.2,M,,*51
$GPGSA,A,3,29,25,12,194,195,20,,,,,,,1.83,1.54,0.98*05
$GLGSA,A,3,74,73,,,,,,,,,,,1.83,1.54,0.98*12
$GNRMC,001531.000,A,4441.7445,S,16908.0966,E,0.47,110.99,261124,,,A*62
$GNVTG,110.99,T,,M,0.47,N,0.88,K,A*20

$GNGGA,001532.000,4441.7445,S,16908.0966,E,1,08,1.54,269.9,M,6.2,M,,*5A
$GPGSA,A,3,29,25,12,194,195,20,,,,,,,1.83,1.54,0.98*05
$GLGSA,A,3,74,73,,,,,,,,,,,1.83,1.54,0.98*12
$GPGSV,2,1,07,20,71,070,24,25,51,270,33,12,48,340,29,29,36,238,32*7B
$GPGSV,2,2,07,48,13,066,,194,,,33,195,,,33*41
$GLGSV,2,1,05,74,40,248,35,73,34,307,33,67,33,125,,68,32,063,*66
$GLGSV,2,2,05,69,04,022,*5B
$GNRMC,001532.000,A,4441.7445,S,16908.0966,E,1.04,268.46,261124,,,A*69
$GNVTG,268.46,T,,M,1.04,N,1.93,K,A*23

$GNGGA,001533.000,4441.7442,S,16908.0956,E,1,08,1.54,269.4,M,6.2,M,,*52
$GPGSA,A,3,29,25,12,194,195,20,,,,,,,1.83,1.54,0.98*05
$GLGSA,A,3,74,73,,,,,,,,,,,1.83,1.54,0.98*12
$GNRMC,001533.000,A,4441.7442,S,16908.0956,E,1.09,277.06,261124,,,A*6B
$GNVTG,277.06,T,,M,1.09,N,2.02,K,A*2F

$GNGGA,001534.000,4441.7441,S,16908.0950,E,1,08,1.54,268.9,M,6.2,M,,*5C
$GPGSA,A,3,29,25,12,194,195,20,,,,,,,1.83,1.54,0.98*05
$GLGSA,A,3,74,73,,,,,,,,,,,1.83,1.54,0.98*12
$GNRMC,001534.000,A,4441.7441,S,16908.0950,E,0.12,277.06,261124,,,A*62
$GNVTG,277.06,T,,M,0.12,N,0.23,K,A*25

$GNGGA,001535.000,4441.7439,S,16908.0944,E,1,08,1.54,268.3,M,6.2,M,,*5D
$GPGSA,A,3,29,25,12,194,195,20,,,,,,,1.83,1.54,0.98*05
$GLGSA,A,3,74,73,,,,,,,,,,,1.83,1.54,0.98*12
$GNRMC,001535.000,A,4441.7439,S,16908.0944,E,0.26,277.06,261124,,,A*6E
$GNVTG,277.06,T,,M,0.26,N,0.49,K,A*2E

$GNGGA,001536.000,4441.7438,S,16908.0943,E,1,08,1.54,268.0,M,6.2,M,,*5B
$GPGSA,A,3,29,25,12,194,195,20,,,,,,,1.83,1.54,0.98*05
$GLGSA,A,3,74,73,,,,,,,,,,,1.83,1.54,0.98*12
$GNRMC,001536.000,A,4441.7438,S,16908.0943,E,0.11,277.06,261124,,,A*6F
$GNVTG,277.06,T,,M,0.11,N,0.21,K,A*24

$GNGGA,001537.000,4441.7438,S,16908.0942,E,1,08,1.54,267.7,M,6.2,M,,*53
$GPGSA,A,3,29,25,12,194,195,20,,,,,,,1.83,1.54,0.98*05
$GLGSA,A,3,74,73,,,,,,,,,,,1.83,1.54,0.98*12
$GPGSV,2,1,07,20,71,070,22,194,59,327,32,25,51,270,33,12,48,340,29*4C
$GPGSV,2,2,07,195,37,291,33,29,36,238,31,48,13,066,*76
$GLGSV,2,1,05,74,40,248,34,73,34,307,33,67,33,125,,68,32,063,*67
$GLGSV,2,2,05,69,04,022,*5B
$GNRMC,001537.000,A,4441.7438,S,16908.0942,E,0.32,277.06,261124,,,A*6E
$GNVTG,277.06,T,,M,0.32,N,0.59,K,A*2A

$GNGGA,001538.000,4441.7437,S,16908.0937,E,1,08,1.54,267.5,M,6.2,M,,*53
$GPGSA,A,3,29,25,12,194,195,20,,,,,,,1.83,1.54,0.98*05
$GLGSA,A,3,74,73,,,,,,,,,,,1.83,1.54,0.98*12
$GNRMC,001538.000,A,4441.7437,S,16908.0937,E,0.07,277.06,261124,,,A*6A
$GNVTG,277.06,T,,M,0.07,N,0.14,K,A*25

$GNGGA,001539.000,4441.7437,S,16908.0938,E,1,08,1.54,267.0,M,6.2,M,,*58
$GPGSA,A,3,29,25,12,194,195,20,,,,,,,1.83,1.54,0.98*05
$GLGSA,A,3,74,73,,,,,,,,,,,1.83,1.54,0.98*12
$GNRMC,001539.000,A,4441.7437,S,16908.0938,E,0.46,277.06,261124,,,A*61
$GNVTG,277.06,T,,M,0.46,N,0.84,K,A*29

$GNGGA,001540.000,4441.7437,S,16908.0940,E,1,08,1.54,266.9,M,6.2,M,,*51
$GPGSA,A,3,29,25,12,194,195,20,,,,,,,1.83,1.54,0.98*05
$GLGSA,A,3,74,73,,,,,,,,,,,1.83,1.54,0.98*12
$GNRMC,001540.000,A,4441.7437,S,16908.0940,E,0.87,113.20,261124,,,A*68
$GNVTG,113.20,T,,M,0.87,N,1.61,K,A*2B

$GNGGA,001541.000,4441.7437,S,16908.0941,E,1,08,1.54,266.6,M,6.2,M,,*5E
$GPGSA,A,3,29,25,12,194,195,20,,,,,,,1.83,1.54,0.98*05
$GLGSA,A,3,74,73,,,,,,,,,,,1.83,1.54,0.98*12
$GNRMC,001541.000,A,4441.7437,S,16908.0941,E,1.18,107.47,261124,,,A*6B
$GNVTG,107.47,T,,M,1.18,N,2.19,K,A*24

$GNGGA,001542.000,4441.7437,S,16908.0940,E,1,08,1.54,266.5,M,6.2,M,,*5F
$GPGSA,A,3,29,25,12,194,195,20,,,,,,,1.83,1.54,0.98*05
$GLGSA,A,3,74,73,,,,,,,,,,,1.83,1.54,0.98*12
$GPGSV,2,1,07,20,71,070,21,194,59,327,32,25,51,270,33,12,48,340,29*4F
$GPGSV,2,2,07,195,37,291,32,29,36,238,31,34,,,*4E
$GLGSV,2,1,05,74,40,248,35,73,34,307,34,67,33,125,,68,32,063,*61
$GLGSV,2,2,05,69,04,022,*5B
$GNRMC,001542.000,A,4441.7437,S,16908.0940,E,0.75,95.37,261124,,,A*5E
$GNVTG,95.37,T,,M,0.75,N,1.39,K,A*12

$GNGGA,001543.000,4441.7436,S,16908.0940,E,1,08,1.54,266.5,M,6.2,M,,*5F
$GPGSA,A,3,29,25,12,194,195,20,,,,,,,1.83,1.54,0.98*05
$GLGSA,A,3,74,73,,,,,,,,,,,1.83,1.54,0.98*12
$GNRMC,001543.000,A,4441.7436,S,16908.0940,E,0.35,95.37,261124,,,A*5A
$GNVTG,95.37,T,,M,0.35,N,0.65,K,A*1E

$GNGGA,001544.000,4441.7436,S,16908.0939,E,1,08,1.54,266.4,M,6.2,M,,*57
$GPGSA,A,3,29,25,12,194,195,20,,,,,,,1.83,1.54,0.98*05
$GLGSA,A,3,74,73,,,,,,,,,,,1.83,1.54,0.98*12
$GNRMC,001544.000,A,4441.7436,S,16908.0939,E,0.22,95.37,261124,,,A*55
$GNVTG,95.37,T,,M,0.22,N,0.40,K,A*1F

$GNGGA,001545.000,4441.7436,S,16908.0937,E,1,08,1.54,266.5,M,6.2,M,,*59
$GPGSA,A,3,29,25,12,194,195,20,,,,,,,1.82,1.54,0.98*04
$GLGSA,A,3,74,73,,,,,,,,,,,1.82,1.54,0.98*13
$GNRMC,001545.000,A,4441.7436,S,16908.0937,E,0.36,95.37,261124,,,A*5F
$GNVTG,95.37,T,,M,0.36,N,0.67,K,A*1F

$GNGGA,001546.000,4441.7437,S,16908.0937,E,1,08,1.54,266.8,M,6.2,M,,*56
$GPGSA,A,3,29,25,12,194,195,20,,,,,,,1.82,1.54,0.98*04
$GLGSA,A,3,74,73,,,,,,,,,,,1.82,1.54,0.98*13
$GNRMC,001546.000,A,4441.7437,S,16908.0937,E,0.31,95.37,261124,,,A*5A
$GNVTG,95.37,T,,M,0.31,N,0.58,K,A*14

$GNGGA,001547.000,4441.7438,S,16908.0936,E,1,08,1.54,266.9,M,6.2,M,,*58
$GPGSA,A,3,29,25,12,194,195,20,,,,,,,1.82,1.54,0.98*04
$GLGSA,A,3,74,73,,,,,,,,,,,1.82,1.54,0.98*13
$GPGSV,2,1,07,20,71,070,22,194,59,327,31,25,51,270,33,12,48,340,31*46
$GPGSV,2,2,07,195,37,291,32,29,36,238,31,35,,,*4F
$GLGSV,2,1,05,74,40,248,35,73,34,307,34,67,33,125,,68,32,063,*61
$GLGSV,2,2,05,69,04,022,*5B
$GNRMC,001547.000,A,4441.7438,S,16908.0936,E,0.18,95.37,261124,,,A*5E
$GNVTG,95.37,T,,M,0.18,N,0.33,K,A*12

$GNGGA,001548.000,4441.7439,S,16908.0936,E,1,08,1.54,266.9,M,6.2,M,,*56
$GPGSA,A,3,29,25,12,194,195,20,,,,,,,1.82,1.54,0.98*04
$GLGSA,A,3,74,73,,,,,,,,,,,1.82,1.54,0.98*13
$GNRMC,001548.000,A,4441.7439,S,16908.0936,E,0.06,95.37,261124,,,A*5F
$GNVTG,95.37,T,,M,0.06,N,0.12,K,A*1E

$GNGGA,001549.000,4441.7439,S,16908.0934,E,1,08,1.54,267.0,M,6.2,M,,*5D
$GPGSA,A,3,29,25,12,194,195,20,,,,,,,1.82,1.54,0.98*04
$GLGSA,A,3,74,73,,,,,,,,,,,1.82,1.54,0.98*13
$GNRMC,001549.000,A,4441.7439,S,16908.0934,E,0.59,277.79,261124,,,A*62
$GNVTG,277.79,T,,M,0.59,N,1.09,K,A*2B

$GNGGA,001550.000,4441.7439,S,16908.0933,E,1,08,1.54,267.1,M,6.2,M,,*53
$GPGSA,A,3,29,25,12,194,195,20,,,,,,,1.82,1.54,0.98*04
$GLGSA,A,3,74,73,,,,,,,,,,,1.82,1.54,0.98*13
$GNRMC,001550.000,A,4441.7439,S,16908.0933,E,0.21,277.79,261124,,,A*62
$GNVTG,277.79,T,,M,0.21,N,0.38,K,A*27

$GNGGA,001551.000,4441.7438,S,16908.0932,E,1,08,1.54,267.1,M,6.2,M,,*52
$GPGSA,A,3,29,25,12,194,195,20,,,,,,,1.82,1.54,0.98*04
$GLGSA,A,3,74,73,,,,,,,,,,,1.82,1.54,0.98*13
$GNRMC,001551.000,A,4441.7438,S,16908.0932,E,0.21,277.79,261124,,,A*63
$GNVTG,277.79,T,,M,0.21,N,0.39,K,A*26

$GNGGA,001552.000,4441.7438,S,16908.0931,E,1,08,1.54,267.0,M,6.2,M,,*53
$GPGSA,A,3,29,25,12,194,195,20,,,,,,,1.82,1.54,0.98*04
$GLGSA,A,3,74,73,,,,,,,,,,,1.82,1.54,0.98*13
$GPGSV,2,1,07,20,71,070,21,194,59,327,31,25,51,270,33,12,48,340,31*45
$GPGSV,2,2,07,195,37,291,32,29,36,238,31,36,,,*4C
$GLGSV,2,1,05,74,40,248,35,73,34,307,35,67,33,125,,68,32,063,*60
$GLGSV,2,2,05,69,04,022,*5B
$GNRMC,001552.000,A,4441.7438,S,16908.0931,E,0.15,277.79,261124,,,A*64
$GNVTG,277.79,T,,M,0.15,N,0.28,K,A*21

$GNGGA,001553.000,4441.7438,S,16908.0930,E,1,08,1.54,266.9,M,6.2,M,,*5B
$GPGSA,A,3,29,25,12,194,195,20,,,,,,,1.82,1.54,0.98*04
$GLGSA,A,3,74,73,,,,,,,,,,,1.82,1.54,0.98*13
$GNRMC,001553.000,A,4441.7438,S,16908.0930,E,0.13,277.79,261124,,,A*62
$GNVTG,277.79,T,,M,0.13,N,0.23,K,A*2C

$GNGGA,001554.000,4441.7438,S,16908.0929,E,1,08,1.54,266.8,M,6.2,M,,*55
$GPGSA,A,3,29,25,12,194,195,20,,,,,,,1.82,1.54,0.98*04
$GLGSA,A,3,74,73,,,,,,,,,,,1.82,1.54,0.98*13
$GNRMC,001554.000,A,4441.7438,S,16908.0929,E,0.12,277.79,261124,,,A*6C
$GNVTG,277.79,T,,M,0.12,N,0.22,K,A*2C

$GNGGA,001555.000,4441.7438,S,16908.0927,E,1,08,1.54,267.0,M,6.2,M,,*53
$GPGSA,A,3,29,25,12,194,195,20,,,,,,,1.82,1.54,0.98*04
$GLGSA,A,3,74,73,,,,,,,,,,,1.82,1.54,0.98*13
$GNRMC,001555.000,A,4441.7438,S,16908.0927,E,0.07,277.79,261124,,,A*67
$GNVTG,277.79,T,,M,0.07,N,0.12,K,A*2B

$GNGGA,001556.000,4441.7438,S,16908.0923,E,1,08,1.54,267.2,M,6.2,M,,*56
$GPGSA,A,3,29,25,12,194,195,20,,,,,,,1.82,1.54,0.98*04
$GLGSA,A,3,74,73,,,,,,,,,,,1.82,1.54,0.98*13
$GNRMC,001556.000,A,4441.7438,S,16908.0923,E,0.08,277.79,261124,,,A*6F
$GNVTG,277.79,T,,M,0.08,N,0.15,K,A*23

$GNGGA,001557.000,4441.7438,S,16908.0918,E,1,08,1.54,267.8,M,6.2,M,,*55
$GPGSA,A,3,29,25,12,194,195,20,,,,,,,1.82,1.54,0.98*04
$GLGSA,A,3,74,73,,,,,,,,,,,1.82,1.54,0.98*13
$GPGSV,2,1,07,20,71,070,20,194,59,327,30,25,51,270,33,12,48,340,32*46
$GPGSV,2,2,07,195,37,291,32,29,36,238,31,36,,,*4C
$GLGSV,2,1,05,74,40,248,35,73,34,307,35,67,33,125,,68,32,063,*60
$GLGSV,2,2,05,69,04,022,*5B
$GNRMC,001557.000,A,4441.7438,S,16908.0918,E,0.14,277.79,261124,,,A*6B
$GNVTG,277.79,T,,M,0.14,N,0.26,K,A*2E

$GNGGA,001558.000,4441.7437,S,16908.0916,E,1,08,1.54,268.1,M,6.2,M,,*5D
$GPGSA,A,3,29,25,12,194,195,20,,,,,,,1.82,1.54,0.98*04
$GLGSA,A,3,74,73,,,,,,,,,,,1.82,1.54,0.98*13
$GNRMC,001558.000,A,4441.7437,S,16908.0916,E,0.12,277.79,261124,,,A*63
$GNVTG,277.79,T,,M,0.12,N,0.22,K,A*2C

$GNGGA,001559.000,4441.7437,S,16908.0915,E,1,08,1.54,268.6,M,6.2,M,,*58
$GPGSA,A,3,29,25,12,194,195,20,,,,,,,1.82,1.54,0.98*04
$GLGSA,A,3,74,73,,,,,,,,,,,1.82,1.54,0.98*13
$GNRMC,001559.000,A,4441.7437,S,16908.0915,E,0.09,277.79,261124,,,A*6B
$GNVTG,277.79,T,,M,0.09,N,0.17,K,A*20

$GNGGA,001600.000,4441.7437,S,16908.0912,E,1,08,1.54,268.8,M,6.2,M,,*5E
$GPGSA,A,3,29,25,12,194,195,20,,,,,,,1.82,1.54,0.98*04
$GLGSA,A,3,74,73,,,,,,,,,,,1.82,1.54,0.98*13
$GNRMC,001600.000,A,4441.7437,S,16908.0912,E,0.17,277.79,261124,,,A*6C
$GNVTG,277.79,T,,M,0.17,N,0.32,K,A*28

$GNGGA,001601.000,4441.7436,S,16908.0910,E,1,08,1.54,268.9,M,6.2,M,,*5D
$GPGSA,A,3,29,25,12,194,195,20,,,,,,,1.82,1.54,0.98*04
$GLGSA,A,3,74,73,,,,,,,,,,,1.82,1.54,0.98*13
$GNRMC,001601.000,A,4441.7436,S,16908.0910,E,0.16,277.79,261124,,,A*6F
$GNVTG,277.79,T,,M,0.16,N,0.30,K,A*2B

$GNGGA,001602.000,4441.7437,S,16908.0910,E,1,08,1.54,268.8,M,6.2,M,,*5E
$GPGSA,A,3,29,25,12,194,195,20,,,,,,,1.82,1.54,0.98*04
$GLGSA,A,3,74,73,,,,,,,,,,,1.82,1.54,0.98*13
$GPGSV,2,1,07,20,71,070,18,194,59,327,30,25,51,270,33,12,48,340,33*4C
$GPGSV,2,2,07,195,37,291,32,29,36,238,32,38,,,*41
$GLGSV,2,1,05,74,40,248,34,73,34,307,35,67,33,125,,68,32,063,*61
$GLGSV,2,2,05,69,04,022,*5B
$GNRMC,001602.000,A,4441.7437,S,16908.0910,E,0.02,277.79,261124,,,A*68
$GNVTG,277.79,T,,M,0.02,N,0.03,K,A*2E

$GNGGA,001603.000,4441.7436,S,16908.0905,E,1,08,1.54,269.0,M,6.2,M,,*53
$GPGSA,A,3,29,25,12,194,195,20,,,,,,,1.82,1.54,0.98*04
$GLGSA,A,3,74,73,,,,,,,,,,,1.82,1.54,0.98*13
$GNRMC,001603.000,A,4441.7436,S,16908.0905,E,0.11,277.79,261124,,,A*6E
$GNVTG,277.79,T,,M,0.11,N,0.20,K,A*2D

$GNGGA,001604.000,4441.7437,S,16908.0910,E,1,08,1.54,268.9,M,6.2,M,,*59
$GPGSA,A,3,29,25,12,194,195,20,,,,,,,1.82,1.54,0.98*04
$GLGSA,A,3,74,73,,,,,,,,,,,1.82,1.54,0.98*13
$GNRMC,001604.000,A,4441.7437,S,16908.0910,E,0.17,277.79,261124,,,A*6A
$GNVTG,277.79,T,,M,0.17,N,0.32,K,A*28

$GNGGA,001605.000,4441.7437,S,16908.0909,E,1,08,1.54,268.9,M,6.2,M,,*50
$GPGSA,A,3,29,25,12,194,195,20,,,,,,,1.82,1.54,0.98*04
$GLGSA,A,3,74,73,,,,,,,,,,,1.82,1.54,0.98*13
$GNRMC,001605.000,A,4441.7437,S,16908.0909,E,0.20,277.79,261124,,,A*67
$GNVTG,277.79,T,,M,0.20,N,0.37,K,A*29

$GNGGA,001606.000,4441.7437,S,16908.0910,E,1,08,1.54,268.9,M,6.2,M,,*5B
$GPGSA,A,3,29,25,12,194,195,20,,,,,,,1.82,1.54,0.98*04
$GLGSA,A,3,74,73,,,,,,,,,,,1.82,1.54,0.98*13
$GNRMC,001606.000,A,4441.7437,S,16908.0910,E,0.18,277.79,261124,,,A*67
$GNVTG,277.79,T,,M,0.18,N,0.34,K,A*21

$GNGGA,001607.000,4441.7437,S,16908.0910,E,1,08,1.53,268.9,M,6.2,M,,*5D
$GPGSA,A,3,29,25,12,194,195,20,,,,,,,1.82,1.53,0.98*03
$GLGSA,A,3,74,73,,,,,,,,,,,1.82,1.53,0.98*14
$GPGSV,2,1,07,20,71,070,17,194,59,327,29,25,51,270,33,12,48,340,33*4B
$GPGSV,2,2,07,195,37,291,32,29,36,238,32,41,,,*4F
$GLGSV,2,1,05,74,40,248,35,73,34,307,35,67,33,125,,68,32,063,*60
$GLGSV,2,2,05,69,04,022,*5B
$GNRMC,001607.000,A,4441.7437,S,16908.0910,E,0.15,277.79,261124,,,A*6B
$GNVTG,277.79,T,,M,0.15,N,0.28,K,A*21

$GNGGA,001608.000,4441.7437,S,16908.0911,E,1,08,1.53,268.9,M,6.2,M,,*53
$GPGSA,A,3,29,25,12,194,195,20,,,,,,,1.82,1.53,0.98*03
$GLGSA,A,3,74,73,,,,,,,,,,,1.82,1.53,0.98*14
$GNRMC,001608.000,A,4441.7437,S,16908.0911,E,0.14,277.79,261124,,,A*64
$GNVTG,277.79,T,,M,0.14,N,0.27,K,A*2F

$GNGGA,001609.000,4441.7437,S,16908.0910,E,1,08,1.53,268.9,M,6.2,M,,*53
$GPGSA,A,3,29,25,12,194,195,20,,,,,,,1.82,1.53,0.98*03
$GLGSA,A,3,74,73,,,,,,,,,,,1.82,1.53,0.98*14
$GNRMC,001609.000,A,4441.7437,S,16908.0910,E,0.12,277.79,261124,,,A*62
$GNVTG,277.79,T,,M,0.12,N,0.22,K,A*2C

$GNGGA,001610.000,4441.7437,S,16908.0909,E,1,08,1.53,268.9,M,6.2,M,,*53
$GPGSA,A,3,29,25,12,194,195,20,,,,,,,1.82,1.53,0.98*03
$GLGSA,A,3,74,73,,,,,,,,,,,1.82,1.53,0.98*14
$GNRMC,001610.000,A,4441.7437,S,16908.0909,E,0.08,277.79,261124,,,A*69
$GNVTG,277.79,T,,M,0.08,N,0.15,K,A*23

$GNGGA,001611.000,4441.7436,S,16908.0906,E,1,08,1.53,268.9,M,6.2,M,,*5C
$GPGSA,A,3,29,25,12,194,195,20,,,,,,,1.82,1.53,0.98*03
$GLGSA,A,3,74,73,,,,,,,,,,,1.82,1.53,0.98*14
$GNRMC,001611.000,A,4441.7436,S,16908.0906,E,0.15,277.79,261124,,,A*6A
$GNVTG,277.79,T,,M,0.15,N,0.28,K,A*21

$GNGGA,001612.000,4441.7436,S,16908.0904,E,1,08,1.53,268.9,M,6.2,M,,*5D
$GPGSA,A,3,29,25,12,194,195,20,,,,,,,1.82,1.53,0.98*03
$GLGSA,A,3,74,73,,,,,,,,,,,1.82,1.53,0.98*14
$GPGSV,2,1,07,20,71,070,17,194,59,327,29,25,51,270,33,12,48,340,33*4B
$GPGSV,2,2,07,195,37,291,32,29,36,238,32,43,,,*4D
$GLGSV,2,1,05,74,40,248,35,73,34,307,34,67,33,125,,68,32,064,*66
$GLGSV,2,2,05,69,04,022,*5B
$GNRMC,001612.000,A,4441.7436,S,16908.0904,E,0.16,277.79,261124,,,A*68
$GNVTG,277.79,T,,M,0.16,N,0.30,K,A*2B

$GNGGA,001613.000,4441.7435,S,16908.0903,E,1,08,1.53,268.9,M,6.2,M,,*58
$GPGSA,A,3,29,25,12,194,195,20,,,,,,,1.82,1.53,0.98*03
$GLGSA,A,3,74,73,,,,,,,,,,,1.82,1.53,0.98*14
$GNRMC,001613.000,A,4441.7435,S,16908.0903,E,0.20,277.79,261124,,,A*68
$GNVTG,277.79,T,,M,0.20,N,0.37,K,A*29

$GNGGA,001614.000,4441.7435,S,16908.0901,E,1,08,1.53,268.9,M,6.2,M,,*5D
$GPGSA,A,3,29,25,12,194,195,20,,,,,,,1.82,1.53,0.98*03
$GLGSA,A,3,74,73,,,,,,,,,,,1.82,1.53,0.98*14
$GNRMC,001614.000,A,4441.7435,S,16908.0901,E,0.24,277.79,261124,,,A*69
$GNVTG,277.79,T,,M,0.24,N,0.45,K,A*28

$GNGGA,001615.000,4441.7434,S,16908.0900,E,1,08,1.53,268.9,M,6.2,M,,*5C
$GPGSA,A,3,29,25,12,194,195,20,,,,,,,1.82,1.53,0.98*03
$GLGSA,A,3,74,73,,,,,,,,,,,1.82,1.53,0.98*14
$GNRMC,001615.000,A,4441.7434,S,16908.0900,E,0.26,277.79,261124,,,A*6A
$GNVTG,277.79,T,,M,0.26,N,0.48,K,A*27

$GNGGA,001616.000,4441.7433,S,16908.0898,E,1,08,1.53,268.9,M,6.2,M,,*58
$GPGSA,A,3,29,25,12,194,195,20,,,,,,,1.82,1.53,0.98*03
$GLGSA,A,3,74,73,,,,,,,,,,,1.82,1.53,0.98*14
$GNRMC,001616.000,A,4441.7433,S,16908.0898,E,0.25,277.79,261124,,,A*6D
$GNVTG,277.79,T,,M,0.25,N,0.47,K,A*2B

$GNGGA,001617.000,4441.7433,S,16908.0896,E,1,08,1.53,268.9,M,6.2,M,,*57
$GPGSA,A,3,29,25,12,194,195,20,,,,,,,1.82,1.53,0.98*03
$GLGSA,A,3,74,73,,,,,,,,,,,1.82,1.53,0.98*14
$GPGSV,2,1,07,20,71,070,18,194,59,327,29,25,51,270,34,12,48,340,33*43
$GPGSV,2,2,07,195,37,291,32,29,36,238,32,43,,,34*4A
$GLGSV,2,1,06,74,40,248,35,73,34,307,34,67,33,125,,68,32,064,*65
$GLGSV,2,2,06,75,11,201,,69,05,022,*68
$GNRMC,001617.000,A,4441.7433,S,16908.0896,E,0.25,277.79,261124,,,A*62
$GNVTG,277.79,T,,M,0.25,N,0.47,K,A*2B

$GNGGA,001618.000,4441.7432,S,16908.0896,E,1,08,1.53,269.0,M,6.2,M,,*51
$GPGSA,A,3,29,25,12,194,195,20,,,,,,,1.82,1.53,0.98*03
$GLGSA,A,3,74,73,,,,,,,,,,,1.82,1.53,0.98*14
$GNRMC,001618.000,A,4441.7432,S,16908.0896,E,0.25,277.79,261124,,,A*6C
$GNVTG,277.79,T,,M,0.25,N,0.45,K,A*29

$GNGGA,001619.000,4441.7431,S,16908.0895,E,1,08,1.53,269.0,M,6.2,M,,*50
$GPGSA,A,3,29,25,12,194,195,20,,,,,,,1.82,1.53,0.98*03
$GLGSA,A,3,74,73,,,,,,,,,,,1.82,1.53,0.98*14
$GNRMC,001619.000,A,4441.7431,S,16908.0895,E,0.23,277.79,261124,,,A*6B
$GNVTG,277.79,T,,M,0.23,N,0.43,K,A*29

$GNGGA,001620.000,4441.7430,S,16908.0891,E,1,08,1.53,269.0,M,6.2,M,,*5F
$GPGSA,A,3,29,25,12,194,195,20,,,,,,,1.82,1.53,0.98*03
$GLGSA,A,3,74,73,,,,,,,,,,,1.82,1.53,0.98*14
$GNRMC,001620.000,A,4441.7430,S,16908.0891,E,0.30,277.79,261124,,,A*66
$GNVTG,277.79,T,,M,0.30,N,0.56,K,A*2F

$GNGGA,001621.000,4441.7430,S,16908.0892,E,1,08,1.53,269.0,M,6.2,M,,*5D
$GPGSA,A,3,29,25,12,194,195,20,,,,,,,1.82,1.53,0.98*03
$GLGSA,A,3,74,73,,,,,,,,,,,1.82,1.53,0.98*14
$GNRMC,001621.000,A,4441.7430,S,16908.0892,E,0.25,277.79,261124,,,A*60
$GNVTG,277.79,T,,M,0.25,N,0.46,K,A*2A

$GNGGA,001622.000,4441.7430,S,16908.0893,E,1,08,1.53,269.0,M,6.2,M,,*5F
$GPGSA,A,3,29,25,12,194,195,20,,,,,,,1.82,1.53,0.98*03
$GLGSA,A,3,74,73,,,,,,,,,,,1.82,1.53,0.98*14
$GPGSV,2,1,07,20,71,070,21,194,59,327,29,25,51,270,34,12,48,340,33*49
$GPGSV,2,2,07,195,37,291,32,29,36,238,32,45,,,*4B
$GLGSV,2,1,06,74,40,249,35,73,34,308,34,67,33,125,,68,32,064,*6B
$GLGSV,2,2,06,75,11,201,,69,05,022,*68
$GNRMC,001622.000,A,4441.7430,S,16908.0893,E,0.17,277.79,261124,,,A*63
$GNVTG,277.79,T,,M,0.17,N,0.31,K,A*2B

$GNGGA,001623.000,4441.7428,S,16908.0890,E,1,08,1.53,269.0,M,6.2,M,,*54
$GPGSA,A,3,29,25,12,194,195,20,,,,,,,1.82,1.53,0.98*03
$GLGSA,A,3,74,73,,,,,,,,,,,1.82,1.53,0.98*14
$GNRMC,001623.000,A,4441.7428,S,16908.0890,E,0.17,277.79,261124,,,A*68
$GNVTG,277.79,T,,M,0.17,N,0.32,K,A*28

$GNGGA,001624.000,4441.7428,S,16908.0890,E,1,08,1.53,269.0,M,6.2,M,,*53
$GPGSA,A,3,29,25,12,194,195,20,,,,,,,1.82,1.53,0.98*03
$GLGSA,A,3,74,73,,,,,,,,,,,1.82,1.53,0.98*14
$GNRMC,001624.000,A,4441.7428,S,16908.0890,E,0.29,277.79,261124,,,A*62
$GNVTG,277.79,T,,M,0.29,N,0.54,K,A*25

$GNGGA,001625.000,4441.7428,S,16908.0890,E,1,08,1.53,269.0,M,6.2,M,,*52
$GPGSA,A,3,29,25,12,194,195,20,,,,,,,1.82,1.53,0.98*03
$GLGSA,A,3,74,73,,,,,,,,,,,1.82,1.53,0.98*14
$GNRMC,001625.000,A,4441.7428,S,16908.0890,E,0.32,277.79,261124,,,A*69
$GNVTG,277.79,T,,M,0.32,N,0.60,K,A*28

$GNGGA,001626.000,4441.7427,S,16908.0889,E,1,08,1.53,269.0,M,6.2,M,,*56
$GPGSA,A,3,29,25,12,194,195,20,,,,,,,1.82,1.53,0.98*03
$GLGSA,A,3,74,73,,,,,,,,,,,1.82,1.53,0.98*14
$GNRMC,001626.000,A,4441.7427,S,16908.0889,E,0.23,277.79,261124,,,A*6D
$GNVTG,277.79,T,,M,0.23,N,0.43,K,A*29

$GNGGA,001627.000,4441.7427,S,16908.0889,E,1,08,1.53,269.0,M,6.2,M,,*57
$GPGSA,A,3,29,25,12,194,195,20,,,,,,,1.82,1.53,0.98*03
$GLGSA,A,3,74,73,,,,,,,,,,,1.82,1.53,0.98*14
$GPGSV,2,1,07,20,71,070,22,194,59,327,29,25,51,270,34,12,48,340,32*4B
$GPGSV,2,2,07,195,37,291,32,29,36,238,31,46,,,*4B
$GLGSV,2,1,06,74,40,249,35,73,34,308,33,67,33,125,,68,32,064,*6C
$GLGSV,2,2,06,75,11,201,,69,05,022,*68
$GNRMC,001627.000,A,4441.7427,S,16908.0889,E,0.14,277.79,261124,,,A*68
$GNVTG,277.79,T,,M,0.14,N,0.25,K,A*2D

$GNGGA,001628.000,4441.7426,S,16908.0889,E,1,08,1.53,269.0,M,6.2,M,,*59
$GPGSA,A,3,29,25,12,194,195,20,,,,,,,1.82,1.53,0.98*03
$GLGSA,A,3,74,73,,,,,,,,,,,1.82,1.53,0.98*14
$GNRMC,001628.000,A,4441.7426,S,16908.0889,E,0.25,277.79,261124,,,A*64
$GNVTG,277.79,T,,M,0.25,N,0.47,K,A*2B

$GNGGA,001629.000,4441.7425,S,16908.0889,E,1,08,1.53,269.0,M,6.2,M,,*5B
$GPGSA,A,3,29,25,12,194,195,20,,,,,,,1.82,1.53,0.98*03
$GLGSA,A,3,74,73,,,,,,,,,,,1.82,1.53,0.98*14
$GNRMC,001629.000,A,4441.7425,S,16908.0889,E,0.49,277.79,261124,,,A*6C
$GNVTG,277.79,T,,M,0.49,N,0.90,K,A*2B

$GNGGA,001630.000,4441.7425,S,16908.0888,E,1,08,1.53,269.0,M,6.2,M,,*52
$GPGSA,A,3,29,25,12,194,195,20,,,,,,,1.82,1.53,0.98*03
$GLGSA,A,3,74,73,,,,,,,,,,,1.82,1.53,0.98*14
$GNRMC,001630.000,A,4441.7425,S,16908.0888,E,0.33,277.79,261124,,,A*68
$GNVTG,277.79,T,,M,0.33,N,0.61,K,A*28

$GNGGA,001631.000,4441.7424,S,16908.0888,E,1,08,1.53,269.1,M,6.2,M,,*53
$GPGSA,A,3,29,25,12,194,195,20,,,,,,,1.82,1.53,0.98*03
$GLGSA,A,3,74,73,,,,,,,,,,,1.82,1.53,0.98*14
$GNRMC,001631.000,A,4441.7424,S,16908.0888,E,0.15,277.79,261124,,,A*6C
$GNVTG,277.79,T,,M,0.15,N,0.28,K,A*21

$GNGGA,001632.000,4441.7425,S,16908.0888,E,1,08,1.53,269.1,M,6.2,M,,*51
$GPGSA,A,3,29,25,12,194,195,20,,,,,,,1.82,1.53,0.98*03
$GLGSA,A,3,74,73,,,,,,,,,,,1.82,1.53,0.98*14
$GPGSV,2,1,07,20,71,070,23,194,59,327,29,25,51,270,34,12,48,340,32*4A
$GPGSV,2,2,07,195,37,291,32,29,36,238,31,46,,,*4B
$GLGSV,2,1,06,74,40,249,35,73,34,308,33,67,33,125,,68,32,064,20*6E
$GLGSV,2,2,06,75,11,201,,69,05,022,*68
$GNRMC,001632.000,A,4441.7425,S,16908.0888,E,0.02,277.79,261124,,,A*68
$GNVTG,277.79,T,,M,0.02,N,0.03,K,A*2E

$GNGGA,001633.000,4441.7424,S,16908.0888,E,1,08,1.53,269.1,M,6.2,M,,*51
$GPGSA,A,3,29,25,12,194,195,20,,,,,,,1.82,1.53,0.98*03
$GLGSA,A,3,74,73,,,,,,,,,,,1.82,1.53,0.98*14
$GNRMC,001633.000,A,4441.7424,S,16908.0888,E,0.18,277.79,261124,,,A*63
$GNVTG,277.79,T,,M,0.18,N,0.33,K,A*26

$GNGGA,001634.000,4441.7424,S,16908.0889,E,1,08,1.53,269.1,M,6.2,M,,*57
$GPGSA,A,3,29,25,12,194,195,20,,,,,,,1.82,1.53,0.98*03
$GLGSA,A,3,74,73,,,,,,,,,,,1.82,1.53,0.98*14
$GNRMC,001634.000,A,4441.7424,S,16908.0889,E,0.05,277.79,261124,,,A*69
$GNVTG,277.79,T,,M,0.05,N,0.09,K,A*23

$GNGGA,001635.000,4441.7424,S,16908.0888,E,1,08,1.53,269.1,M,6.2,M,,*57
$GPGSA,A,3,29,25,12,194,195,20,,,,,,,1.82,1.53,0.98*03
$GLGSA,A,3,74,73,,,,,,,,,,,1.82,1.53,0.98*14
$GNRMC,001635.000,A,4441.7424,S,16908.0888,E,0.17,277.79,261124,,,A*6A
$GNVTG,277.79,T,,M,0.17,N,0.32,K,A*28

$GNGGA,001636.000,4441.7424,S,16908.0889,E,1,08,1.53,269.1,M,6.2,M,,*55
$GPGSA,A,3,29,25,12,194,195,20,,,,,,,1.82,1.53,0.98*03
$GLGSA,A,3,74,73,,,,,,,,,,,1.82,1.53,0.98*14
$GNRMC,001636.000,A,4441.7424,S,16908.0889,E,0.37,277.79,261124,,,A*6A
$GNVTG,277.79,T,,M,0.37,N,0.68,K,A*25

$GNGGA,001637.000,4441.7424,S,16908.0888,E,1,08,1.53,269.1,M,6.2,M,,*55
$GPGSA,A,3,29,25,12,194,195,20,,,,,,,1.82,1.53,0.98*03
$GLGSA,A,3,74,73,,,,,,,,,,,1.82,1.53,0.98*14
$GPGSV,2,1,07,20,71,070,24,194,59,327,29,25,51,270,34,12,48,340,32*4D
$GPGSV,2,2,07,195,37,291,31,29,36,238,31,47,,,*49
$GLGSV,2,1,06,74,40,249,36,73,34,308,33,67,33,125,,68,32,064,19*67
$GLGSV,2,2,06,75,11,201,,69,05,022,*68
$GNRMC,001637.000,A,4441.7424,S,16908.0888,E,0.52,277.79,261124,,,A*69
$GNVTG,277.79,T,,M,0.52,N,0.97,K,A*26

$GNGGA,001638.000,4441.7423,S,16908.0887,E,1,08,1.53,269.1,M,6.2,M,,*52
$GPGSA,A,3,29,25,12,194,195,20,,,,,,,1.82,1.53,0.98*03
$GLGSA,A,3,74,73,,,,,,,,,,,1.82,1.53,0.98*14
$GNRMC,001638.000,A,4441.7423,S,16908.0887,E,0.51,277.79,261124,,,A*6D
$GNVTG,277.79,T,,M,0.51,N,0.95,K,A*27

$GNGGA,001639.000,4441.7422,S,16908.0885,E,1,08,1.53,269.1,M,6.2,M,,*50
$GPGSA,A,3,29,25,12,194,195,20,,,,,,,1.82,1.53,0.98*03
$GLGSA,A,3,74,73,,,,,,,,,,,1.82,1.53,0.98*14
$GNRMC,001639.000,A,4441.7422,S,16908.0885,E,0.39,277.79,261124,,,A*61
$GNVTG,277.79,T,,M,0.39,N,0.71,K,A*23

$GNGGA,001640.000,4441.7422,S,16908.0885,E,1,08,1.53,269.1,M,6.2,M,,*5E
$GPGSA,A,3,29,25,12,194,195,20,,,,,,,1.82,1.53,0.98*03
$GLGSA,A,3,74,73,,,,,,,,,,,1.82,1.53,0.98*14
$GNRMC,001640.000,A,4441.7422,S,16908.0885,E,0.20,277.79,261124,,,A*67
$GNVTG,277.79,T,,M,0.20,N,0.38,K,A*26

$GNGGA,001641.000,4441.7422,S,16908.0884,E,1,08,1.53,269.1,M,6.2,M,,*5E
$GPGSA,A,3,29,25,12,194,195,20,,,,,,,1.82,1.53,0.98*03
$GLGSA,A,3,74,73,,,,,,,,,,,1.82,1.53,0.98*14
$GNRMC,001641.000,A,4441.7422,S,16908.0884,E,0.20,277.79,261124,,,A*67
$GNVTG,277.79,T,,M,0.20,N,0.37,K,A*29

$GNGGA,001642.000,4441.7421,S,16908.0883,E,1,08,1.53,269.1,M,6.2,M,,*59
$GPGSA,A,3,29,25,12,194,195,20,,,,,,,1.82,1.53,0.98*03
$GLGSA,A,3,74,73,,,,,,,,,,,1.82,1.53,0.98*14
$GPGSV,2,1,07,20,71,070,25,194,59,327,29,25,51,270,33,12,48,340,32*4B
$GPGSV,2,2,07,195,37,291,31,29,36,238,31,49,,,*47
$GLGSV,2,1,06,74,40,249,35,73,34,308,32,67,33,125,,68,32,064,*6D
$GLGSV,2,2,06,75,11,201,,69,05,022,*68
$GNRMC,001642.000,A,4441.7421,S,16908.0883,E,1.06,289.65,261124,,,A*69
$GNVTG,289.65,T,,M,1.06,N,1.96,K,A*2A

$GNGGA,001643.000,4441.7422,S,16908.0886,E,1,08,1.53,269.3,M,6.2,M,,*5C
$GPGSA,A,3,29,25,12,194,195,20,,,,,,,1.82,1.53,0.98*03
$GLGSA,A,3,74,73,,,,,,,,,,,1.82,1.53,0.98*14
$GNRMC,001643.000,A,4441.7422,S,16908.0886,E,0.37,289.65,261124,,,A*6D
$GNVTG,289.65,T,,M,0.37,N,0.68,K,A*29

$GNGGA,001644.000,4441.7423,S,16908.0886,E,1,08,1.53,269.3,M,6.2,M,,*5A
$GPGSA,A,3,29,25,12,194,195,20,,,,,,,1.82,1.53,0.98*03
$GLGSA,A,3,74,73,,,,,,,,,,,1.82,1.53,0.98*14
$GNRMC,001644.000,A,4441.7423,S,16908.0886,E,0.35,289.65,261124,,,A*69
$GNVTG,289.65,T,,M,0.35,N,0.65,K,A*26

$GNGGA,001645.000,4441.7423,S,16908.0884,E,1,08,1.53,269.4,M,6.2,M,,*5E
$GPGSA,A,3,29,25,12,194,195,20,,,,,,,1.82,1.53,0.98*03
$GLGSA,A,3,74,73,,,,,,,,,,,1.82,1.53,0.98*14
$GNRMC,001645.000,A,4441.7423,S,16908.0884,E,0.67,265.73,261124,,,A*68
$GNVTG,265.73,T,,M,0.67,N,1.24,K,A*20

$GNGGA,001646.000,4441.7423,S,16908.0880,E,1,08,1.53,269.5,M,6.2,M,,*58
$GPGSA,A,3,29,25,12,194,195,20,,,,,,,1.82,1.53,0.98*03
$GLGSA,A,3,74,73,,,,,,,,,,,1.82,1.53,0.98*14
$GNRMC,001646.000,A,4441.7423,S,16908.0880,E,1.03,262.31,261124,,,A*6D
$GNVTG,262.31,T,,M,1.03,N,1.90,K,A*2D

$GNGGA,001647.000,4441.7425,S,16908.0875,E,1,08,1.53,269.6,M,6.2,M,,*56
$GPGSA,A,3,29,25,12,194,195,20,,,,,,,1.82,1.53,0.98*03
$GLGSA,A,3,74,73,,,,,,,,,,,1.82,1.53,0.98*14
$GPGSV,2,1,07,20,71,070,15,194,59,327,23,25,51,270,18,12,48,340,22*4A
$GPGSV,2,2,07,195,37,291,21,29,36,238,15,19,08,068,*73
$GLGSV,2,1,06,74,40,249,16,73,34,308,24,67,33,125,,68,32,064,20*69
$GLGSV,2,2,06,75,11,201,,69,05,022,*68
$GNRMC,001647.000,A,4441.7425,S,16908.0875,E,1.06,247.85,261124,,,A*6D
$GNVTG,247.85,T,,M,1.06,N,1.97,K,A*27

$GNGGA,001648.000,4441.7426,S,16908.0872,E,1,07,1.61,269.7,M,6.2,M,,*52
$GPGSA,A,3,29,25,12,194,195,20,,,,,,,1.89,1.61,0.98*09
$GLGSA,A,3,73,,,,,,,,,,,,1.89,1.61,0.98*1D
$GNRMC,001648.000,A,4441.7426,S,16908.0872,E,1.01,238.11,261124,,,A*64
$GNVTG,238.11,T,,M,1.01,N,1.88,K,A*2B

$GNGGA,001649.000,4441.7428,S,16908.0868,E,1,07,1.61,269.8,M,6.2,M,,*59
$GPGSA,A,3,29,25,12,194,195,20,,,,,,,1.89,1.61,0.98*09
$GLGSA,A,3,73,,,,,,,,,,,,1.89,1.61,0.98*1D
$GNRMC,001649.000,A,4441.7428,S,16908.0868,E,0.97,237.18,261124,,,A*68
$GNVTG,237.18,T,,M,0.97,N,1.79,K,A*2D

$GNGGA,001650.000,4441.7429,S,16908.0866,E,1,07,1.61,269.8,M,6.2,M,,*5E
$GPGSA,A,3,29,25,12,194,195,20,,,,,,,1.89,1.61,0.98*09
$GLGSA,A,3,73,,,,,,,,,,,,1.89,1.61,0.98*1D
$GNRMC,001650.000,A,4441.7429,S,16908.0866,E,0.72,237.18,261124,,,A*64
$GNVTG,237.18,T,,M,0.72,N,1.34,K,A*2F

$GNGGA,001651.000,4441.7430,S,16908.0862,E,1,07,1.61,269.9,M,6.2,M,,*52
$GPGSA,A,3,29,25,12,194,195,20,,,,,,,1.89,1.61,0.98*09
$GLGSA,A,3,73,,,,,,,,,,,,1.89,1.61,0.98*1D
$GNRMC,001651.000,A,4441.7430,S,16908.0862,E,0.78,237.18,261124,,,A*63
$GNVTG,237.18,T,,M,0.78,N,1.45,K,A*23

$GNGGA,001652.000,4441.7433,S,16908.0856,E,1,06,2.18,270.0,M,6.2,M,,*58
$GPGSA,A,3,25,12,194,195,20,,,,,,,,2.39,2.18,0.99*06
$GLGSA,A,3,73,,,,,,,,,,,,2.39,2.18,0.99*19
$GPGSV,2,1,08,20,71,070,17,194,59,327,25,25,51,270,19,12,48,340,25*47
$GPGSV,2,2,08,195,37,291,37,29,36,238,13,50,33,327,,19,08,068,20*4C
$GLGSV,2,1,07,74,40,249,16,73,34,308,39,67,33,125,,68,32,064,17*60
$GLGSV,2,2,07,82,21,109,,75,11,201,,69,05,022,*58
$GNRMC,001652.000,A,4441.7433,S,16908.0856,E,0.76,237.18,261124,,,A*6A
$GNVTG,237.18,T,,M,0.76,N,1.41,K,A*29

$GNGGA,001653.000,4441.7434,S,16908.0850,E,1,06,2.18,270.1,M,6.2,M,,*59
$GPGSA,A,3,25,12,194,195,20,,,,,,,,2.39,2.18,0.99*06
$GLGSA,A,3,73,,,,,,,,,,,,2.39,2.18,0.99*19
$GNRMC,001653.000,A,4441.7434,S,16908.0850,E,0.71,237.18,261124,,,A*6D
$GNVTG,237.18,T,,M,0.71,N,1.31,K,A*29

$GNGGA,001654.000,4441.7432,S,16908.0844,E,1,06,2.18,270.2,M,6.2,M,,*5E
$GPGSA,A,3,25,12,194,195,20,,,,,,,,2.39,2.18,0.99*06
$GLGSA,A,3,73,,,,,,,,,,,,2.39,2.18,0.99*19
$GNRMC,001654.000,A,4441.7432,S,16908.0844,E,0.42,237.18,261124,,,A*69
$GNVTG,237.18,T,,M,0.42,N,0.78,K,A*25

$GNGGA,001655.000,4441.7426,S,16908.0840,E,1,06,2.18,270.1,M,6.2,M,,*5D
$GPGSA,A,3,25,12,194,195,20,,,,,,,,2.39,2.18,0.99*06
$GLGSA,A,3,73,,,,,,,,,,,,2.39,2.18,0.99*19
$GNRMC,001655.000,A,4441.7426,S,16908.0840,E,0.41,237.18,261124,,,A*6A
$GNVTG,237.18,T,,M,0.41,N,0.76,K,A*28

