GPGSV$GNGGA,214631.088,4441.7396,S,16908.0747,E,1,05,1.40,278.7,M,6.2,M,,*5E
$GPGSA,A,3,24,17,12,11,06,,,,,,,,1.69,1.40,0.96*03
$GLGSA,A,3,,,,,,,,,,,,,1.69,1.40,0.96*1A
$GPGSV,3,1,10,06,78,029,38,11,40,334,37,12,39,233,35,17,38,110,31*75
$GPGSV,3,2,10,24,34,277,36,50,33,327,,193,,,,194,,,*7B
$GPGSV,3,3,10,195,,,,22,,,33*45
$GLGSV,1,1,04,86,,,43,87,,,36,75,,,39,76,,,*6B
$GNRMC,214631.088,A,4441.7396,S,16908.0747,E,0.23,0.00,211124,,,A*66
$GNVTG,0.00,T,,M,0.23,N,0.43,K,A*25

$GNGGA,214633.000,4441.7397,S,16908.0748,E,1,05,1.39,278.7,M,6.2,M,,*5C
$GPGSA,A,3,24,17,12,11,06,,,,,,,,1.69,1.39,0.96*0D
$GLGSA,A,3,,,,,,,,,,,,,1.69,1.39,0.96*14
$GNRMC,214633.000,A,4441.7397,S,16908.0748,E,0.07,0.00,211124,,,A*6C
$GNVTG,0.00,T,,M,0.07,N,0.13,K,A*26

$GNGGA,214634.000,4441.7400,S,16908.0749,E,1,05,1.40,278.2,M,6.2,M,,*58
$GPGSA,A,3,24,17,12,11,06,,,,,,,,1.69,1.40,0.96*03
$GLGSA,A,3,,,,,,,,,,,,,1.69,1.40,0.96*1A
$GNRMC,214634.000,A,4441.7400,S,16908.0749,E,0.22,0.00,211124,,,A*64
$GNVTG,0.00,T,,M,0.22,N,0.42,K,A*25

$GNGGA,214635.000,4441.7402,S,16908.0747,E,1,05,1.40,279.0,M,6.2,M,,*56
$GPGSA,A,3,24,17,12,11,06,,,,,,,,1.69,1.40,0.96*03
$GLGSA,A,3,,,,,,,,,,,,,1.69,1.40,0.96*1A
$GNRMC,214635.000,A,4441.7402,S,16908.0747,E,0.14,0.00,211124,,,A*6C
$GNVTG,0.00,T,,M,0.14,N,0.26,K,A*22

$GNGGA,214636.000,4441.7402,S,16908.0744,E,1,05,1.40,279.7,M,6.2,M,,*51
$GPGSA,A,3,24,17,12,11,06,,,,,,,,1.69,1.40,0.96*03
$GLGSA,A,3,,,,,,,,,,,,,1.69,1.40,0.96*1A
$GNRMC,214636.000,A,4441.7402,S,16908.0744,E,0.03,0.00,211124,,,A*6A
$GNVTG,0.00,T,,M,0.03,N,0.06,K,A*26

$GNGGA,214637.000,4441.7403,S,16908.0742,E,1,05,1.40,279.6,M,6.2,M,,*56
$GPGSA,A,3,24,17,12,11,06,,,,,,,,1.69,1.40,0.96*03
$GLGSA,A,3,,,,,,,,,,,,,1.69,1.40,0.96*1A
$GPGSV,3,1,10,06,78,029,38,11,40,334,36,12,39,233,33,17,38,110,30*73
$GPGSV,3,2,10,24,34,277,36,50,33,327,35,193,,,,194,,,45*7C
$GPGSV,3,3,10,195,,,36,22,,,33*40
$GLGSV,1,1,04,86,,,41,87,,,36,75,,,39,76,,,*69
$GNRMC,214637.000,A,4441.7403,S,16908.0742,E,0.05,0.00,211124,,,A*6A
$GNVTG,0.00,T,,M,0.05,N,0.10,K,A*27

$GNGGA,214638.000,4441.7406,S,16908.0741,E,1,05,1.40,279.6,M,6.2,M,,*5F
$GPGSA,A,3,24,17,12,11,06,,,,,,,,1.69,1.40,0.96*03
$GLGSA,A,3,,,,,,,,,,,,,1.69,1.40,0.96*1A
$GNRMC,214638.000,A,4441.7406,S,16908.0741,E,0.01,0.00,211124,,,A*67
$GNVTG,0.00,T,,M,0.01,N,0.02,K,A*20

$GNGGA,214639.000,4441.7409,S,16908.0739,E,1,05,1.40,279.5,M,6.2,M,,*5D
$GPGSA,A,3,24,17,12,11,06,,,,,,,,1.69,1.40,0.96*03
$GLGSA,A,3,,,,,,,,,,,,,1.69,1.40,0.96*1A
$GNRMC,214639.000,A,4441.7409,S,16908.0739,E,0.05,0.00,211124,,,A*62
$GNVTG,0.00,T,,M,0.05,N,0.10,K,A*27

$GNGGA,214640.000,4441.7425,S,16908.0735,E,1,09,1.10,282.7,M,6.2,M,,*5E
$GPGSA,A,3,24,17,12,11,06,,,,,,,,1.41,1.10,0.88*03
$GLGSA,A,3,86,87,75,76,,,,,,,,,1.41,1.10,0.88*18
$GNRMC,214640.000,A,4441.7425,S,16908.0735,E,0.33,0.00,211124,,,A*6B
$GNVTG,0.00,T,,M,0.33,N,0.62,K,A*27

$GNGGA,214641.000,4441.7425,S,16908.0734,E,1,09,1.10,282.9,M,6.2,M,,*50
$GPGSA,A,3,24,17,12,11,06,,,,,,,,1.41,1.10,0.88*03
$GLGSA,A,3,86,87,75,76,,,,,,,,,1.41,1.10,0.88*18
$GNRMC,214641.000,A,4441.7425,S,16908.0734,E,0.28,0.00,211124,,,A*61
$GNVTG,0.00,T,,M,0.28,N,0.52,K,A*2E

$GNGGA,214642.000,4441.7425,S,16908.0734,E,1,09,1.10,283.1,M,6.2,M,,*5A
$GPGSA,A,3,24,17,12,11,06,,,,,,,,1.41,1.10,0.88*03
$GLGSA,A,3,86,87,75,76,,,,,,,,,1.41,1.10,0.88*18
$GPGSV,3,1,10,06,78,029,40,11,40,334,37,12,39,233,33,17,38,110,31*7C
$GPGSV,3,2,10,24,34,277,36,50,33,327,37,193,,,,194,,,45*7E
$GPGSV,3,3,10,195,,,38,22,,,34*49
$GLGSV,1,1,04,76,74,249,40,86,73,277,42,75,37,019,40,87,25,305,37*66
$GNRMC,214642.000,A,4441.7425,S,16908.0734,E,0.13,0.00,211124,,,A*6A
$GNVTG,0.00,T,,M,0.13,N,0.24,K,A*27

$GNGGA,214643.000,4441.7425,S,16908.0733,E,1,09,1.10,283.3,M,6.2,M,,*5E
$GPGSA,A,3,24,17,12,11,06,,,,,,,,1.41,1.10,0.88*03
$GLGSA,A,3,86,87,75,76,,,,,,,,,1.41,1.10,0.88*18
$GNRMC,214643.000,A,4441.7425,S,16908.0733,E,0.06,0.00,211124,,,A*68
$GNVTG,0.00,T,,M,0.06,N,0.11,K,A*25

$GNGGA,214644.000,4441.7426,S,16908.0733,E,1,09,1.10,283.5,M,6.2,M,,*5C
$GPGSA,A,3,24,17,12,11,06,,,,,,,,1.41,1.10,0.88*03
$GLGSA,A,3,86,87,75,76,,,,,,,,,1.41,1.10,0.88*18
$GNRMC,214644.000,A,4441.7426,S,16908.0733,E,0.09,0.00,211124,,,A*63
$GNVTG,0.00,T,,M,0.09,N,0.16,K,A*2D

$GNGGA,214645.000,4441.7426,S,16908.0732,E,1,09,1.10,283.6,M,6.2,M,,*5F
$GPGSA,A,3,24,17,12,11,06,,,,,,,,1.41,1.10,0.88*03
$GLGSA,A,3,86,87,75,76,,,,,,,,,1.41,1.10,0.88*18
$GNRMC,214645.000,A,4441.7426,S,16908.0732,E,0.03,0.00,211124,,,A*69
$GNVTG,0.00,T,,M,0.03,N,0.05,K,A*25

$GNGGA,214646.000,4441.7427,S,16908.0732,E,1,09,1.10,283.7,M,6.2,M,,*5C
$GPGSA,A,3,24,17,12,11,06,,,,,,,,1.41,1.10,0.88*03
$GLGSA,A,3,86,87,75,76,,,,,,,,,1.41,1.10,0.88*18
$GNRMC,214646.000,A,4441.7427,S,16908.0732,E,0.06,0.00,211124,,,A*6E
$GNVTG,0.00,T,,M,0.06,N,0.11,K,A*25

$GNGGA,214647.000,4441.7427,S,16908.0733,E,1,09,1.10,283.7,M,6.2,M,,*5C
$GPGSA,A,3,24,17,12,11,06,,,,,,,,1.41,1.10,0.88*03
$GLGSA,A,3,86,87,75,76,,,,,,,,,1.41,1.10,0.88*18
$GPGSV,3,1,10,06,78,029,40,11,40,334,36,12,39,233,32,17,38,110,31*7C
$GPGSV,3,2,10,24,34,277,36,42,31,321,,193,,,,194,,,45*7D
$GPGSV,3,3,10,195,,,38,22,,,34*49
$GLGSV,2,1,05,76,74,249,40,86,73,277,42,75,37,019,40,87,25,305,37*64
$GLGSV,2,2,05,85,,,*6D
$GNRMC,214647.000,A,4441.7427,S,16908.0733,E,0.10,0.00,211124,,,A*69
$GNVTG,0.00,T,,M,0.10,N,0.19,K,A*2A

$GNGGA,214648.000,4441.7428,S,16908.0734,E,1,09,1.10,283.7,M,6.2,M,,*5B
$GPGSA,A,3,24,17,12,11,06,,,,,,,,1.41,1.10,0.88*03
$GLGSA,A,3,86,87,75,76,,,,,,,,,1.41,1.10,0.88*18
$GNRMC,214648.000,A,4441.7428,S,16908.0734,E,0.07,0.00,211124,,,A*68
$GNVTG,0.00,T,,M,0.07,N,0.13,K,A*26

$GNGGA,214649.000,4441.7428,S,16908.0734,E,1,10,1.02,283.6,M,6.2,M,,*50
$GPGSA,A,3,24,17,12,11,22,06,,,,,,,1.35,1.02,0.88*03
$GLGSA,A,3,86,87,75,76,,,,,,,,,1.35,1.02,0.88*18
$GNRMC,214649.000,A,4441.7428,S,16908.0734,E,0.09,0.00,211124,,,A*67
$GNVTG,0.00,T,,M,0.09,N,0.16,K,A*2D

$GNGGA,214650.000,4441.7428,S,16908.0735,E,1,10,1.02,283.5,M,6.2,M,,*5A
$GPGSA,A,3,24,17,12,11,22,06,,,,,,,1.35,1.02,0.88*03
$GLGSA,A,3,86,87,75,76,,,,,,,,,1.35,1.02,0.88*18
$GNRMC,214650.000,A,4441.7428,S,16908.0735,E,0.05,0.00,211124,,,A*62
$GNVTG,0.00,T,,M,0.05,N,0.09,K,A*2F

$GNGGA,214651.000,4441.7429,S,16908.0736,E,1,10,1.02,283.4,M,6.2,M,,*58
$GPGSA,A,3,24,17,12,11,22,06,,,,,,,1.35,1.02,0.88*03
$GLGSA,A,3,86,87,75,76,,,,,,,,,1.35,1.02,0.88*18
$GNRMC,214651.000,A,4441.7429,S,16908.0736,E,0.11,0.00,211124,,,A*64
$GNVTG,0.00,T,,M,0.11,N,0.20,K,A*21

$GNGGA,214652.000,4441.7430,S,16908.0737,E,1,10,1.02,283.3,M,6.2,M,,*55
$GPGSA,A,3,24,17,12,11,22,06,,,,,,,1.35,1.02,0.88*03
$GLGSA,A,3,86,87,75,76,,,,,,,,,1.35,1.02,0.88*18
$GPGSV,3,1,10,06,78,029,39,11,40,334,36,12,39,233,31,17,38,110,30*70
$GPGSV,3,2,10,22,37,050,33,24,34,277,37,48,13,066,,193,,,*7A
$GPGSV,3,3,10,194,,,45,195,,,37*7C
$GLGSV,2,1,05,76,74,249,40,86,73,277,42,75,37,019,39,87,25,305,37*6A
$GLGSV,2,2,05,85,,,*6D
$GNRMC,214652.000,A,4441.7430,S,16908.0737,E,0.07,0.00,211124,,,A*69
$GNVTG,0.00,T,,M,0.07,N,0.13,K,A*26

$GNGGA,214653.000,4441.7430,S,16908.0738,E,1,10,1.02,283.1,M,6.2,M,,*59
$GPGSA,A,3,24,17,12,11,22,06,,,,,,,1.35,1.02,0.88*03
$GLGSA,A,3,86,87,75,76,,,,,,,,,1.35,1.02,0.88*18
$GNRMC,214653.000,A,4441.7430,S,16908.0738,E,0.08,0.00,211124,,,A*68
$GNVTG,0.00,T,,M,0.08,N,0.15,K,A*2F

$GNGGA,214654.000,4441.7430,S,16908.0738,E,1,10,1.03,283.1,M,6.2,M,,*5F
$GPGSA,A,3,24,17,12,11,22,06,,,,,,,1.35,1.03,0.88*02
$GLGSA,A,3,86,87,75,76,,,,,,,,,1.35,1.03,0.88*19
$GNRMC,214654.000,A,4441.7430,S,16908.0738,E,0.05,0.00,211124,,,A*62
$GNVTG,0.00,T,,M,0.05,N,0.09,K,A*2F

$GNGGA,214655.000,4441.7431,S,16908.0739,E,1,10,1.02,282.9,M,6.2,M,,*56
$GPGSA,A,3,24,17,12,11,22,06,,,,,,,1.35,1.02,0.88*03
$GLGSA,A,3,86,87,75,76,,,,,,,,,1.35,1.02,0.88*18
$GNRMC,214655.000,A,4441.7431,S,16908.0739,E,0.07,0.00,211124,,,A*61
$GNVTG,0.00,T,,M,0.07,N,0.13,K,A*26

$GNGGA,214656.000,4441.7431,S,16908.0739,E,1,10,1.03,282.9,M,6.2,M,,*54
$GPGSA,A,3,24,17,12,11,22,06,,,,,,,1.35,1.03,0.88*02
$GLGSA,A,3,86,87,75,76,,,,,,,,,1.35,1.03,0.88*19
$GNRMC,214656.000,A,4441.7431,S,16908.0739,E,0.06,0.00,211124,,,A*63
$GNVTG,0.00,T,,M,0.06,N,0.10,K,A*24

$GNGGA,214657.000,4441.7432,S,16908.0739,E,1,10,1.02,282.7,M,6.2,M,,*59
$GPGSA,A,3,24,17,12,11,22,06,,,,,,,1.35,1.02,0.88*03
$GLGSA,A,3,86,87,75,76,,,,,,,,,1.35,1.02,0.88*18
$GPGSV,3,1,10,06,78,029,39,11,40,334,37,12,39,233,30,17,38,110,29*78
$GPGSV,3,2,10,22,37,050,33,24,34,277,37,48,13,066,,193,,,*7A
$GPGSV,3,3,10,194,,,45,195,,,37*7C
$GLGSV,2,1,05,76,74,249,41,86,73,277,43,75,37,019,39,87,25,305,36*6B
$GLGSV,2,2,05,85,,,*6D
$GNRMC,214657.000,A,4441.7432,S,16908.0739,E,0.07,0.00,211124,,,A*60
$GNVTG,0.00,T,,M,0.07,N,0.12,K,A*27

$GNGGA,214658.000,4441.7433,S,16908.0740,E,1,10,1.02,282.6,M,6.2,M,,*58
$GPGSA,A,3,24,17,12,11,22,06,,,,,,,1.35,1.02,0.88*03
$GLGSA,A,3,86,87,75,76,,,,,,,,,1.35,1.02,0.88*18
$GNRMC,214658.000,A,4441.7433,S,16908.0740,E,0.03,0.00,211124,,,A*64
$GNVTG,0.00,T,,M,0.03,N,0.05,K,A*25

$GNGGA,214659.000,4441.7434,S,16908.0740,E,1,10,1.02,282.4,M,6.2,M,,*5C
$GPGSA,A,3,24,17,12,11,22,06,,,,,,,1.35,1.02,0.88*03
$GLGSA,A,3,86,87,75,76,,,,,,,,,1.35,1.02,0.88*18
$GNRMC,214659.000,A,4441.7434,S,16908.0740,E,0.06,0.00,211124,,,A*67
$GNVTG,0.00,T,,M,0.06,N,0.11,K,A*25

$GNGGA,214700.000,4441.7434,S,16908.0740,E,1,10,1.02,282.2,M,6.2,M,,*57
$GPGSA,A,3,24,17,12,11,22,06,,,,,,,1.35,1.02,0.88*03
$GLGSA,A,3,86,87,75,76,,,,,,,,,1.35,1.02,0.88*18
$GNRMC,214700.000,A,4441.7434,S,16908.0740,E,0.06,0.00,211124,,,A*6A
$GNVTG,0.00,T,,M,0.06,N,0.11,K,A*25

$GNGGA,214701.000,4441.7435,S,16908.0741,E,1,11,1.02,281.9,M,6.2,M,,*5F
$GPGSA,A,3,24,17,12,11,22,06,194,,,,,,1.33,1.02,0.86*37
$GLGSA,A,3,86,87,75,76,,,,,,,,,1.33,1.02,0.86*10
$GNRMC,214701.000,A,4441.7435,S,16908.0741,E,0.01,0.00,211124,,,A*6C
$GNVTG,0.00,T,,M,0.01,N,0.02,K,A*20

$GNGGA,214702.000,4441.7436,S,16908.0742,E,1,11,1.02,281.7,M,6.2,M,,*52
$GPGSA,A,3,24,17,12,11,22,06,194,,,,,,1.34,1.02,0.86*30
$GLGSA,A,3,86,87,75,76,,,,,,,,,1.34,1.02,0.86*17
$GPGSV,3,1,10,06,78,029,39,11,40,334,37,12,39,233,30,17,38,110,27*76
$GPGSV,3,2,10,22,37,050,31,24,33,278,38,48,13,066,,193,,,*7F
$GPGSV,3,3,10,194,,,45,195,,,37*7C
$GLGSV,2,1,05,76,74,249,41,86,73,277,43,75,37,019,40,87,25,305,36*65
$GLGSV,2,2,05,85,,,*6D
$GNRMC,214702.000,A,4441.7436,S,16908.0742,E,0.05,0.00,211124,,,A*6B
$GNVTG,0.00,T,,M,0.05,N,0.09,K,A*2F

$GNGGA,214703.000,4441.7437,S,16908.0742,E,1,11,1.02,281.4,M,6.2,M,,*51
$GPGSA,A,3,24,17,12,11,22,06,194,,,,,,1.33,1.02,0.86*37
$GLGSA,A,3,86,87,75,76,,,,,,,,,1.33,1.02,0.86*10
$GNRMC,214703.000,A,4441.7437,S,16908.0742,E,0.06,0.00,211124,,,A*68
$GNVTG,0.00,T,,M,0.06,N,0.12,K,A*26

$GNGGA,214704.000,4441.7437,S,16908.0742,E,1,11,1.02,281.2,M,6.2,M,,*50
$GPGSA,A,3,24,17,12,11,22,06,194,,,,,,1.34,1.02,0.86*30
$GLGSA,A,3,86,87,75,76,,,,,,,,,1.34,1.02,0.86*17
$GNRMC,214704.000,A,4441.7437,S,16908.0742,E,0.05,0.00,211124,,,A*6C
$GNVTG,0.00,T,,M,0.05,N,0.10,K,A*27

$GNGGA,214705.000,4441.7438,S,16908.0743,E,1,11,1.02,281.0,M,6.2,M,,*5D
$GPGSA,A,3,24,17,12,11,22,06,194,,,,,,1.34,1.02,0.86*30
$GLGSA,A,3,86,87,75,76,,,,,,,,,1.34,1.02,0.86*17
$GNRMC,214705.000,A,4441.7438,S,16908.0743,E,0.02,0.00,211124,,,A*64
$GNVTG,0.00,T,,M,0.02,N,0.05,K,A*24

$GNGGA,214706.000,4441.7442,S,16908.0742,E,1,11,1.02,280.6,M,6.2,M,,*55
$GPGSA,A,3,24,17,12,11,22,06,194,,,,,,1.33,1.02,0.86*37
$GLGSA,A,3,86,87,75,76,,,,,,,,,1.33,1.02,0.86*10
$GNRMC,214706.000,A,4441.7442,S,16908.0742,E,0.05,0.00,211124,,,A*6C
$GNVTG,0.00,T,,M,0.05,N,0.09,K,A*2F

$GNGGA,214707.000,4441.7446,S,16908.0741,E,1,11,1.02,280.2,M,6.2,M,,*57
$GPGSA,A,3,24,17,12,11,22,06,194,,,,,,1.33,1.02,0.86*37
$GLGSA,A,3,86,87,75,76,,,,,,,,,1.33,1.02,0.86*10
$GPGSV,3,1,09,06,78,029,39,11,40,334,37,12,39,233,30,17,38,110,27*7E
$GPGSV,3,2,09,22,37,050,28,24,33,278,38,48,13,066,,194,,,45*79
$GPGSV,3,3,09,195,,,37*49
$GLGSV,2,1,05,76,74,249,41,86,73,277,43,75,37,019,41,87,25,305,36*64
$GLGSV,2,2,05,85,,,*6D
$GNRMC,214707.000,A,4441.7446,S,16908.0741,E,0.11,0.00,211124,,,A*6F
$GNVTG,0.00,T,,M,0.11,N,0.20,K,A*21

$GNGGA,214708.000,4441.7447,S,16908.0743,E,1,11,1.02,280.2,M,6.2,M,,*5B
$GPGSA,A,3,24,17,12,11,22,06,194,,,,,,1.34,1.02,0.86*30
$GLGSA,A,3,86,87,75,76,,,,,,,,,1.34,1.02,0.86*17
$GNRMC,214708.000,A,4441.7447,S,16908.0743,E,0.10,0.00,211124,,,A*62
$GNVTG,0.00,T,,M,0.10,N,0.18,K,A*2B

$GNGGA,214709.000,4441.7448,S,16908.0745,E,1,11,1.02,280.4,M,6.2,M,,*55
$GPGSA,A,3,24,17,12,11,22,06,194,,,,,,1.34,1.02,0.86*30
$GLGSA,A,3,86,87,75,76,,,,,,,,,1.34,1.02,0.86*17
$GNRMC,214709.000,A,4441.7448,S,16908.0745,E,0.11,0.00,211124,,,A*6B
$GNVTG,0.00,T,,M,0.11,N,0.20,K,A*21

$GNGGA,214710.000,4441.7448,S,16908.0745,E,1,12,0.90,280.7,M,6.2,M,,*57
$GPGSA,A,3,24,17,12,11,22,06,194,,,,,,1.24,0.90,0.85*38
$GLGSA,A,3,86,87,85,75,76,,,,,,,,1.24,0.90,0.85*12
$GNRMC,214710.000,A,4441.7448,S,16908.0745,E,0.10,0.00,211124,,,A*62
$GNVTG,0.00,T,,M,0.10,N,0.19,K,A*2A

$GNGGA,214711.000,4441.7446,S,16908.0743,E,1,12,0.90,281.1,M,6.2,M,,*59
$GPGSA,A,3,24,17,12,11,22,06,194,,,,,,1.24,0.90,0.85*38
$GLGSA,A,3,86,87,85,75,76,,,,,,,,1.24,0.90,0.85*12
$GNRMC,214711.000,A,4441.7446,S,16908.0743,E,0.03,0.00,211124,,,A*69
$GNVTG,0.00,T,,M,0.03,N,0.05,K,A*25

$GNGGA,214712.000,4441.7446,S,16908.0741,E,1,12,0.90,281.3,M,6.2,M,,*5A
$GPGSA,A,3,24,17,12,11,22,06,194,,,,,,1.24,0.90,0.85*38
$GLGSA,A,3,86,87,85,75,76,,,,,,,,1.24,0.90,0.85*12
$GPGSV,3,1,09,06,78,029,39,11,40,334,38,12,39,233,31,17,38,110,27*70
$GPGSV,3,2,09,22,37,050,25,24,33,278,38,42,31,321,,194,,,45*7E
$GPGSV,3,3,09,195,,,37*49
$GLGSV,2,1,05,76,74,249,40,86,73,277,42,85,42,144,30,75,37,019,41*66
$GLGSV,2,2,05,87,25,305,36*5B
$GNRMC,214712.000,A,4441.7446,S,16908.0741,E,0.06,0.00,211124,,,A*6D
$GNVTG,0.00,T,,M,0.06,N,0.11,K,A*25

$GNGGA,214713.000,4441.7446,S,16908.0744,E,1,12,0.90,281.6,M,6.2,M,,*5B
$GPGSA,A,3,24,17,12,11,22,06,194,,,,,,1.24,0.90,0.85*38
$GLGSA,A,3,86,87,85,75,76,,,,,,,,1.24,0.90,0.85*12
$GNRMC,214713.000,A,4441.7446,S,16908.0744,E,0.13,0.00,211124,,,A*6D
$GNVTG,0.00,T,,M,0.13,N,0.25,K,A*26

$GNGGA,214714.000,4441.7445,S,16908.0743,E,1,12,0.90,281.7,M,6.2,M,,*59
$GPGSA,A,3,24,17,12,11,22,06,194,,,,,,1.24,0.90,0.85*38
$GLGSA,A,3,86,87,85,75,76,,,,,,,,1.24,0.90,0.85*12
$GNRMC,214714.000,A,4441.7445,S,16908.0743,E,0.15,0.00,211124,,,A*68
$GNVTG,0.00,T,,M,0.15,N,0.27,K,A*22

$GNGGA,214715.000,4441.7445,S,16908.0744,E,1,12,0.90,281.8,M,6.2,M,,*50
$GPGSA,A,3,24,17,12,11,22,06,194,,,,,,1.24,0.90,0.85*38
$GLGSA,A,3,86,87,85,75,76,,,,,,,,1.24,0.90,0.85*12
$GNRMC,214715.000,A,4441.7445,S,16908.0744,E,0.05,0.00,211124,,,A*6F
$GNVTG,0.00,T,,M,0.05,N,0.09,K,A*2F

$GNGGA,214716.000,4441.7445,S,16908.0744,E,1,12,0.90,282.0,M,6.2,M,,*58
$GPGSA,A,3,24,17,12,11,22,06,194,,,,,,1.24,0.90,0.85*38
$GLGSA,A,3,86,87,85,75,76,,,,,,,,1.24,0.90,0.85*12
$GNRMC,214716.000,A,4441.7445,S,16908.0744,E,0.06,0.00,211124,,,A*6F
$GNVTG,0.00,T,,M,0.06,N,0.10,K,A*24

$GNGGA,214717.000,4441.7444,S,16908.0745,E,1,12,0.90,282.2,M,6.2,M,,*5B
$GPGSA,A,3,24,17,12,11,22,06,194,,,,,,1.24,0.90,0.85*38
$GLGSA,A,3,86,87,85,75,76,,,,,,,,1.24,0.90,0.85*12
$GPGSV,3,1,09,06,78,029,38,194,67,275,45,11,40,334,38,12,39,233,32*46
$GPGSV,3,2,09,17,38,110,28,22,37,050,21,24,33,278,38,42,31,321,*70
$GPGSV,3,3,09,195,,,37*49
$GLGSV,2,1,05,76,74,249,40,86,73,277,42,85,42,144,29,75,37,019,41*6E
$GLGSV,2,2,05,87,25,305,37*5A
$GNRMC,214717.000,A,4441.7444,S,16908.0745,E,0.08,0.00,211124,,,A*60
$GNVTG,0.00,T,,M,0.08,N,0.15,K,A*2F

$GNGGA,214718.000,4441.7443,S,16908.0744,E,1,12,0.90,282.4,M,6.2,M,,*54
$GPGSA,A,3,24,17,12,11,22,06,194,,,,,,1.24,0.90,0.85*38
$GLGSA,A,3,86,87,85,75,76,,,,,,,,1.24,0.90,0.85*12
$GNRMC,214718.000,A,4441.7443,S,16908.0744,E,0.02,0.00,211124,,,A*63
$GNVTG,0.00,T,,M,0.02,N,0.04,K,A*25

$GNGGA,214719.000,4441.7444,S,16908.0745,E,1,13,0.87,282.6,M,6.2,M,,*56
$GPGSA,A,3,24,17,12,11,22,06,195,194,,,,,1.20,0.87,0.83*01
$GLGSA,A,3,86,87,85,75,76,,,,,,,,1.20,0.87,0.83*16
$GNRMC,214719.000,A,4441.7444,S,16908.0745,E,0.04,0.00,211124,,,A*62
$GNVTG,0.00,T,,M,0.04,N,0.08,K,A*2F

$GNGGA,214720.000,4441.7443,S,16908.0746,E,1,13,0.87,283.2,M,6.2,M,,*5D
$GPGSA,A,3,24,17,12,11,22,06,195,194,,,,,1.20,0.87,0.83*01
$GLGSA,A,3,86,87,85,75,76,,,,,,,,1.20,0.87,0.83*16
$GNRMC,214720.000,A,4441.7443,S,16908.0746,E,0.03,0.00,211124,,,A*6B
$GNVTG,0.00,T,,M,0.03,N,0.06,K,A*26

$GNGGA,214721.000,4441.7442,S,16908.0747,E,1,13,0.87,283.8,M,6.2,M,,*56
$GPGSA,A,3,24,17,12,11,22,06,195,194,,,,,1.20,0.87,0.83*01
$GLGSA,A,3,86,87,85,75,76,,,,,,,,1.20,0.87,0.83*16
$GNRMC,214721.000,A,4441.7442,S,16908.0747,E,0.03,0.00,211124,,,A*6A
$GNVTG,0.00,T,,M,0.03,N,0.06,K,A*26

$GNGGA,214722.000,4441.7441,S,16908.0748,E,1,13,0.87,284.1,M,6.2,M,,*57
$GPGSA,A,3,24,17,12,11,22,06,195,194,,,,,1.20,0.87,0.83*01
$GLGSA,A,3,86,87,85,75,76,,,,,,,,1.20,0.87,0.83*16
$GPGSV,3,1,09,06,78,029,38,194,67,275,45,11,40,334,39,12,39,233,33*46
$GPGSV,3,2,09,17,38,110,28,22,37,050,19,24,33,278,38,42,31,321,*7B
$GPGSV,3,3,09,195,,,37*49
$GLGSV,2,1,05,76,74,249,40,86,73,277,41,85,42,144,30,75,37,019,39*6A
$GLGSV,2,2,05,87,25,305,37*5A
$GNRMC,214722.000,A,4441.7441,S,16908.0748,E,0.04,0.00,211124,,,A*62
$GNVTG,0.00,T,,M,0.04,N,0.08,K,A*2F

$GNGGA,214723.000,4441.7441,S,16908.0748,E,1,13,0.87,284.3,M,6.2,M,,*54
$GPGSA,A,3,24,17,12,11,22,06,195,194,,,,,1.20,0.87,0.83*01
$GLGSA,A,3,86,87,85,75,76,,,,,,,,1.20,0.87,0.83*16
$GNRMC,214723.000,A,4441.7441,S,16908.0748,E,0.02,0.00,211124,,,A*65
$GNVTG,0.00,T,,M,0.02,N,0.04,K,A*25

$GNGGA,214724.000,4441.7441,S,16908.0750,E,1,13,0.87,284.7,M,6.2,M,,*5E
$GPGSA,A,3,24,17,12,11,22,06,195,194,,,,,1.20,0.87,0.83*01
$GLGSA,A,3,86,87,85,75,76,,,,,,,,1.20,0.87,0.83*16
$GNRMC,214724.000,A,4441.7441,S,16908.0750,E,0.03,0.00,211124,,,A*6A
$GNVTG,0.00,T,,M,0.03,N,0.05,K,A*25

$GNGGA,214725.000,4441.7442,S,16908.0750,E,1,13,0.87,284.8,M,6.2,M,,*53
$GPGSA,A,3,24,17,12,11,22,06,195,194,,,,,1.20,0.87,0.83*01
$GLGSA,A,3,86,87,85,75,76,,,,,,,,1.20,0.87,0.83*16
$GNRMC,214725.000,A,4441.7442,S,16908.0750,E,0.07,0.00,211124,,,A*6C
$GNVTG,0.00,T,,M,0.07,N,0.14,K,A*21

$GNGGA,214726.000,4441.7441,S,16908.0749,E,1,13,0.87,285.0,M,6.2,M,,*52
$GPGSA,A,3,24,17,12,11,22,06,195,194,,,,,1.20,0.87,0.83*01
$GLGSA,A,3,86,87,85,75,76,,,,,,,,1.20,0.87,0.83*16
$GNRMC,214726.000,A,4441.7441,S,16908.0749,E,0.03,0.00,211124,,,A*60
$GNVTG,0.00,T,,M,0.03,N,0.06,K,A*26

$GNGGA,214727.000,4441.7441,S,16908.0749,E,1,13,0.87,285.2,M,6.2,M,,*51
$GPGSA,A,3,24,17,12,11,22,06,195,194,,,,,1.20,0.87,0.83*01
$GLGSA,A,3,86,87,85,75,76,,,,,,,,1.20,0.87,0.83*16
$GPGSV,3,1,09,06,78,029,39,194,67,275,46,11,40,334,40,12,39,233,34*4D
$GPGSV,3,2,09,17,38,110,31,22,37,050,20,24,33,278,39,42,31,321,*78
$GPGSV,3,3,09,195,,,38*46
$GLGSV,2,1,05,76,74,249,37,86,73,277,40,85,42,144,29,75,37,019,37*6D
$GLGSV,2,2,05,87,25,305,36*5B
$GNRMC,214727.000,A,4441.7441,S,16908.0749,E,0.03,0.00,211124,,,A*61
$GNVTG,0.00,T,,M,0.03,N,0.06,K,A*26

$GNGGA,214728.000,4441.7440,S,16908.0748,E,1,13,0.87,285.5,M,6.2,M,,*59
$GPGSA,A,3,24,17,12,11,22,06,195,194,,,,,1.20,0.87,0.83*01
$GLGSA,A,3,86,87,85,75,76,,,,,,,,1.20,0.87,0.83*16
$GNRMC,214728.000,A,4441.7440,S,16908.0748,E,0.00,0.00,211124,,,A*6D
$GNVTG,0.00,T,,M,0.00,N,0.01,K,A*22

$GNGGA,214729.000,4441.7440,S,16908.0750,E,1,13,0.87,285.6,M,6.2,M,,*52
$GPGSA,A,3,24,17,12,11,22,06,195,194,,,,,1.20,0.87,0.83*01
$GLGSA,A,3,86,87,85,75,76,,,,,,,,1.20,0.87,0.83*16
$GNRMC,214729.000,A,4441.7440,S,16908.0750,E,0.06,0.00,211124,,,A*63
$GNVTG,0.00,T,,M,0.06,N,0.11,K,A*25

$GNGGA,214730.000,4441.7440,S,16908.0750,E,1,13,0.87,285.8,M,6.2,M,,*54
$GPGSA,A,3,24,17,12,11,22,06,195,194,,,,,1.20,0.87,0.83*01
$GLGSA,A,3,86,87,85,75,76,,,,,,,,1.20,0.87,0.83*16
$GNRMC,214730.000,A,4441.7440,S,16908.0750,E,0.05,0.00,211124,,,A*68
$GNVTG,0.00,T,,M,0.05,N,0.09,K,A*2F

$GNGGA,214731.000,4441.7439,S,16908.0750,E,1,13,0.87,286.0,M,6.2,M,,*50
$GPGSA,A,3,24,17,12,11,22,06,195,194,,,,,1.20,0.87,0.83*01
$GLGSA,A,3,86,87,85,75,76,,,,,,,,1.20,0.87,0.83*16
$GNRMC,214731.000,A,4441.7439,S,16908.0750,E,0.03,0.00,211124,,,A*61
$GNVTG,0.00,T,,M,0.03,N,0.05,K,A*25

$GNGGA,214732.000,4441.7438,S,16908.0748,E,1,13,0.87,286.3,M,6.2,M,,*58
$GPGSA,A,3,24,17,12,11,22,06,195,194,,,,,1.20,0.87,0.83*01
$GLGSA,A,3,86,87,85,75,76,,,,,,,,1.20,0.87,0.83*16
$GPGSV,3,1,09,06,78,029,39,194,67,275,46,11,40,334,40,12,39,233,35*4C
$GPGSV,3,2,09,17,38,110,31,22,37,050,23,24,33,278,40,48,13,066,*7F
$GPGSV,3,3,09,195,,,38*46
$GLGSV,2,1,05,76,74,249,36,86,73,277,40,85,42,144,31,75,37,019,37*65
$GLGSV,2,2,05,87,25,305,36*5B
$GNRMC,214732.000,A,4441.7438,S,16908.0748,E,0.03,0.00,211124,,,A*6A
$GNVTG,0.00,T,,M,0.03,N,0.06,K,A*26

$GNGGA,214733.000,4441.7439,S,16908.0749,E,1,13,0.87,286.1,M,6.2,M,,*5B
$GPGSA,A,3,24,17,12,11,22,06,195,194,,,,,1.20,0.87,0.83*01
$GLGSA,A,3,86,87,85,75,76,,,,,,,,1.20,0.87,0.83*16
$GNRMC,214733.000,A,4441.7439,S,16908.0749,E,0.32,0.00,211124,,,A*69
$GNVTG,0.00,T,,M,0.32,N,0.59,K,A*2E

$GNGGA,214734.000,4441.7439,S,16908.0748,E,1,13,0.87,286.2,M,6.2,M,,*5E
$GPGSA,A,3,24,17,12,11,22,06,195,194,,,,,1.20,0.87,0.83*01
$GLGSA,A,3,86,87,85,75,76,,,,,,,,1.20,0.87,0.83*16
$GNRMC,214734.000,A,4441.7439,S,16908.0748,E,0.22,0.00,211124,,,A*6E
$GNVTG,0.00,T,,M,0.22,N,0.40,K,A*27

$GNGGA,214735.000,4441.7438,S,16908.0748,E,1,13,0.87,286.3,M,6.2,M,,*5F
$GPGSA,A,3,24,17,12,11,22,06,195,194,,,,,1.20,0.87,0.83*01
$GLGSA,A,3,86,87,85,75,76,,,,,,,,1.20,0.87,0.83*16
$GNRMC,214735.000,A,4441.7438,S,16908.0748,E,0.05,0.00,211124,,,A*6B
$GNVTG,0.00,T,,M,0.05,N,0.09,K,A*2F

$GNGGA,214736.000,4441.7438,S,16908.0748,E,1,13,0.87,286.3,M,6.2,M,,*5C
$GPGSA,A,3,24,17,12,11,22,06,195,194,,,,,1.20,0.87,0.83*01
$GLGSA,A,3,86,87,85,75,76,,,,,,,,1.20,0.87,0.83*16
$GNRMC,214736.000,A,4441.7438,S,16908.0748,E,0.06,0.00,211124,,,A*6B
$GNVTG,0.00,T,,M,0.06,N,0.11,K,A*25

$GNGGA,214737.000,4441.7438,S,16908.0748,E,1,13,0.87,286.3,M,6.2,M,,*5D
$GPGSA,A,3,24,17,12,11,22,06,195,194,,,,,1.20,0.87,0.83*01
$GLGSA,A,3,86,87,85,75,76,,,,,,,,1.20,0.87,0.83*16
$GPGSV,3,1,09,06,78,029,39,194,67,275,46,11,40,334,40,12,39,233,35*4C
$GPGSV,3,2,09,17,38,110,32,22,37,050,26,24,33,278,40,48,13,066,*79
$GPGSV,3,3,09,195,,,38*46
$GLGSV,2,1,05,76,74,249,36,86,73,277,40,85,42,144,33,75,37,019,35*65
$GLGSV,2,2,05,87,25,305,37*5A
$GNRMC,214737.000,A,4441.7438,S,16908.0748,E,0.02,0.00,211124,,,A*6E
$GNVTG,0.00,T,,M,0.02,N,0.03,K,A*22

$GNGGA,214738.000,4441.7438,S,16908.0748,E,1,13,0.87,286.3,M,6.2,M,,*52
$GPGSA,A,3,24,17,12,11,22,06,195,194,,,,,1.20,0.87,0.83*01
$GLGSA,A,3,86,87,85,75,76,,,,,,,,1.20,0.87,0.83*16
$GNRMC,214738.000,A,4441.7438,S,16908.0748,E,0.02,0.00,211124,,,A*61
$GNVTG,0.00,T,,M,0.02,N,0.04,K,A*25

$GNGGA,214739.000,4441.7438,S,16908.0747,E,1,13,0.87,286.3,M,6.2,M,,*5C
$GPGSA,A,3,24,17,12,11,22,06,195,194,,,,,1.20,0.87,0.83*01
$GLGSA,A,3,86,87,85,75,76,,,,,,,,1.20,0.87,0.83*16
$GNRMC,214739.000,A,4441.7438,S,16908.0747,E,0.10,0.00,211124,,,A*6C
$GNVTG,0.00,T,,M,0.10,N,0.19,K,A*2A

$GNGGA,214740.000,4441.7438,S,16908.0747,E,1,13,0.87,286.3,M,6.2,M,,*52
$GPGSA,A,3,24,17,12,11,22,06,195,194,,,,,1.20,0.87,0.83*01
$GLGSA,A,3,86,87,85,75,76,,,,,,,,1.20,0.87,0.83*16
$GNRMC,214740.000,A,4441.7438,S,16908.0747,E,0.30,0.00,211124,,,A*60
$GNVTG,0.00,T,,M,0.30,N,0.56,K,A*23

$GNGGA,214741.000,4441.7438,S,16908.0747,E,1,13,0.87,286.3,M,6.2,M,,*53
$GPGSA,A,3,24,17,12,11,22,06,195,194,,,,,1.20,0.87,0.83*01
$GLGSA,A,3,86,87,85,75,76,,,,,,,,1.20,0.87,0.83*16
$GNRMC,214741.000,A,4441.7438,S,16908.0747,E,0.10,0.00,211124,,,A*63
$GNVTG,0.00,T,,M,0.10,N,0.19,K,A*2A

$GNGGA,214742.000,4441.7438,S,16908.0746,E,1,13,0.87,286.3,M,6.2,M,,*51
$GPGSA,A,3,24,17,12,11,22,06,195,194,,,,,1.20,0.87,0.83*01
$GLGSA,A,3,86,87,85,75,76,,,,,,,,1.20,0.87,0.83*16
$GPGSV,3,1,09,06,78,029,38,194,67,275,46,11,40,334,41,12,39,233,35*4C
$GPGSV,3,2,09,17,38,110,32,22,37,050,29,24,33,278,40,48,13,066,*76
$GPGSV,3,3,09,195,,,38*46
$GLGSV,2,1,05,76,74,249,37,86,73,277,40,85,42,144,32,75,37,019,35*65
$GLGSV,2,2,05,87,25,305,38*55
$GNRMC,214742.000,A,4441.7438,S,16908.0746,E,0.11,0.00,211124,,,A*60
$GNVTG,0.00,T,,M,0.11,N,0.20,K,A*21

$GNGGA,214743.000,4441.7438,S,16908.0746,E,1,13,0.87,286.3,M,6.2,M,,*50
$GPGSA,A,3,24,17,12,11,22,06,195,194,,,,,1.20,0.87,0.83*01
$GLGSA,A,3,86,87,85,75,76,,,,,,,,1.20,0.87,0.83*16
$GNRMC,214743.000,A,4441.7438,S,16908.0746,E,0.09,0.00,211124,,,A*68
$GNVTG,0.00,T,,M,0.09,N,0.16,K,A*2D

$GNGGA,214744.000,4441.7438,S,16908.0746,E,1,13,0.87,286.4,M,6.2,M,,*50
$GPGSA,A,3,24,17,12,11,22,06,195,194,,,,,1.20,0.87,0.83*01
$GLGSA,A,3,86,87,85,75,76,,,,,,,,1.20,0.87,0.83*16
$GNRMC,214744.000,A,4441.7438,S,16908.0746,E,0.05,0.00,211124,,,A*63
$GNVTG,0.00,T,,M,0.05,N,0.10,K,A*27

$GNGGA,214745.000,4441.7438,S,16908.0746,E,1,13,0.87,286.4,M,6.2,M,,*51
$GPGSA,A,3,24,17,12,11,22,06,195,194,,,,,1.20,0.87,0.83*01
$GLGSA,A,3,86,87,85,75,76,,,,,,,,1.20,0.87,0.83*16
$GNRMC,214745.000,A,4441.7438,S,16908.0746,E,0.41,0.00,211124,,,A*62
$GNVTG,0.00,T,,M,0.41,N,0.76,K,A*27

$GNGGA,214746.000,4441.7438,S,16908.0745,E,1,13,0.87,286.4,M,6.2,M,,*51
$GPGSA,A,3,24,17,12,11,22,06,195,194,,,,,1.20,0.87,0.83*01
$GLGSA,A,3,86,87,85,75,76,,,,,,,,1.20,0.87,0.83*16
$GNRMC,214746.000,A,4441.7438,S,16908.0745,E,0.17,0.00,211124,,,A*61
$GNVTG,0.00,T,,M,0.17,N,0.31,K,A*27

$GNGGA,214747.000,4441.7438,S,16908.0745,E,1,13,0.87,286.4,M,6.2,M,,*50
$GPGSA,A,3,24,17,12,11,22,06,195,194,,,,,1.20,0.87,0.83*01
$GLGSA,A,3,86,87,85,75,76,,,,,,,,1.20,0.87,0.83*16
$GPGSV,3,1,09,06,78,029,38,194,67,275,46,11,40,334,41,12,39,233,35*4C
$GPGSV,3,2,09,17,38,110,32,22,37,050,31,24,33,278,40,48,13,066,*7F
$GPGSV,3,3,09,195,,,38*46
$GLGSV,2,1,05,76,74,249,38,86,73,277,40,85,42,144,32,75,37,019,35*6A
$GLGSV,2,2,05,87,25,305,39*54
$GNRMC,214747.000,A,4441.7438,S,16908.0745,E,0.07,0.00,211124,,,A*61
$GNVTG,0.00,T,,M,0.07,N,0.13,K,A*26

$GNGGA,214748.000,4441.7438,S,16908.0744,E,1,13,0.87,286.4,M,6.2,M,,*5E
$GPGSA,A,3,24,17,12,11,22,06,195,194,,,,,1.20,0.87,0.83*01
$GLGSA,A,3,86,87,85,75,76,,,,,,,,1.20,0.87,0.83*16
$GNRMC,214748.000,A,4441.7438,S,16908.0744,E,0.09,0.00,211124,,,A*61
$GNVTG,0.00,T,,M,0.09,N,0.17,K,A*2C

$GNGGA,214749.000,4441.7438,S,16908.0744,E,1,13,0.87,286.5,M,6.2,M,,*5E
$GPGSA,A,3,24,17,12,11,22,06,195,194,,,,,1.20,0.87,0.83*01
$GLGSA,A,3,86,87,85,75,76,,,,,,,,1.20,0.87,0.83*16
$GNRMC,214749.000,A,4441.7438,S,16908.0744,E,0.05,0.00,211124,,,A*6C
$GNVTG,0.00,T,,M,0.05,N,0.09,K,A*2F

$GNGGA,214750.000,4441.7438,S,16908.0744,E,1,13,0.87,286.5,M,6.2,M,,*56
$GPGSA,A,3,24,17,12,11,22,06,195,194,,,,,1.20,0.87,0.83*01
$GLGSA,A,3,86,87,85,75,76,,,,,,,,1.20,0.87,0.83*16
$GNRMC,214750.000,A,4441.7438,S,16908.0744,E,0.07,0.00,211124,,,A*66
$GNVTG,0.00,T,,M,0.07,N,0.13,K,A*26

$GNGGA,214751.000,4441.7438,S,16908.0744,E,1,13,0.87,286.5,M,6.2,M,,*57
$GPGSA,A,3,24,17,12,11,22,06,195,194,,,,,1.20,0.87,0.83*01
$GLGSA,A,3,86,87,85,75,76,,,,,,,,1.20,0.87,0.83*16
$GNRMC,214751.000,A,4441.7438,S,16908.0744,E,0.05,0.00,211124,,,A*65
$GNVTG,0.00,T,,M,0.05,N,0.09,K,A*2F

$GNGGA,214752.000,4441.7437,S,16908.0744,E,1,13,0.87,286.5,M,6.2,M,,*5B
$GPGSA,A,3,24,17,12,11,22,06,195,194,,,,,1.20,0.87,0.83*01
$GLGSA,A,3,86,87,85,75,76,,,,,,,,1.20,0.87,0.83*16
$GPGSV,3,1,09,06,78,029,38,194,67,275,46,11,40,334,41,12,39,233,34*4D
$GPGSV,3,2,09,17,38,110,33,22,37,050,32,24,33,278,40,195,,,38*75
$GPGSV,3,3,09,34,,,*77
$GLGSV,2,1,05,76,74,249,38,86,73,277,41,85,42,144,31,75,37,019,35*68
$GLGSV,2,2,05,87,25,305,39*54
$GNRMC,214752.000,A,4441.7437,S,16908.0744,E,0.05,0.00,211124,,,A*69
$GNVTG,0.00,T,,M,0.05,N,0.09,K,A*2F

$GNGGA,214753.000,4441.7438,S,16908.0744,E,1,13,0.87,286.5,M,6.2,M,,*55
$GPGSA,A,3,24,17,12,11,22,06,195,194,,,,,1.20,0.87,0.83*01
$GLGSA,A,3,86,87,85,75,76,,,,,,,,1.20,0.87,0.83*16
$GNRMC,214753.000,A,4441.7438,S,16908.0744,E,0.03,0.00,211124,,,A*61
$GNVTG,0.00,T,,M,0.03,N,0.05,K,A*25

$GNGGA,214754.000,4441.7437,S,16908.0744,E,1,13,0.87,286.5,M,6.2,M,,*5D
$GPGSA,A,3,24,17,12,11,22,06,195,194,,,,,1.20,0.87,0.83*01
$GLGSA,A,3,86,87,85,75,76,,,,,,,,1.20,0.87,0.83*16
$GNRMC,214754.000,A,4441.7437,S,16908.0744,E,0.03,0.00,211124,,,A*69
$GNVTG,0.00,T,,M,0.03,N,0.05,K,A*25

$GNGGA,214755.000,4441.7437,S,16908.0744,E,1,13,0.87,286.5,M,6.2,M,,*5C
$GPGSA,A,3,24,17,12,11,22,06,195,194,,,,,1.20,0.87,0.83*01
$GLGSA,A,3,86,87,85,75,76,,,,,,,,1.20,0.87,0.83*16
$GNRMC,214755.000,A,4441.7437,S,16908.0744,E,0.04,0.00,211124,,,A*6F
$GNVTG,0.00,T,,M,0.04,N,0.07,K,A*20

$GNGGA,214756.000,4441.7437,S,16908.0744,E,1,13,0.87,286.5,M,6.2,M,,*5F
$GPGSA,A,3,24,17,12,11,22,06,195,194,,,,,1.20,0.87,0.83*01
$GLGSA,A,3,86,87,85,75,76,,,,,,,,1.20,0.87,0.83*16
$GNRMC,214756.000,A,4441.7437,S,16908.0744,E,0.03,0.00,211124,,,A*6B
$GNVTG,0.00,T,,M,0.03,N,0.06,K,A*26

$GNGGA,214757.000,4441.7437,S,16908.0744,E,1,13,0.87,286.5,M,6.2,M,,*5E
$GPGSA,A,3,24,17,12,11,22,06,195,194,,,,,1.20,0.87,0.83*01
$GLGSA,A,3,86,87,85,75,76,,,,,,,,1.20,0.87,0.83*16
$GPGSV,3,1,09,06,78,029,38,194,67,275,46,11,40,334,42,12,39,233,35*4F
$GPGSV,3,2,09,17,38,110,33,22,37,050,33,24,33,278,40,195,,,38*74
$GPGSV,3,3,09,34,,,*77
$GLGSV,2,1,06,76,74,249,39,86,73,277,41,85,42,144,26,75,37,019,35*6C
$GLGSV,2,2,06,87,25,305,39,68,01,194,*64
$GNRMC,214757.000,A,4441.7437,S,16908.0744,E,0.02,0.00,211124,,,A*6B
$GNVTG,0.00,T,,M,0.02,N,0.03,K,A*22

$GNGGA,214758.000,4441.7437,S,16908.0744,E,1,13,0.87,286.5,M,6.2,M,,*51
$GPGSA,A,3,24,17,12,11,22,06,195,194,,,,,1.20,0.87,0.83*01
$GLGSA,A,3,86,87,85,75,76,,,,,,,,1.20,0.87,0.83*16
$GNRMC,214758.000,A,4441.7437,S,16908.0744,E,0.07,0.00,211124,,,A*61
$GNVTG,0.00,T,,M,0.07,N,0.13,K,A*26

$GNGGA,214759.000,4441.7437,S,16908.0744,E,1,13,0.87,286.5,M,6.2,M,,*50
$GPGSA,A,3,24,17,12,11,22,06,195,194,,,,,1.20,0.87,0.83*01
$GLGSA,A,3,86,87,85,75,76,,,,,,,,1.20,0.87,0.83*16
$GNRMC,214759.000,A,4441.7437,S,16908.0744,E,0.05,0.00,211124,,,A*62
$GNVTG,0.00,T,,M,0.05,N,0.09,K,A*2F

$GNGGA,214800.000,4441.7437,S,16908.0744,E,1,13,0.87,286.5,M,6.2,M,,*53
$GPGSA,A,3,24,17,12,11,22,06,195,194,,,,,1.20,0.87,0.83*01
$GLGSA,A,3,86,87,85,75,76,,,,,,,,1.20,0.87,0.83*16
$GNRMC,214800.000,A,4441.7437,S,16908.0744,E,0.06,0.00,211124,,,A*62
$GNVTG,0.00,T,,M,0.06,N,0.11,K,A*25

$GNGGA,214801.000,4441.7438,S,16908.0744,E,1,13,0.87,286.5,M,6.2,M,,*5D
$GPGSA,A,3,24,17,12,11,22,06,195,194,,,,,1.20,0.87,0.83*01
$GLGSA,A,3,86,87,85,75,76,,,,,,,,1.20,0.87,0.83*16
$GNRMC,214801.000,A,4441.7438,S,16908.0744,E,0.07,0.00,211124,,,A*6D
$GNVTG,0.00,T,,M,0.07,N,0.14,K,A*21

$GNGGA,214802.000,4441.7438,S,16908.0744,E,1,13,0.87,286.5,M,6.2,M,,*5E
$GPGSA,A,3,24,17,12,11,22,06,195,194,,,,,1.20,0.87,0.83*01
$GLGSA,A,3,86,87,85,75,76,,,,,,,,1.20,0.87,0.83*16
$GPGSV,3,1,09,06,78,029,38,194,67,275,46,11,40,334,41,12,39,233,35*4C
$GPGSV,3,2,09,17,38,110,33,22,37,050,34,24,33,278,40,195,,,38*73
$GPGSV,3,3,09,34,,,*77
$GLGSV,2,1,07,76,74,251,39,86,73,277,41,85,42,144,22,75,36,018,35*60
$GLGSV,2,2,07,87,25,305,39,69,09,149,,68,01,194,*5F
$GNRMC,214802.000,A,4441.7438,S,16908.0744,E,0.06,0.00,211124,,,A*6F
$GNVTG,0.00,T,,M,0.06,N,0.11,K,A*25

$GNGGA,214803.000,4441.7438,S,16908.0743,E,1,13,0.89,286.5,M,6.2,M,,*56
$GPGSA,A,3,24,17,12,11,22,06,195,194,,,,,1.75,0.89,1.50*00
$GLGSA,A,3,86,87,85,75,76,,,,,,,,1.75,0.89,1.50*17
$GNRMC,214803.000,A,4441.7438,S,16908.0743,E,0.09,0.00,211124,,,A*66
$GNVTG,0.00,T,,M,0.09,N,0.17,K,A*2C

$GNGGA,214804.000,4441.7438,S,16908.0744,E,1,13,0.89,286.5,M,6.2,M,,*56
$GPGSA,A,3,24,17,12,11,22,06,195,194,,,,,1.75,0.89,1.50*00
$GLGSA,A,3,86,87,85,75,76,,,,,,,,1.75,0.89,1.50*17
$GNRMC,214804.000,A,4441.7438,S,16908.0744,E,0.02,0.00,211124,,,A*6D
$GNVTG,0.00,T,,M,0.02,N,0.03,K,A*22

$GNGGA,214805.000,4441.7438,S,16908.0743,E,1,13,0.87,286.6,M,6.2,M,,*5D
$GPGSA,A,3,24,17,12,11,22,06,195,194,,,,,1.20,0.87,0.83*01
$GLGSA,A,3,86,87,85,75,76,,,,,,,,1.20,0.87,0.83*16
$GNRMC,214805.000,A,4441.7438,S,16908.0743,E,0.33,0.00,211124,,,A*69
$GNVTG,0.00,T,,M,0.33,N,0.60,K,A*25

$GNGGA,214806.000,4441.7438,S,16908.0743,E,1,13,0.89,286.5,M,6.2,M,,*53
$GPGSA,A,3,24,17,12,11,22,06,195,194,,,,,1.75,0.89,1.50*00
$GLGSA,A,3,86,87,85,75,76,,,,,,,,1.75,0.89,1.50*17
$GNRMC,214806.000,A,4441.7438,S,16908.0743,E,0.21,0.00,211124,,,A*69
$GNVTG,0.00,T,,M,0.21,N,0.38,K,A*2B

$GNGGA,214807.000,4441.7438,S,16908.0743,E,1,13,0.89,286.7,M,6.2,M,,*50
$GPGSA,A,3,24,17,12,11,22,06,195,194,,,,,1.75,0.89,1.50*00
$GLGSA,A,3,86,87,85,75,76,,,,,,,,1.75,0.89,1.50*17
$GPGSV,3,1,09,06,78,029,38,194,67,275,46,11,40,334,41,12,39,233,35*4C
$GPGSV,3,2,09,17,38,110,33,22,37,050,35,24,33,278,40,195,,,38*72
$GPGSV,3,3,09,35,,,*76
$GLGSV,2,1,07,76,74,251,38,86,73,277,40,85,42,144,21,75,36,018,36*60
$GLGSV,2,2,07,87,25,305,40,69,09,149,,68,01,194,*51
$GNRMC,214807.000,A,4441.7438,S,16908.0743,E,0.17,0.00,211124,,,A*6D
$GNVTG,0.00,T,,M,0.17,N,0.31,K,A*27

$GNGGA,214808.000,4441.7438,S,16908.0743,E,1,13,0.89,286.8,M,6.2,M,,*50
$GPGSA,A,3,24,17,12,11,22,06,195,194,,,,,1.75,0.89,1.50*00
$GLGSA,A,3,86,87,85,75,76,,,,,,,,1.75,0.89,1.50*17
$GNRMC,214808.000,A,4441.7438,S,16908.0743,E,0.14,0.00,211124,,,A*61
$GNVTG,0.00,T,,M,0.14,N,0.26,K,A*22

$GNGGA,214809.000,4441.7438,S,16908.0742,E,1,13,0.89,286.9,M,6.2,M,,*51
$GPGSA,A,3,24,17,12,11,22,06,195,194,,,,,1.75,0.89,1.50*00
$GLGSA,A,3,86,87,85,75,76,,,,,,,,1.75,0.89,1.50*17
$GNRMC,214809.000,A,4441.7438,S,16908.0742,E,0.11,0.00,211124,,,A*64
$GNVTG,0.00,T,,M,0.11,N,0.21,K,A*20

$GNGGA,214810.000,4441.7438,S,16908.0742,E,1,13,0.89,286.9,M,6.2,M,,*59
$GPGSA,A,3,24,17,12,11,22,06,195,194,,,,,1.75,0.89,1.50*00
$GLGSA,A,3,86,87,85,75,76,,,,,,,,1.75,0.89,1.50*17
$GNRMC,214810.000,A,4441.7438,S,16908.0742,E,0.11,0.00,211124,,,A*6C
$GNVTG,0.00,T,,M,0.11,N,0.19,K,A*2B

$GNGGA,214811.000,4441.7438,S,16908.0742,E,1,13,0.89,287.0,M,6.2,M,,*50
$GPGSA,A,3,24,17,12,11,22,06,195,194,,,,,1.75,0.89,1.50*00
$GLGSA,A,3,86,87,85,75,76,,,,,,,,1.75,0.89,1.50*17
$GNRMC,214811.000,A,4441.7438,S,16908.0742,E,0.08,0.00,211124,,,A*65
$GNVTG,0.00,T,,M,0.08,N,0.16,K,A*2C

$GNGGA,214812.000,4441.7438,S,16908.0742,E,1,13,0.89,287.1,M,6.2,M,,*52
$GPGSA,A,3,24,17,12,11,22,06,195,194,,,,,1.75,0.89,1.50*00
$GLGSA,A,3,86,87,85,75,76,,,,,,,,1.75,0.89,1.50*17
$GPGSV,3,1,09,06,78,029,38,194,67,275,46,11,40,334,41,12,39,233,34*4D
$GPGSV,3,2,09,17,38,110,32,22,37,050,35,24,33,278,38,195,,,38*7C
$GPGSV,3,3,09,35,,,36*73
$GLGSV,2,1,07,76,74,251,39,86,73,274,39,85,42,144,21,75,36,018,36*6C
$GLGSV,2,2,07,87,25,305,40,69,09,149,,68,01,194,*51
$GNRMC,214812.000,A,4441.7438,S,16908.0742,E,0.07,0.00,211124,,,A*69
$GNVTG,0.00,T,,M,0.07,N,0.13,K,A*26

$GNGGA,214813.000,4441.7438,S,16908.0742,E,1,13,0.89,287.2,M,6.2,M,,*50
$GPGSA,A,3,24,17,12,11,22,06,195,194,,,,,1.75,0.89,1.50*00
$GLGSA,A,3,86,87,85,75,76,,,,,,,,1.75,0.89,1.50*17
$GNRMC,214813.000,A,4441.7438,S,16908.0742,E,0.06,0.00,211124,,,A*69
$GNVTG,0.00,T,,M,0.06,N,0.11,K,A*25

$GNGGA,214814.000,4441.7437,S,16908.0741,E,1,13,0.89,287.2,M,6.2,M,,*5B
$GPGSA,A,3,24,17,12,11,22,06,195,194,,,,,1.75,0.89,1.50*00
$GLGSA,A,3,86,87,85,75,76,,,,,,,,1.75,0.89,1.50*17
$GNRMC,214814.000,A,4441.7437,S,16908.0741,E,0.06,0.00,211124,,,A*62
$GNVTG,0.00,T,,M,0.06,N,0.11,K,A*25

$GNGGA,214815.000,4441.7437,S,16908.0741,E,1,13,0.89,287.3,M,6.2,M,,*5B
$GPGSA,A,3,24,17,12,11,22,06,195,194,,,,,1.75,0.89,1.50*00
$GLGSA,A,3,86,87,85,75,76,,,,,,,,1.75,0.89,1.50*17
$GNRMC,214815.000,A,4441.7437,S,16908.0741,E,0.05,0.00,211124,,,A*60
$GNVTG,0.00,T,,M,0.05,N,0.10,K,A*27

$GNGGA,214816.000,4441.7437,S,16908.0741,E,1,13,0.89,287.4,M,6.2,M,,*5F
$GPGSA,A,3,24,17,12,11,22,06,195,194,,,,,1.75,0.89,1.50*00
$GLGSA,A,3,86,87,85,75,76,,,,,,,,1.75,0.89,1.50*17
$GNRMC,214816.000,A,4441.7437,S,16908.0741,E,0.06,0.00,211124,,,A*60
$GNVTG,0.00,T,,M,0.06,N,0.11,K,A*25

$GNGGA,214817.000,4441.7437,S,16908.0741,E,1,13,0.89,287.4,M,6.2,M,,*5E
$GPGSA,A,3,24,17,12,11,22,06,195,194,,,,,1.75,0.89,1.50*00
$GLGSA,A,3,86,87,85,75,76,,,,,,,,1.75,0.89,1.50*17
$GPGSV,3,1,10,06,78,029,39,194,67,275,46,11,40,334,41,12,39,233,36*46
$GPGSV,3,2,10,17,38,110,33,22,37,050,36,24,33,278,38,195,,,38*76
$GPGSV,3,3,10,36,,,,03,,,26*7A
$GLGSV,2,1,08,76,74,251,38,86,73,274,40,85,42,144,23,75,36,018,36*6E
$GLGSV,2,2,08,87,25,304,40,69,09,149,,70,02,091,,68,01,194,*62
$GNRMC,214817.000,A,4441.7437,S,16908.0741,E,0.05,0.00,211124,,,A*62
$GNVTG,0.00,T,,M,0.05,N,0.10,K,A*27

$GNGGA,214818.000,4441.7437,S,16908.0741,E,1,13,0.89,287.5,M,6.2,M,,*50
$GPGSA,A,3,24,17,12,11,22,06,195,194,,,,,1.75,0.89,1.50*00
$GLGSA,A,3,86,87,85,75,76,,,,,,,,1.75,0.89,1.50*17
$GNRMC,214818.000,A,4441.7437,S,16908.0741,E,0.27,0.00,211124,,,A*6D
$GNVTG,0.00,T,,M,0.27,N,0.51,K,A*22

$GNGGA,214819.000,4441.7437,S,16908.0741,E,1,13,0.89,287.7,M,6.2,M,,*53
$GPGSA,A,3,24,17,12,11,22,06,195,194,,,,,1.75,0.89,1.50*00
$GLGSA,A,3,86,87,85,75,76,,,,,,,,1.75,0.89,1.50*17
$GNRMC,214819.000,A,4441.7437,S,16908.0741,E,0.18,0.00,211124,,,A*60
$GNVTG,0.00,T,,M,0.18,N,0.33,K,A*2A

$GNGGA,214820.000,4441.7437,S,16908.0740,E,1,13,0.89,287.9,M,6.2,M,,*56
$GPGSA,A,3,24,17,12,11,22,06,195,194,,,,,1.75,0.89,1.50*00
$GLGSA,A,3,86,87,85,75,76,,,,,,,,1.75,0.89,1.50*17
$GNRMC,214820.000,A,4441.7437,S,16908.0740,E,0.16,0.00,211124,,,A*65
$GNVTG,0.00,T,,M,0.16,N,0.30,K,A*27

$GNGGA,214821.000,4441.7437,S,16908.0740,E,1,13,0.89,287.9,M,6.2,M,,*57
$GPGSA,A,3,24,17,12,11,22,06,195,194,,,,,1.75,0.89,1.50*00
$GLGSA,A,3,86,87,85,75,76,,,,,,,,1.75,0.89,1.50*17
$GNRMC,214821.000,A,4441.7437,S,16908.0740,E,0.11,0.00,211124,,,A*63
$GNVTG,0.00,T,,M,0.11,N,0.21,K,A*20

$GNGGA,214822.000,4441.7437,S,16908.0740,E,1,13,0.89,287.9,M,6.2,M,,*54
$GPGSA,A,3,24,17,12,11,22,06,195,194,,,,,1.75,0.89,1.50*00
$GLGSA,A,3,86,87,85,75,76,,,,,,,,1.75,0.89,1.50*17
$GPGSV,3,1,10,06,78,029,39,194,67,275,45,11,40,334,41,12,39,233,36*45
$GPGSV,3,2,10,17,38,110,33,22,37,050,36,24,33,278,39,195,,,38*77
$GPGSV,3,3,10,36,,,,03,,,27*7B
$GLGSV,2,1,08,76,74,251,38,86,73,274,39,85,42,144,26,75,36,018,36*65
$GLGSV,2,2,08,87,25,304,40,69,09,149,,70,02,091,,68,01,194,*62
$GNRMC,214822.000,A,4441.7437,S,16908.0740,E,0.10,0.00,211124,,,A*61
$GNVTG,0.00,T,,M,0.10,N,0.18,K,A*2B

$GNGGA,214823.000,4441.7437,S,16908.0741,E,1,13,0.89,287.9,M,6.2,M,,*54
$GPGSA,A,3,24,17,12,11,22,06,195,194,,,,,1.75,0.89,1.50*00
$GLGSA,A,3,86,87,85,75,76,,,,,,,,1.75,0.89,1.50*17
$GNRMC,214823.000,A,4441.7437,S,16908.0741,E,0.08,0.00,211124,,,A*68
$GNVTG,0.00,T,,M,0.08,N,0.15,K,A*2F

$GNGGA,214824.000,4441.7437,S,16908.0741,E,1,13,0.89,287.9,M,6.2,M,,*53
$GPGSA,A,3,24,17,12,11,22,06,195,194,,,,,1.75,0.89,1.50*00
$GLGSA,A,3,86,87,85,75,76,,,,,,,,1.75,0.89,1.50*17
$GNRMC,214824.000,A,4441.7437,S,16908.0741,E,0.08,0.00,211124,,,A*6F
$GNVTG,0.00,T,,M,0.08,N,0.14,K,A*2E

$GNGGA,214825.000,4441.7437,S,16908.0741,E,1,13,0.89,287.9,M,6.2,M,,*52
$GPGSA,A,3,24,17,12,11,22,06,195,194,,,,,1.75,0.89,1.50*00
$GLGSA,A,3,86,87,85,75,76,,,,,,,,1.75,0.89,1.50*17
$GNRMC,214825.000,A,4441.7437,S,16908.0741,E,0.07,0.00,211124,,,A*61
$GNVTG,0.00,T,,M,0.07,N,0.13,K,A*26

$GNGGA,214826.000,4441.7437,S,16908.0741,E,1,13,0.89,287.9,M,6.2,M,,*51
$GPGSA,A,3,24,17,12,11,22,06,195,194,,,,,1.75,0.89,1.50*00
$GLGSA,A,3,86,87,85,75,76,,,,,,,,1.75,0.89,1.50*17
$GNRMC,214826.000,A,4441.7437,S,16908.0741,E,0.06,0.00,211124,,,A*63
$GNVTG,0.00,T,,M,0.06,N,0.11,K,A*25

$GNGGA,214827.000,4441.7437,S,16908.0741,E,1,13,0.89,287.9,M,6.2,M,,*50
$GPGSA,A,3,24,17,12,11,22,06,195,194,,,,,1.75,0.89,1.50*00
$GLGSA,A,3,86,87,85,75,76,,,,,,,,1.75,0.89,1.50*17
$GPGSV,3,1,10,06,78,029,40,194,67,275,45,11,40,334,40,12,39,233,36*4A
$GPGSV,3,2,10,17,38,110,33,22,37,050,36,24,33,278,39,195,,,39*76
$GPGSV,3,3,10,38,,,,03,,,28*7A
$GLGSV,2,1,08,76,74,251,37,86,73,274,39,85,42,144,28,75,36,018,36*64
$GLGSV,2,2,08,87,25,304,40,69,09,149,,70,02,091,,68,01,194,*62
$GNRMC,214827.000,A,4441.7437,S,16908.0741,E,0.07,0.00,211124,,,A*63
$GNVTG,0.00,T,,M,0.07,N,0.12,K,A*27

$GNGGA,214828.000,4441.7438,S,16908.0741,E,1,13,0.89,287.9,M,6.2,M,,*50
$GPGSA,A,3,24,17,12,11,22,06,195,194,,,,,1.75,0.89,1.50*00
$GLGSA,A,3,86,87,85,75,76,,,,,,,,1.75,0.89,1.50*17
$GNRMC,214828.000,A,4441.7438,S,16908.0741,E,0.07,0.00,211124,,,A*63
$GNVTG,0.00,T,,M,0.07,N,0.13,K,A*26

$GNGGA,214829.000,4441.7438,S,16908.0741,E,1,13,0.89,287.9,M,6.2,M,,*51
$GPGSA,A,3,24,17,12,11,22,06,195,194,,,,,1.74,0.89,1.50*01
$GLGSA,A,3,86,87,85,75,76,,,,,,,,1.74,0.89,1.50*16
$GNRMC,214829.000,A,4441.7438,S,16908.0741,E,0.06,0.00,211124,,,A*63
$GNVTG,0.00,T,,M,0.06,N,0.11,K,A*25

$GNGGA,214830.000,4441.7438,S,16908.0741,E,1,13,0.89,287.9,M,6.2,M,,*59
$GPGSA,A,3,24,17,12,11,22,06,195,194,,,,,1.75,0.89,1.50*00
$GLGSA,A,3,86,87,85,75,76,,,,,,,,1.75,0.89,1.50*17
$GNRMC,214830.000,A,4441.7438,S,16908.0741,E,0.05,0.00,211124,,,A*68
$GNVTG,0.00,T,,M,0.05,N,0.10,K,A*27

$GNGGA,214831.000,4441.7438,S,16908.0741,E,1,13,0.89,287.9,M,6.2,M,,*58
$GPGSA,A,3,24,17,12,11,22,06,195,194,,,,,1.75,0.89,1.50*00
$GLGSA,A,3,86,87,85,75,76,,,,,,,,1.75,0.89,1.50*17
$GNRMC,214831.000,A,4441.7438,S,16908.0741,E,0.05,0.00,211124,,,A*69
$GNVTG,0.00,T,,M,0.05,N,0.09,K,A*2F

$GNGGA,214832.000,4441.7438,S,16908.0741,E,1,13,0.89,287.9,M,6.2,M,,*5B
$GPGSA,A,3,24,17,12,11,22,06,195,194,,,,,1.75,0.89,1.50*00
$GLGSA,A,3,86,87,85,75,76,,,,,,,,1.75,0.89,1.50*17
$GPGSV,3,1,10,06,78,029,39,194,67,275,45,11,40,334,40,12,39,233,37*45
$GPGSV,3,2,10,17,38,110,34,22,37,050,37,24,33,278,39,195,,,39*70
$GPGSV,3,3,10,41,,,,03,,,26*7A
$GLGSV,2,1,08,76,74,251,37,86,73,274,40,85,42,144,29,75,36,018,37*6A
$GLGSV,2,2,08,87,25,304,39,69,09,149,,70,02,091,,68,01,194,*6C
$GNRMC,214832.000,A,4441.7438,S,16908.0741,E,0.05,0.00,211124,,,A*6A
$GNVTG,0.00,T,,M,0.05,N,0.09,K,A*2F

$GNGGA,214833.000,4441.7438,S,16908.0741,E,1,13,0.89,287.9,M,6.2,M,,*5A
$GPGSA,A,3,24,17,12,11,22,06,195,194,,,,,1.75,0.89,1.50*00
$GLGSA,A,3,86,87,85,75,76,,,,,,,,1.75,0.89,1.50*17
$GNRMC,214833.000,A,4441.7438,S,16908.0741,E,0.05,0.00,211124,,,A*6B
$GNVTG,0.00,T,,M,0.05,N,0.09,K,A*2F

$GNGGA,214834.000,4441.7438,S,16908.0741,E,1,13,0.89,287.9,M,6.2,M,,*5D
$GPGSA,A,3,24,17,12,11,22,06,195,194,,,,,1.75,0.89,1.50*00
$GLGSA,A,3,86,87,85,75,76,,,,,,,,1.75,0.89,1.50*17
$GNRMC,214834.000,A,4441.7438,S,16908.0741,E,0.04,0.00,211124,,,A*6D
$GNVTG,0.00,T,,M,0.04,N,0.08,K,A*2F

$GNGGA,214835.000,4441.7438,S,16908.0741,E,1,13,0.89,287.9,M,6.2,M,,*5C
$GPGSA,A,3,24,17,12,11,22,06,195,194,,,,,1.74,0.89,1.50*01
$GLGSA,A,3,86,87,85,75,76,,,,,,,,1.74,0.89,1.50*16
$GNRMC,214835.000,A,4441.7438,S,16908.0741,E,0.04,0.00,211124,,,A*6C
$GNVTG,0.00,T,,M,0.04,N,0.08,K,A*2F

$GNGGA,214836.000,4441.7438,S,16908.0742,E,1,13,0.89,287.9,M,6.2,M,,*5C
$GPGSA,A,3,24,17,12,11,22,06,195,194,,,,,1.75,0.89,1.50*00
$GLGSA,A,3,86,87,85,75,76,,,,,,,,1.75,0.89,1.50*17
$GNRMC,214836.000,A,4441.7438,S,16908.0742,E,0.04,0.00,211124,,,A*6C
$GNVTG,0.00,T,,M,0.04,N,0.07,K,A*20

$GNGGA,214837.000,4441.7438,S,16908.0742,E,1,13,0.89,287.9,M,6.2,M,,*5D
$GPGSA,A,3,24,17,12,11,22,06,195,194,,,,,1.74,0.89,1.50*01
$GLGSA,A,3,86,87,85,75,76,,,,,,,,1.74,0.89,1.50*16
$GPGSV,3,1,10,06,78,029,39,194,67,275,45,11,40,334,40,12,39,233,37*45
$GPGSV,3,2,10,17,38,110,34,22,37,050,37,24,33,278,39,195,,,40*7E
$GPGSV,3,3,10,41,,,,03,,,26*7A
$GLGSV,2,1,08,76,74,251,37,86,73,274,40,85,42,144,30,75,36,018,37*62
$GLGSV,2,2,08,87,25,304,38,69,09,149,,70,02,091,,68,01,194,*6D
$GNRMC,214837.000,A,4441.7438,S,16908.0742,E,0.04,0.00,211124,,,A*6D
$GNVTG,0.00,T,,M,0.04,N,0.07,K,A*20

$GNGGA,214838.000,4441.7438,S,16908.0742,E,1,13,0.89,287.9,M,6.2,M,,*52
$GPGSA,A,3,24,17,12,11,22,06,195,194,,,,,1.74,0.89,1.50*01
$GLGSA,A,3,86,87,85,75,76,,,,,,,,1.74,0.89,1.50*16
$GNRMC,214838.000,A,4441.7438,S,16908.0742,E,0.03,0.00,211124,,,A*65
$GNVTG,0.00,T,,M,0.03,N,0.06,K,A*26

$GNGGA,214839.000,4441.7438,S,16908.0742,E,1,13,0.89,287.9,M,6.2,M,,*53
$GPGSA,A,3,24,17,12,11,22,06,195,194,,,,,1.74,0.89,1.50*01
$GLGSA,A,3,86,87,85,75,76,,,,,,,,1.74,0.89,1.50*16
$GNRMC,214839.000,A,4441.7438,S,16908.0742,E,0.01,0.00,211124,,,A*66
$GNVTG,0.00,T,,M,0.01,N,0.01,K,A*23

$GNGGA,214840.000,4441.7438,S,16908.0742,E,1,13,0.89,287.9,M,6.2,M,,*5D
$GPGSA,A,3,24,17,12,11,22,06,195,194,,,,,1.75,0.89,1.50*00
$GLGSA,A,3,86,87,85,75,76,,,,,,,,1.75,0.89,1.50*17
$GNRMC,214840.000,A,4441.7438,S,16908.0742,E,0.01,0.00,211124,,,A*68
$GNVTG,0.00,T,,M,0.01,N,0.02,K,A*20

$GNGGA,214841.000,4441.7438,S,16908.0742,E,1,13,0.89,287.9,M,6.2,M,,*5C
$GPGSA,A,3,24,17,12,11,22,06,195,194,,,,,1.74,0.89,1.50*01
$GLGSA,A,3,86,87,85,75,76,,,,,,,,1.74,0.89,1.50*16
$GNRMC,214841.000,A,4441.7438,S,16908.0742,E,0.01,0.00,211124,,,A*69
$GNVTG,0.00,T,,M,0.01,N,0.01,K,A*23

$GNGGA,214842.000,4441.7438,S,16908.0742,E,1,13,0.89,287.9,M,6.2,M,,*5F
$GPGSA,A,3,24,17,12,11,22,06,195,194,,,,,1.74,0.89,1.50*01
$GLGSA,A,3,86,87,85,75,76,,,,,,,,1.74,0.89,1.50*16
$GPGSV,3,1,10,06,78,029,39,194,67,275,45,11,40,334,41,12,39,233,37*44
$GPGSV,3,2,10,17,38,110,34,22,37,050,37,24,33,278,40,195,,,40*70
$GPGSV,3,3,10,41,,,,03,,,25*79
$GLGSV,2,1,08,76,74,251,37,86,73,274,39,85,42,144,30,75,36,018,37*6C
$GLGSV,2,2,08,87,25,304,38,69,09,149,,70,02,091,,68,01,194,*6D
$GNRMC,214842.000,A,4441.7438,S,16908.0742,E,0.01,0.00,211124,,,A*6A
$GNVTG,0.00,T,,M,0.01,N,0.02,K,A*20

$GNGGA,214843.000,4441.7438,S,16908.0742,E,1,13,0.89,287.9,M,6.2,M,,*5E
$GPGSA,A,3,24,17,12,11,22,06,195,194,,,,,1.74,0.89,1.50*01
$GLGSA,A,3,86,87,85,75,76,,,,,,,,1.74,0.89,1.50*16
$GNRMC,214843.000,A,4441.7438,S,16908.0742,E,0.27,0.00,211124,,,A*6F
$GNVTG,0.00,T,,M,0.27,N,0.50,K,A*23

$GNGGA,214844.000,4441.7438,S,16908.0742,E,1,13,0.89,288.0,M,6.2,M,,*5F
$GPGSA,A,3,24,17,12,11,22,06,195,194,,,,,1.74,0.89,1.50*01
$GLGSA,A,3,86,87,85,75,76,,,,,,,,1.74,0.89,1.50*16
$GNRMC,214844.000,A,4441.7438,S,16908.0742,E,0.05,0.00,211124,,,A*68
$GNVTG,0.00,T,,M,0.05,N,0.09,K,A*2F

$GNGGA,214845.000,4441.7438,S,16908.0742,E,1,13,0.89,288.0,M,6.2,M,,*5E
$GPGSA,A,3,24,17,12,11,22,06,195,194,,,,,1.74,0.89,1.50*01
$GLGSA,A,3,86,87,85,75,76,,,,,,,,1.74,0.89,1.50*16
$GNRMC,214845.000,A,4441.7438,S,16908.0742,E,0.08,0.00,211124,,,A*64
$GNVTG,0.00,T,,M,0.08,N,0.15,K,A*2F

$GNGGA,214846.000,4441.7438,S,16908.0741,E,1,13,0.89,288.0,M,6.2,M,,*5E
$GPGSA,A,3,24,17,12,11,22,06,195,194,,,,,1.74,0.89,1.50*01
$GLGSA,A,3,86,87,85,75,76,,,,,,,,1.74,0.89,1.50*16
$GNRMC,214846.000,A,4441.7438,S,16908.0741,E,0.08,0.00,211124,,,A*64
$GNVTG,0.00,T,,M,0.08,N,0.14,K,A*2E

$GNGGA,214847.000,4441.7438,S,16908.0741,E,1,13,0.89,288.1,M,6.2,M,,*5E
$GPGSA,A,3,24,17,12,11,22,06,195,194,,,,,1.74,0.89,1.50*01
$GLGSA,A,3,86,87,85,75,76,,,,,,,,1.74,0.89,1.50*16
$GPGSV,3,1,10,06,78,029,39,194,67,275,45,11,40,334,41,12,39,233,38*4B
$GPGSV,3,2,10,17,38,110,33,22,37,050,36,24,33,278,40,195,,,40*76
$GPGSV,3,3,10,43,,,,03,,,24*7A
$GLGSV,2,1,08,76,74,251,37,86,73,274,39,85,42,144,30,75,36,018,37*6C
$GLGSV,2,2,08,87,25,304,37,69,09,149,,70,02,091,,68,01,194,*62
$GNRMC,214847.000,A,4441.7438,S,16908.0741,E,0.07,0.00,211124,,,A*6A
$GNVTG,0.00,T,,M,0.07,N,0.14,K,A*21

$GNGGA,214848.000,4441.7438,S,16908.0741,E,1,13,0.89,288.1,M,6.2,M,,*51
$GPGSA,A,3,24,17,12,11,22,06,195,194,,,,,1.74,0.89,1.50*01
$GLGSA,A,3,86,87,85,75,76,,,,,,,,1.74,0.89,1.50*16
$GNRMC,214848.000,A,4441.7438,S,16908.0741,E,0.05,0.00,211124,,,A*67
$GNVTG,0.00,T,,M,0.05,N,0.09,K,A*2F

$GNGGA,214849.000,4441.7438,S,16908.0741,E,1,13,0.89,288.1,M,6.2,M,,*50
$GPGSA,A,3,24,17,12,11,22,06,195,194,,,,,1.74,0.89,1.50*01
$GLGSA,A,3,86,87,85,75,76,,,,,,,,1.74,0.89,1.50*16
$GNRMC,214849.000,A,4441.7438,S,16908.0741,E,0.30,0.00,211124,,,A*60
$GNVTG,0.00,T,,M,0.30,N,0.56,K,A*23

$GNGGA,214850.000,4441.7438,S,16908.0741,E,1,13,0.89,287.9,M,6.2,M,,*5F
$GPGSA,A,3,24,17,12,11,22,06,195,194,,,,,1.74,0.89,1.50*01
$GLGSA,A,3,86,87,85,75,76,,,,,,,,1.74,0.89,1.50*16
$GNRMC,214850.000,A,4441.7438,S,16908.0741,E,0.11,0.00,211124,,,A*6B
$GNVTG,0.00,T,,M,0.11,N,0.21,K,A*20

$GNGGA,214851.000,4441.7438,S,16908.0741,E,1,13,0.89,287.9,M,6.2,M,,*5E
$GPGSA,A,3,24,17,12,11,22,06,195,194,,,,,1.74,0.89,1.50*01
$GLGSA,A,3,86,87,85,75,76,,,,,,,,1.74,0.89,1.50*16
$GNRMC,214851.000,A,4441.7438,S,16908.0741,E,0.05,0.00,211124,,,A*6F
$GNVTG,0.00,T,,M,0.05,N,0.09,K,A*2F

