
$GNRMC,074331.00,A,4440.56501,S,16910.98062,E,0.024,,150125,,,A,V*06
$GNVTG,,T,,M,0.024,N,0.044,K,A*3B
$GNGGA,074331.00,4440.56501,S,16910.98062,E,1,06,2.12,307.6,M,4.7,M,,*62
$GNGSA,A,3,02,03,16,26,31,04,,,,,,,3.44,2.12,2.71,1*03
$GNGSA,A,3,,,,,,,,,,,,,3.44,2.12,2.71,2*04
$GNGSA,A,3,,,,,,,,,,,,,3.44,2.12,2.71,3*05
$GNGSA,A,3,,,,,,,,,,,,,3.44,2.12,2.71,4*02
$GPGSV,2,1,08,01,,,45,02,06,312,40,03,63,261,40,04,35,246,36,1*5F
$GPGSV,2,2,08,16,29,018,45,26,51,044,41,31,74,130,40,46,11,069,43,1*60
$GLGSV,2,1,06,67,,,37,78,,,44,79,,,46,,,,35,1*7D
$GLGSV,2,2,06,,,,35,,,,34,1*7F
$GAGSV,1,1,00,7*73
$GBGSV,1,1,02,01,,,41,03,,,40,1*77
$GNGLL,4440.56501,S,16910.98062,E,074331.00,A,A*61

$GNRMC,074332.00,A,4440.56537,S,16910.98094,E,0.014,,150125,,,A,V*0A
$GNVTG,,T,,M,0.014,N,0.026,K,A*3C
$GNGGA,074332.00,4440.56537,S,16910.98094,E,1,06,2.12,306.0,M,4.7,M,,*6A
$GNGSA,A,3,02,03,16,26,31,04,,,,,,,3.44,2.12,2.71,1*03
$GNGSA,A,3,,,,,,,,,,,,,3.44,2.12,2.71,2*04
$GNGSA,A,3,,,,,,,,,,,,,3.44,2.12,2.71,3*05
$GNGSA,A,3,,,,,,,,,,,,,3.44,2.12,2.71,4*02
$GPGSV,2,1,08,01,,,45,02,06,312,40,03,63,261,40,04,35,246,36,1*5F
$GPGSV,2,2,08,16,29,018,45,26,51,044,40,31,74,130,40,46,11,069,43,1*61
$GLGSV,2,1,06,67,,,37,78,,,44,79,,,46,,,,36,1*7E
$GLGSV,2,2,06,,,,36,,,,34,1*7C
$GAGSV,1,1,00,7*73
$GBGSV,1,1,03,01,,,41,03,,,40,20,,,41,1*71
$GNGLL,4440.56537,S,16910.98094,E,074332.00,A,A*6E

$GNRMC,074333.00,A,4440.56569,S,16910.98125,E,0.019,,150125,,,A,V*06
$GNVTG,,T,,M,0.019,N,0.035,K,A*33
$GNGGA,074333.00,4440.56569,S,16910.98125,E,1,06,2.12,304.7,M,4.7,M,,*6E
$GNGSA,A,3,02,03,16,26,31,04,,,,,,,3.44,2.12,2.71,1*03
$GNGSA,A,3,,,,,,,,,,,,,3.44,2.12,2.71,2*04
$GNGSA,A,3,,,,,,,,,,,,,3.44,2.12,2.71,3*05
$GNGSA,A,3,,,,,,,,,,,,,3.44,2.12,2.71,4*02
$GPGSV,2,1,08,01,,,45,02,06,312,40,03,63,261,40,04,35,246,36,1*5F
$GPGSV,2,2,08,16,29,018,45,26,51,044,40,31,74,130,40,46,11,069,43,1*61
$GLGSV,2,1,06,67,,,37,78,,,44,79,,,46,,,,36,1*7E
$GLGSV,2,2,06,,,,36,,,,34,1*7C
$GAGSV,1,1,00,7*73
$GBGSV,1,1,03,01,,,41,03,,,40,20,,,41,1*71
$GNGLL,4440.56569,S,16910.98125,E,074333.00,A,A*6F

$GNRMC,074334.00,A,4440.56593,S,16910.98158,E,0.119,,150125,,,A,V*0F
$GNVTG,,T,,M,0.119,N,0.221,K,A*35
$GNGGA,074334.00,4440.56593,S,16910.98158,E,1,06,2.12,303.6,M,4.7,M,,*60
$GNGSA,A,3,02,03,16,26,31,04,,,,,,,3.44,2.12,2.71,1*03
$GNGSA,A,3,,,,,,,,,,,,,3.44,2.12,2.71,2*04
$GNGSA,A,3,,,,,,,,,,,,,3.44,2.12,2.71,3*05
$GNGSA,A,3,,,,,,,,,,,,,3.44,2.12,2.71,4*02
$GPGSV,2,1,08,01,,,45,02,06,312,40,03,63,261,40,04,35,246,36,1*5F
$GPGSV,2,2,08,16,29,018,45,26,51,044,40,31,74,130,40,46,11,069,43,1*61
$GLGSV,2,1,06,67,,,37,78,,,44,79,,,47,,,,35,1*7C
$GLGSV,2,2,06,,,,35,,,,34,1*7F
$GAGSV,1,1,02,27,,,41,29,,,41,7*7F
$GBGSV,1,1,04,01,,,41,03,,,40,20,,,42,37,,,42,1*77
$GNGLL,4440.56593,S,16910.98158,E,074334.00,A,A*67

$GNRMC,074335.00,A,4440.56615,S,16910.98191,E,0.188,,150125,,,A,V*0E
$GNVTG,,T,,M,0.188,N,0.349,K,A*32
$GNGGA,074335.00,4440.56615,S,16910.98191,E,1,06,2.12,302.6,M,4.7,M,,*68
$GNGSA,A,3,02,03,16,26,31,04,,,,,,,3.44,2.12,2.71,1*03
$GNGSA,A,3,,,,,,,,,,,,,3.44,2.12,2.71,2*04
$GNGSA,A,3,,,,,,,,,,,,,3.44,2.12,2.71,3*05
$GNGSA,A,3,,,,,,,,,,,,,3.44,2.12,2.71,4*02
$GPGSV,3,1,09,01,,,45,02,06,312,40,03,63,261,41,04,35,246,36,1*5E
$GPGSV,3,2,09,16,29,018,45,26,51,044,40,31,74,130,40,46,11,069,43,1*61
$GPGSV,3,3,09,50,33,327,35,1*58
$GLGSV,2,1,06,67,,,37,78,,,43,79,,,46,,,,35,1*7A
$GLGSV,2,2,06,,,,35,,,,34,1*7F
$GAGSV,1,1,03,27,,,41,29,,,41,33,,,44,7*7E
$GBGSV,1,1,04,01,,,41,03,,,40,20,,,42,37,,,42,1*77
$GNGLL,4440.56615,S,16910.98191,E,074335.00,A,A*6E

$GNRMC,074336.00,A,4440.56634,S,16910.98226,E,0.259,,150125,,,A,V*0E
$GNVTG,,T,,M,0.259,N,0.480,K,A*3F
$GNGGA,074336.00,4440.56634,S,16910.98226,E,1,06,2.12,301.8,M,4.7,M,,*6A
$GNGSA,A,3,02,03,16,26,31,04,,,,,,,3.44,2.12,2.71,1*03
$GNGSA,A,3,,,,,,,,,,,,,3.44,2.12,2.71,2*04
$GNGSA,A,3,,,,,,,,,,,,,3.44,2.12,2.71,3*05
$GNGSA,A,3,,,,,,,,,,,,,3.44,2.12,2.71,4*02
$GPGSV,3,1,09,01,,,45,02,06,312,40,03,63,261,41,04,35,246,36,1*5E
$GPGSV,3,2,09,16,29,018,45,26,51,044,40,31,74,130,40,46,11,069,43,1*61
$GPGSV,3,3,09,50,33,327,39,1*54
$GLGSV,2,1,06,67,,,37,78,,,43,79,,,46,,,,35,1*7A
$GLGSV,2,2,06,,,,35,,,,34,1*7F
$GAGSV,1,1,03,27,,,41,29,,,41,33,,,44,7*7E
$GBGSV,1,1,04,01,,,41,03,,,40,20,,,42,37,,,42,1*77
$GNGLL,4440.56634,S,16910.98226,E,074336.00,A,A*61

$GNRMC,074337.00,A,4440.56636,S,16910.98232,E,0.095,,150125,,,A,V*0A
$GNVTG,,T,,M,0.095,N,0.175,K,A*32
$GNGGA,074337.00,4440.56636,S,16910.98232,E,1,09,1.61,301.4,M,4.7,M,,*68
$GNGSA,A,3,02,03,16,26,31,04,,,,,,,2.58,1.61,2.01,1*0F
$GNGSA,A,3,78,79,67,,,,,,,,,,2.58,1.61,2.01,2*08
$GNGSA,A,3,,,,,,,,,,,,,2.58,1.61,2.01,3*09
$GNGSA,A,3,,,,,,,,,,,,,2.58,1.61,2.01,4*0E
$GPGSV,3,1,09,01,,,45,02,06,312,40,03,63,261,41,04,35,246,36,1*5E
$GPGSV,3,2,09,16,29,018,45,26,51,044,40,31,74,130,40,46,11,069,43,1*61
$GPGSV,3,3,09,50,33,327,39,1*54
$GLGSV,2,1,06,67,,,37,78,,,43,79,,,47,,,,35,1*7B
$GLGSV,2,2,06,,,,35,,,,34,1*7F
$GAGSV,1,1,03,27,,,41,29,,,41,33,,,44,7*7E
$GBGSV,2,1,05,01,,,41,03,,,40,20,,,42,32,,,40,1*72
$GBGSV,2,2,05,37,,,42,1*71
$GNGLL,4440.56636,S,16910.98232,E,074337.00,A,A*67

$GNRMC,074338.00,A,4440.56639,S,16910.98239,E,0.039,,150125,,,A,V*07
$GNVTG,,T,,M,0.039,N,0.072,K,A*32
$GNGGA,074338.00,4440.56639,S,16910.98239,E,1,09,1.61,301.0,M,4.7,M,,*67
$GNGSA,A,3,02,03,16,26,31,04,,,,,,,2.58,1.61,2.01,1*0F
$GNGSA,A,3,78,79,67,,,,,,,,,,2.58,1.61,2.01,2*08
$GNGSA,A,3,,,,,,,,,,,,,2.58,1.61,2.01,3*09
$GNGSA,A,3,,,,,,,,,,,,,2.58,1.61,2.01,4*0E
$GPGSV,3,1,09,01,,,45,02,06,312,40,03,63,261,41,04,35,246,37,1*5F
$GPGSV,3,2,09,16,29,018,45,26,51,044,40,31,74,130,40,46,11,069,43,1*61
$GPGSV,3,3,09,50,33,327,39,1*54
$GLGSV,2,1,06,67,61,084,37,78,55,357,43,79,06,339,46,,,,35,1*4F
$GLGSV,2,2,06,,,,35,,,,34,1*7F
$GAGSV,1,1,03,27,,,40,29,,,41,33,,,44,7*7F
$GBGSV,2,1,05,01,,,41,03,,,40,20,,,42,32,,,40,1*72
$GBGSV,2,2,05,37,,,42,1*71
$GNGLL,4440.56639,S,16910.98239,E,074338.00,A,A*6C

$GNRMC,074339.00,A,4440.56661,S,16910.98254,E,0.016,,150125,,,A,V*0D
$GNVTG,,T,,M,0.016,N,0.029,K,A*31
$GNGGA,074339.00,4440.56661,S,16910.98254,E,1,12,1.01,300.0,M,4.7,M,,*6D
$GNGSA,A,3,02,03,16,26,31,04,,,,,,,1.61,1.01,1.25,1*05
$GNGSA,A,3,78,79,67,66,77,69,,,,,,,1.61,1.01,1.25,2*0D
$GNGSA,A,3,,,,,,,,,,,,,1.61,1.01,1.25,3*03
$GNGSA,A,3,,,,,,,,,,,,,1.61,1.01,1.25,4*04
$GPGSV,3,1,09,01,,,45,02,06,312,40,03,63,261,41,04,35,246,37,1*5F
$GPGSV,3,2,09,16,29,018,45,26,51,044,40,31,74,130,40,46,11,069,43,1*61
$GPGSV,3,3,09,50,33,327,39,1*54
$GLGSV,2,1,06,66,,,36,67,61,084,36,69,,,35,77,,,34,1*49
$GLGSV,2,2,06,78,55,357,43,79,06,339,46,1*74
$GAGSV,1,1,03,27,,,40,29,,,41,33,,,44,7*7F
$GBGSV,2,1,05,01,,,41,03,,,40,20,,,41,32,,,40,1*71
$GBGSV,2,2,05,37,,,42,1*71
$GNGLL,4440.56661,S,16910.98254,E,074339.00,A,A*6B

$GNRMC,074340.00,A,4440.56683,S,16910.98273,E,0.002,,150125,,,A,V*0F
$GNVTG,,T,,M,0.002,N,0.004,K,A*3B
$GNGGA,074340.00,4440.56683,S,16910.98273,E,1,12,0.83,298.9,M,4.7,M,,*68
$GNGSA,A,3,02,03,16,26,31,04,,,,,,,1.29,0.83,0.99,1*04
$GNGSA,A,3,78,79,67,66,77,69,,,,,,,1.29,0.83,0.99,2*0C
$GNGSA,A,3,,,,,,,,,,,,,1.29,0.83,0.99,3*02
$GNGSA,A,3,,,,,,,,,,,,,1.29,0.83,0.99,4*05
$GPGSV,3,1,09,01,,,45,02,06,312,40,03,63,261,41,04,35,246,37,1*5F
$GPGSV,3,2,09,16,29,018,45,26,51,044,39,31,74,130,40,46,11,069,43,1*6F
$GPGSV,3,3,09,50,33,327,39,1*54
$GLGSV,2,1,06,66,11,060,36,67,61,084,36,69,09,229,35,77,54,133,34,1*7F
$GLGSV,2,2,06,78,55,357,43,79,06,339,46,1*74
$GAGSV,1,1,03,27,,,40,29,,,41,33,,,44,7*7F
$GBGSV,2,1,05,01,,,41,03,,,40,20,,,42,32,,,40,1*72
$GBGSV,2,2,05,37,,,42,1*71
$GNGLL,4440.56683,S,16910.98273,E,074340.00,A,A*6C

$GNRMC,074341.00,A,4440.56699,S,16910.98290,E,0.029,,150125,,,A,V*01
$GNVTG,,T,,M,0.029,N,0.053,K,A*30
$GNGGA,074341.00,4440.56699,S,16910.98290,E,1,12,0.83,298.0,M,4.7,M,,*66
$GNGSA,A,3,02,03,16,26,31,04,,,,,,,1.29,0.83,0.99,1*04
$GNGSA,A,3,78,79,67,66,77,69,,,,,,,1.29,0.83,0.99,2*0C
$GNGSA,A,3,,,,,,,,,,,,,1.29,0.83,0.99,3*02
$GNGSA,A,3,,,,,,,,,,,,,1.29,0.83,0.99,4*05
$GPGSV,3,1,09,01,,,45,02,06,312,40,03,63,261,41,04,35,246,38,1*50
$GPGSV,3,2,09,16,29,018,45,26,51,044,39,31,74,130,40,46,11,069,43,1*6F
$GPGSV,3,3,09,50,33,327,39,1*54
$GLGSV,2,1,06,66,11,060,36,67,61,084,36,69,09,229,35,77,54,133,34,1*7F
$GLGSV,2,2,06,78,55,357,43,79,06,339,47,1*75
$GAGSV,1,1,03,27,,,40,29,,,41,33,,,44,7*7F
$GBGSV,2,1,05,01,,,41,03,,,40,20,,,42,32,,,40,1*72
$GBGSV,2,2,05,37,,,42,1*71
$GNGLL,4440.56699,S,16910.98290,E,074341.00,A,A*6B

$GNRMC,074342.00,A,4440.56711,S,16910.98304,E,0.020,,150125,,,A,V*06
$GNVTG,,T,,M,0.020,N,0.036,K,A*3A
$GNGGA,074342.00,4440.56711,S,16910.98304,E,1,12,0.83,297.3,M,4.7,M,,*64
$GNGSA,A,3,02,03,16,26,31,04,,,,,,,1.29,0.83,0.99,1*04
$GNGSA,A,3,78,79,67,66,77,69,,,,,,,1.29,0.83,0.99,2*0C
$GNGSA,A,3,,,,,,,,,,,,,1.29,0.83,0.99,3*02
$GNGSA,A,3,,,,,,,,,,,,,1.29,0.83,0.99,4*05
$GPGSV,3,1,09,01,,,45,02,06,312,40,03,63,261,42,04,35,246,37,1*5C
$GPGSV,3,2,09,16,29,018,45,26,51,044,39,31,74,130,40,46,11,069,43,1*6F
$GPGSV,3,3,09,50,33,327,39,1*54
$GLGSV,2,1,06,66,11,060,35,67,61,084,35,69,09,229,35,77,54,133,34,1*7F
$GLGSV,2,2,06,78,55,357,43,79,06,339,47,1*75
$GAGSV,1,1,03,27,,,39,29,,,41,33,,,44,7*71
$GBGSV,2,1,05,01,,,41,03,,,40,20,,,42,32,,,40,1*72
$GBGSV,2,2,05,37,,,42,1*71
$GNGLL,4440.56711,S,16910.98304,E,074342.00,A,A*65

$GNRMC,074343.00,A,4440.56719,S,16910.98318,E,0.028,,150125,,,A,V*0A
$GNVTG,,T,,M,0.028,N,0.051,K,A*33
$GNGGA,074343.00,4440.56719,S,16910.98318,E,1,12,0.83,296.6,M,4.7,M,,*64
$GNGSA,A,3,02,03,16,26,31,04,,,,,,,1.29,0.83,0.99,1*04
$GNGSA,A,3,78,79,67,66,77,69,,,,,,,1.29,0.83,0.99,2*0C
$GNGSA,A,3,,,,,,,,,,,,,1.29,0.83,0.99,3*02
$GNGSA,A,3,,,,,,,,,,,,,1.29,0.83,0.99,4*05
$GPGSV,3,1,09,01,,,45,02,06,312,40,03,63,261,42,04,35,246,38,1*53
$GPGSV,3,2,09,16,29,018,45,26,51,044,39,31,74,130,40,46,11,069,43,1*6F
$GPGSV,3,3,09,50,33,327,39,1*54
$GLGSV,2,1,06,66,11,060,36,67,61,084,35,69,09,229,35,77,54,133,34,1*7C
$GLGSV,2,2,06,78,55,357,43,79,06,339,47,1*75
$GAGSV,1,1,03,27,,,39,29,,,41,33,,,44,7*71
$GBGSV,2,1,05,01,,,41,03,,,40,20,,,42,32,,,40,1*72
$GBGSV,2,2,05,37,,,42,1*71
$GNGLL,4440.56719,S,16910.98318,E,074343.00,A,A*61

$GNRMC,074344.00,A,4440.56724,S,16910.98331,E,0.016,,150125,,,A,V*05
$GNVTG,,T,,M,0.016,N,0.029,K,A*31
$GNGGA,074344.00,4440.56724,S,16910.98331,E,1,12,0.83,296.0,M,4.7,M,,*60
$GNGSA,A,3,02,03,16,26,31,04,,,,,,,1.29,0.83,0.99,1*04
$GNGSA,A,3,78,79,67,66,77,69,,,,,,,1.29,0.83,0.99,2*0C
$GNGSA,A,3,,,,,,,,,,,,,1.29,0.83,0.99,3*02
$GNGSA,A,3,,,,,,,,,,,,,1.29,0.83,0.99,4*05
$GPGSV,3,1,09,01,,,45,02,06,312,40,03,63,261,42,04,35,246,38,1*53
$GPGSV,3,2,09,16,29,018,45,26,51,044,39,31,74,130,40,46,11,069,43,1*6F
$GPGSV,3,3,09,50,33,327,39,1*54
$GLGSV,2,1,06,66,11,060,36,67,61,084,34,69,09,229,35,77,54,133,34,1*7D
$GLGSV,2,2,06,78,55,357,43,79,06,339,47,1*75
$GAGSV,1,1,03,27,,,39,29,,,41,33,,,44,7*71
$GBGSV,2,1,05,01,,,41,03,,,40,20,,,41,32,,,40,1*71
$GBGSV,2,2,05,37,,,42,1*71
$GNGLL,4440.56724,S,16910.98331,E,074344.00,A,A*63

$GNRMC,074345.00,A,4440.56726,S,16910.98341,E,0.013,,150125,,,A,V*04
$GNVTG,,T,,M,0.013,N,0.025,K,A*38
$GNGGA,074345.00,4440.56726,S,16910.98341,E,1,12,0.83,295.5,M,4.7,M,,*62
$GNGSA,A,3,02,03,16,26,31,04,,,,,,,1.29,0.83,0.99,1*04
$GNGSA,A,3,78,79,67,66,77,69,,,,,,,1.29,0.83,0.99,2*0C
$GNGSA,A,3,,,,,,,,,,,,,1.29,0.83,0.99,3*02
$GNGSA,A,3,,,,,,,,,,,,,1.29,0.83,0.99,4*05
$GPGSV,3,1,09,01,,,45,02,06,312,40,03,63,261,42,04,35,246,38,1*53
$GPGSV,3,2,09,16,29,018,45,26,51,044,39,31,74,130,40,46,11,069,43,1*6F
$GPGSV,3,3,09,50,33,327,39,1*54
$GLGSV,2,1,06,66,11,060,36,67,61,084,34,69,09,229,35,77,54,133,34,1*7D
$GLGSV,2,2,06,78,55,357,43,79,06,339,47,1*75
$GAGSV,1,1,03,27,,,39,29,,,41,33,,,44,7*71
$GBGSV,2,1,05,01,,,41,03,,,40,20,,,42,32,,,40,1*72
$GBGSV,2,2,05,37,,,42,1*71
$GNGLL,4440.56726,S,16910.98341,E,074345.00,A,A*67

$GNRMC,074346.00,A,4440.56727,S,16910.98349,E,0.006,,150125,,,A,V*0A
$GNVTG,,T,,M,0.006,N,0.011,K,A*3B
$GNGGA,074346.00,4440.56727,S,16910.98349,E,1,12,0.83,295.1,M,4.7,M,,*6C
$GNGSA,A,3,02,03,16,26,31,04,,,,,,,1.29,0.83,0.99,1*04
$GNGSA,A,3,78,79,67,66,77,69,,,,,,,1.29,0.83,0.99,2*0C
$GNGSA,A,3,,,,,,,,,,,,,1.29,0.83,0.99,3*02
$GNGSA,A,3,,,,,,,,,,,,,1.29,0.83,0.99,4*05
$GPGSV,3,1,09,01,,,45,02,06,312,40,03,63,261,42,04,35,246,38,1*53
$GPGSV,3,2,09,16,29,018,45,26,51,044,38,31,74,130,40,46,11,069,43,1*6E
$GPGSV,3,3,09,50,33,327,39,1*54
$GLGSV,2,1,06,66,11,060,36,67,61,084,34,69,09,229,35,77,54,133,34,1*7D
$GLGSV,2,2,06,78,55,357,42,79,06,339,47,1*74
$GAGSV,1,1,03,27,,,39,29,,,41,33,,,44,7*71
$GBGSV,2,1,05,01,,,41,03,,,40,20,,,42,32,,,40,1*72
$GBGSV,2,2,05,37,,,42,1*71
$GNGLL,4440.56727,S,16910.98349,E,074346.00,A,A*6D

$GNRMC,074347.00,A,4440.56726,S,16910.98356,E,0.017,,150125,,,A,V*04
$GNVTG,,T,,M,0.017,N,0.031,K,A*39
$GNGGA,074347.00,4440.56726,S,16910.98356,E,1,12,0.83,294.8,M,4.7,M,,*6A
$GNGSA,A,3,02,03,16,26,31,04,,,,,,,1.29,0.83,0.99,1*04
$GNGSA,A,3,78,79,67,66,77,69,,,,,,,1.29,0.83,0.99,2*0C
$GNGSA,A,3,,,,,,,,,,,,,1.29,0.83,0.99,3*02
$GNGSA,A,3,,,,,,,,,,,,,1.29,0.83,0.99,4*05
$GPGSV,3,1,09,01,,,45,02,06,312,40,03,63,261,42,04,35,246,38,1*53
$GPGSV,3,2,09,16,29,018,45,26,51,044,38,31,74,130,40,46,11,069,43,1*6E
$GPGSV,3,3,09,50,33,327,39,1*54
$GLGSV,2,1,06,66,11,060,36,67,61,084,33,69,09,229,35,77,54,133,34,1*7A
$GLGSV,2,2,06,78,55,357,42,79,06,339,47,1*74
$GAGSV,1,1,03,27,,,38,29,,,41,33,,,44,7*70
$GBGSV,2,1,05,01,,,41,03,,,40,20,,,42,32,,,40,1*72
$GBGSV,2,2,05,37,,,42,1*71
$GNGLL,4440.56726,S,16910.98356,E,074347.00,A,A*63

$GNRMC,074348.00,A,4440.56725,S,16910.98363,E,0.019,,150125,,,A,V*00
$GNVTG,,T,,M,0.019,N,0.035,K,A*33
$GNGGA,074348.00,4440.56725,S,16910.98363,E,1,12,0.83,294.4,M,4.7,M,,*6C
$GNGSA,A,3,02,03,16,26,31,04,,,,,,,1.29,0.83,0.99,1*04
$GNGSA,A,3,78,79,67,66,77,69,,,,,,,1.29,0.83,0.99,2*0C
$GNGSA,A,3,,,,,,,,,,,,,1.29,0.83,0.99,3*02
$GNGSA,A,3,,,,,,,,,,,,,1.29,0.83,0.99,4*05
$GPGSV,3,1,10,01,,,45,02,06,312,39,03,63,261,42,04,35,246,38,1*55
$GPGSV,3,2,10,06,,,28,16,29,018,45,26,51,044,38,31,74,130,40,1*50
$GPGSV,3,3,10,46,11,069,43,50,33,327,39,1*66
$GLGSV,2,1,06,66,11,060,36,67,61,084,33,69,09,229,35,77,54,133,34,1*7A
$GLGSV,2,2,06,78,55,357,42,79,06,339,47,1*74
$GAGSV,1,1,03,27,,,38,29,,,41,33,,,44,7*70
$GBGSV,2,1,05,01,,,41,03,,,40,20,,,42,32,,,40,1*72
$GBGSV,2,2,05,37,,,42,1*71
$GNGLL,4440.56725,S,16910.98363,E,074348.00,A,A*69

$GNRMC,074349.00,A,4440.56723,S,16910.98370,E,0.013,,150125,,,A,V*0F
$GNVTG,,T,,M,0.013,N,0.025,K,A*38
$GNGGA,074349.00,4440.56723,S,16910.98370,E,1,12,0.83,294.1,M,4.7,M,,*6C
$GNGSA,A,3,02,03,16,26,31,04,,,,,,,1.29,0.83,0.99,1*04
$GNGSA,A,3,78,79,67,66,77,69,,,,,,,1.29,0.83,0.99,2*0C
$GNGSA,A,3,,,,,,,,,,,,,1.29,0.83,0.99,3*02
$GNGSA,A,3,,,,,,,,,,,,,1.29,0.83,0.99,4*05
$GPGSV,3,1,10,01,,,46,02,06,312,39,03,63,261,42,04,35,246,38,1*56
$GPGSV,3,2,10,06,,,26,16,29,018,45,26,51,044,38,31,74,130,40,1*5E
$GPGSV,3,3,10,46,11,069,43,50,33,327,39,1*66
$GLGSV,2,1,06,66,11,060,36,67,61,084,33,69,09,229,35,77,54,133,35,1*7B
$GLGSV,2,2,06,78,55,357,42,79,06,339,47,1*74
$GAGSV,1,1,03,27,,,38,29,,,41,33,,,44,7*70
$GBGSV,2,1,05,01,,,41,03,,,40,20,,,42,32,,,40,1*72
$GBGSV,2,2,05,37,,,42,1*71
$GNGLL,4440.56723,S,16910.98370,E,074349.00,A,A*6C

$GNRMC,074350.00,A,4440.56722,S,16910.98377,E,0.027,,150125,,,A,V*06
$GNVTG,,T,,M,0.027,N,0.051,K,A*3C
$GNGGA,074350.00,4440.56722,S,16910.98377,E,1,12,0.83,293.8,M,4.7,M,,*6C
$GNGSA,A,3,02,03,16,26,31,04,,,,,,,1.29,0.83,0.99,1*04
$GNGSA,A,3,78,79,67,66,77,69,,,,,,,1.29,0.83,0.99,2*0C
$GNGSA,A,3,,,,,,,,,,,,,1.29,0.83,0.99,3*02
$GNGSA,A,3,,,,,,,,,,,,,1.29,0.83,0.99,4*05
$GPGSV,3,1,10,01,,,45,02,06,312,39,03,63,261,42,04,35,246,38,1*55
$GPGSV,3,2,10,06,,,25,16,29,018,45,26,51,044,38,31,74,130,40,1*5D
$GPGSV,3,3,10,46,11,069,43,50,33,327,39,1*66
$GLGSV,2,1,07,66,11,060,37,67,61,084,33,69,09,229,36,76,10,150,,1*7A
$GLGSV,2,2,07,77,54,133,34,78,55,357,42,79,06,339,47,1*42
$GAGSV,1,1,03,27,,,38,29,,,42,33,,,44,7*73
$GBGSV,2,1,05,01,,,41,03,,,40,20,,,42,32,,,40,1*72
$GBGSV,2,2,05,37,,,42,1*71
$GNGLL,4440.56722,S,16910.98377,E,074350.00,A,A*62

$GNRMC,074351.00,A,4440.56721,S,16910.98384,E,0.034,,150125,,,A,V*0A
$GNVTG,,T,,M,0.034,N,0.062,K,A*3E
$GNGGA,074351.00,4440.56721,S,16910.98384,E,1,12,0.83,293.5,M,4.7,M,,*6F
$GNGSA,A,3,02,03,16,26,31,04,,,,,,,1.29,0.83,0.99,1*04
$GNGSA,A,3,78,79,67,66,77,69,,,,,,,1.29,0.83,0.99,2*0C
$GNGSA,A,3,,,,,,,,,,,,,1.29,0.83,0.99,3*02
$GNGSA,A,3,,,,,,,,,,,,,1.29,0.83,0.99,4*05
$GPGSV,3,1,10,01,,,45,02,06,312,39,03,63,261,42,04,35,246,38,1*55
$GPGSV,3,2,10,06,,,27,16,29,018,45,26,51,044,38,31,74,130,40,1*5F
$GPGSV,3,3,10,46,11,069,43,50,33,327,39,1*66
$GLGSV,2,1,07,66,11,060,37,67,61,084,33,69,09,229,36,76,10,150,22,1*7A
$GLGSV,2,2,07,77,54,133,34,78,55,357,42,79,06,339,47,1*42
$GAGSV,1,1,03,27,,,38,29,,,42,33,,,44,7*73
$GBGSV,2,1,05,01,,,41,03,,,40,20,,,42,32,,,40,1*72
$GBGSV,2,2,05,37,,,42,1*71
$GNGLL,4440.56721,S,16910.98384,E,074351.00,A,A*6C

$GNRMC,074352.00,A,4440.56720,S,16910.98392,E,0.093,,150125,,,A,V*02
$GNVTG,,T,,M,0.093,N,0.172,K,A*33
$GNGGA,074352.00,4440.56720,S,16910.98392,E,1,12,0.83,293.3,M,4.7,M,,*6C
$GNGSA,A,3,02,03,16,26,31,04,,,,,,,1.29,0.83,0.99,1*04
$GNGSA,A,3,78,79,67,66,77,69,,,,,,,1.29,0.83,0.99,2*0C
$GNGSA,A,3,,,,,,,,,,,,,1.29,0.83,0.99,3*02
$GNGSA,A,3,,,,,,,,,,,,,1.29,0.83,0.99,4*05
$GPGSV,3,1,10,01,,,45,02,06,312,39,03,63,261,42,04,35,246,39,1*54
$GPGSV,3,2,10,06,,,27,16,29,018,45,26,51,044,38,31,74,130,40,1*5F
$GPGSV,3,3,10,46,11,069,43,50,33,327,39,1*66
$GLGSV,2,1,07,66,11,060,37,67,61,084,33,69,09,229,36,76,10,150,23,1*7B
$GLGSV,2,2,07,77,54,133,34,78,55,357,42,79,06,339,47,1*42
$GAGSV,1,1,03,27,,,38,29,,,42,33,,,44,7*73
$GBGSV,2,1,05,01,,,41,03,,,40,20,,,42,32,,,40,1*72
$GBGSV,2,2,05,37,,,42,1*71
$GNGLL,4440.56720,S,16910.98392,E,074352.00,A,A*69

$GNRMC,074353.00,A,4440.56718,S,16910.98399,E,0.048,,150125,,,A,V*05
$GNVTG,,T,,M,0.048,N,0.090,K,A*38
$GNGGA,074353.00,4440.56718,S,16910.98399,E,1,12,0.83,293.1,M,4.7,M,,*6F
$GNGSA,A,3,02,03,16,26,31,04,,,,,,,1.29,0.83,0.99,1*04
$GNGSA,A,3,78,79,67,66,77,69,,,,,,,1.29,0.83,0.99,2*0C
$GNGSA,A,3,,,,,,,,,,,,,1.29,0.83,0.99,3*02
$GNGSA,A,3,,,,,,,,,,,,,1.29,0.83,0.99,4*05
$GPGSV,3,1,10,01,,,45,02,06,312,39,03,63,261,42,04,35,246,39,1*54
$GPGSV,3,2,10,06,,,27,16,29,018,45,26,51,044,38,31,74,130,40,1*5F
$GPGSV,3,3,10,46,11,069,43,50,33,327,39,1*66
$GLGSV,2,1,07,66,11,060,37,67,61,084,33,69,09,229,36,76,10,150,25,1*7D
$GLGSV,2,2,07,77,54,133,34,78,55,357,42,79,06,339,47,1*42
$GAGSV,1,1,03,27,,,37,29,,,42,33,,,44,7*7C
$GBGSV,2,1,05,01,,,41,03,,,40,20,,,42,32,,,40,1*72
$GBGSV,2,2,05,37,,,42,1*71
$GNGLL,4440.56718,S,16910.98399,E,074353.00,A,A*68

$GNRMC,074354.00,A,4440.56714,S,16910.98405,E,0.023,,150125,,,A,V*01
$GNVTG,,T,,M,0.023,N,0.043,K,A*3B
$GNGGA,074354.00,4440.56714,S,16910.98405,E,1,12,0.83,292.9,M,4.7,M,,*6F
$GNGSA,A,3,02,03,16,26,31,04,,,,,,,1.29,0.83,0.99,1*04
$GNGSA,A,3,78,79,67,66,77,69,,,,,,,1.29,0.83,0.99,2*0C
$GNGSA,A,3,,,,,,,,,,,,,1.29,0.83,0.99,3*02
$GNGSA,A,3,,,,,,,,,,,,,1.29,0.83,0.99,4*05
$GPGSV,3,1,10,01,,,46,02,06,312,39,03,63,261,42,04,35,246,39,1*57
$GPGSV,3,2,10,06,,,27,16,29,018,45,26,51,044,38,31,74,130,41,1*5E
$GPGSV,3,3,10,46,11,069,43,50,33,327,39,1*66
$GLGSV,2,1,07,66,11,060,37,67,61,084,33,69,09,229,36,76,10,150,24,1*7C
$GLGSV,2,2,07,77,54,133,34,78,55,357,42,79,06,339,47,1*42
$GAGSV,1,1,03,27,,,37,29,,,42,33,,,44,7*7C
$GBGSV,2,1,05,01,,,41,03,,,40,20,,,42,32,,,40,1*72
$GBGSV,2,2,05,37,,,42,1*71
$GNGLL,4440.56714,S,16910.98405,E,074354.00,A,A*61

$GNRMC,074355.00,A,4440.56711,S,16910.98410,E,0.027,,150125,,,A,V*05
$GNVTG,,T,,M,0.027,N,0.050,K,A*3D
$GNGGA,074355.00,4440.56711,S,16910.98410,E,1,12,0.83,292.7,M,4.7,M,,*61
$GNGSA,A,3,02,03,16,26,31,04,,,,,,,1.29,0.83,0.99,1*04
$GNGSA,A,3,78,79,67,66,77,69,,,,,,,1.29,0.83,0.99,2*0C
$GNGSA,A,3,,,,,,,,,,,,,1.29,0.83,0.99,3*02
$GNGSA,A,3,,,,,,,,,,,,,1.29,0.83,0.99,4*05
$GPGSV,3,1,10,01,,,46,02,06,312,39,03,63,261,42,04,35,246,39,1*57
$GPGSV,3,2,10,06,,,27,16,29,018,45,26,51,044,38,31,74,130,40,1*5F
$GPGSV,3,3,10,46,11,069,43,50,33,327,39,1*66
$GLGSV,2,1,07,66,11,060,37,67,61,084,33,69,09,229,36,76,10,150,25,1*7D
$GLGSV,2,2,07,77,54,133,34,78,55,357,42,79,06,339,47,1*42
$GAGSV,1,1,03,27,,,37,29,,,42,33,,,44,7*7C
$GBGSV,2,1,05,01,,,41,03,,,40,20,,,42,32,,,40,1*72
$GBGSV,2,2,05,37,,,42,1*71
$GNGLL,4440.56711,S,16910.98410,E,074355.00,A,A*61

$GNRMC,074356.00,A,4440.56708,S,16910.98414,E,0.046,,150125,,,A,V*0D
$GNVTG,,T,,M,0.046,N,0.084,K,A*33
$GNGGA,074356.00,4440.56708,S,16910.98414,E,1,12,0.83,292.6,M,4.7,M,,*6F
$GNGSA,A,3,02,03,16,26,31,04,,,,,,,1.29,0.83,0.99,1*04
$GNGSA,A,3,78,79,67,66,77,69,,,,,,,1.29,0.83,0.99,2*0C
$GNGSA,A,3,,,,,,,,,,,,,1.29,0.83,0.99,3*02
$GNGSA,A,3,,,,,,,,,,,,,1.29,0.83,0.99,4*05
$GPGSV,3,1,10,01,,,46,02,06,312,39,03,63,261,42,04,35,246,39,1*57
$GPGSV,3,2,10,06,,,27,16,29,018,45,26,51,044,38,31,74,130,41,1*5E
$GPGSV,3,3,10,46,11,069,43,50,33,327,39,1*66
$GLGSV,2,1,07,66,11,060,37,67,61,084,33,69,09,229,36,76,10,150,26,1*7E
$GLGSV,2,2,07,77,54,133,34,78,55,357,42,79,06,339,47,1*42
$GAGSV,1,1,03,27,,,37,29,,,42,33,,,44,7*7C
$GBGSV,2,1,05,01,,,41,03,,,40,20,,,42,32,,,40,1*72
$GBGSV,2,2,05,37,,,42,1*71
$GNGLL,4440.56708,S,16910.98414,E,074356.00,A,A*6E

$GNRMC,074357.00,A,4440.56705,S,16910.98419,E,0.008,,150125,,,A,V*06
$GNVTG,,T,,M,0.008,N,0.015,K,A*31
$GNGGA,074357.00,4440.56705,S,16910.98419,E,1,12,0.78,292.4,M,4.7,M,,*68
$GNGSA,A,3,02,03,16,26,31,04,,,,,,,1.24,0.78,0.96,1*02
$GNGSA,A,3,78,79,67,66,77,69,,,,,,,1.24,0.78,0.96,2*0A
$GNGSA,A,3,,,,,,,,,,,,,1.24,0.78,0.96,3*04
$GNGSA,A,3,01,03,,,,,,,,,,,1.24,0.78,0.96,4*01
$GPGSV,3,1,10,01,,,46,02,06,312,39,03,63,261,42,04,35,246,39,1*57
$GPGSV,3,2,10,06,,,27,16,29,018,44,26,51,044,39,31,74,130,40,1*5F
$GPGSV,3,3,10,46,11,069,43,50,33,327,39,1*66
$GLGSV,2,1,07,66,11,060,37,67,61,084,32,69,09,229,36,76,10,150,25,1*7C
$GLGSV,2,2,07,77,54,133,35,78,55,357,42,79,06,339,47,1*43
$GAGSV,1,1,04,07,,,37,27,,,36,29,,,42,33,,,44,7*79
$GBGSV,2,1,05,01,,,41,03,,,40,20,,,42,32,,,40,1*72
$GBGSV,2,2,05,37,,,42,1*71
$GNGLL,4440.56705,S,16910.98419,E,074357.00,A,A*6F

$GNRMC,074358.00,A,4440.56701,S,16910.98423,E,0.054,,150125,,,A,V*0D
$GNVTG,,T,,M,0.054,N,0.100,K,A*3D
$GNGGA,074358.00,4440.56701,S,16910.98423,E,1,12,0.78,292.3,M,4.7,M,,*6D
$GNGSA,A,3,02,03,16,26,31,04,,,,,,,1.24,0.78,0.96,1*02
$GNGSA,A,3,78,79,67,66,77,69,,,,,,,1.24,0.78,0.96,2*0A
$GNGSA,A,3,,,,,,,,,,,,,1.24,0.78,0.96,3*04
$GNGSA,A,3,01,03,,,,,,,,,,,1.24,0.78,0.96,4*01
$GPGSV,3,1,10,01,,,45,02,06,312,39,03,63,261,42,04,35,246,39,1*54
$GPGSV,3,2,10,06,,,27,16,29,018,44,26,51,044,39,31,74,130,40,1*5F
$GPGSV,3,3,10,46,11,069,43,50,33,327,39,1*66
$GLGSV,2,1,07,66,11,060,37,67,61,084,32,69,09,229,35,76,10,150,25,1*7F
$GLGSV,2,2,07,77,54,133,35,78,55,357,42,79,06,339,47,1*43
$GAGSV,1,1,04,07,,,37,27,,,36,29,,,42,33,,,44,7*79
$GBGSV,2,1,05,01,35,326,41,03,15,292,40,20,,,42,32,,,40,1*7E
$GBGSV,2,2,05,37,,,42,1*71
$GNGLL,4440.56701,S,16910.98423,E,074358.00,A,A*6D

$GNRMC,074359.00,A,4440.56698,S,16910.98427,E,0.011,,150125,,,A,V*08
$GNVTG,,T,,M,0.011,N,0.020,K,A*3F
$GNGGA,074359.00,4440.56698,S,16910.98427,E,1,12,0.78,292.1,M,4.7,M,,*6B
$GNGSA,A,3,02,03,16,26,31,04,,,,,,,1.24,0.78,0.96,1*02
$GNGSA,A,3,78,79,67,66,77,69,,,,,,,1.24,0.78,0.96,2*0A
$GNGSA,A,3,,,,,,,,,,,,,1.24,0.78,0.96,3*04
$GNGSA,A,3,01,03,,,,,,,,,,,1.24,0.78,0.96,4*01
$GPGSV,3,1,10,01,,,46,02,06,312,39,03,63,261,42,04,35,246,39,1*57
$GPGSV,3,2,10,06,,,27,16,29,018,44,26,51,044,39,31,74,130,40,1*5F
$GPGSV,3,3,10,46,11,069,43,50,33,327,39,1*66
$GLGSV,2,1,07,66,11,060,37,67,61,084,32,69,09,229,36,76,10,150,25,1*7C
$GLGSV,2,2,07,77,54,133,35,78,55,357,42,79,06,339,47,1*43
$GAGSV,1,1,04,07,,,37,27,,,36,29,,,42,33,,,44,7*79
$GBGSV,2,1,05,01,35,326,41,03,15,292,40,20,,,42,32,,,40,1*7E
$GBGSV,2,2,05,37,,,42,1*71
$GNGLL,4440.56698,S,16910.98427,E,074359.00,A,A*69

$GNRMC,074400.00,A,4440.56694,S,16910.98431,E,0.064,,150125,,,A,V*0A
$GNVTG,,T,,M,0.064,N,0.118,K,A*37
$GNGGA,074400.00,4440.56694,S,16910.98431,E,1,12,0.78,292.0,M,4.7,M,,*6A
$GNGSA,A,3,02,03,16,26,31,04,,,,,,,1.24,0.78,0.96,1*02
$GNGSA,A,3,78,79,67,66,77,69,,,,,,,1.24,0.78,0.96,2*0A
$GNGSA,A,3,,,,,,,,,,,,,1.24,0.78,0.96,3*04
$GNGSA,A,3,01,03,,,,,,,,,,,1.24,0.78,0.96,4*01
$GPGSV,3,1,10,01,,,46,02,06,312,39,03,63,261,43,04,35,246,39,1*56
$GPGSV,3,2,10,06,,,27,16,29,018,44,26,51,044,39,31,74,130,40,1*5F
$GPGSV,3,3,10,46,11,069,43,50,33,327,39,1*66
$GLGSV,2,1,07,66,11,060,37,67,61,084,32,69,09,229,35,76,10,150,24,1*7E
$GLGSV,2,2,07,77,54,133,35,78,55,357,42,79,06,339,47,1*43
$GAGSV,1,1,04,07,,,37,27,,,36,29,,,42,33,,,44,7*79
$GBGSV,2,1,05,01,35,326,41,03,15,292,40,20,,,42,32,,,41,1*7F
$GBGSV,2,2,05,37,,,42,1*71
$GNGLL,4440.56694,S,16910.98431,E,074400.00,A,A*69

$GNRMC,074401.00,A,4440.56691,S,16910.98435,E,0.100,,150125,,,A,V*09
$GNVTG,,T,,M,0.100,N,0.185,K,A*30
$GNGGA,074401.00,4440.56691,S,16910.98435,E,1,12,0.78,291.9,M,4.7,M,,*60
$GNGSA,A,3,02,03,16,26,31,04,,,,,,,1.24,0.78,0.96,1*02
$GNGSA,A,3,78,79,67,66,77,69,,,,,,,1.24,0.78,0.96,2*0A
$GNGSA,A,3,,,,,,,,,,,,,1.24,0.78,0.96,3*04
$GNGSA,A,3,01,03,,,,,,,,,,,1.24,0.78,0.96,4*01
$GPGSV,3,1,10,01,,,46,02,06,312,39,03,63,261,43,04,35,246,39,1*56
$GPGSV,3,2,10,06,,,27,16,29,018,44,26,51,044,39,31,74,130,40,1*5F
$GPGSV,3,3,10,46,11,069,43,50,33,327,39,1*66
$GLGSV,2,1,07,66,11,060,37,67,61,084,32,69,09,229,36,76,10,150,24,1*7D
$GLGSV,2,2,07,77,54,133,34,78,55,357,42,79,06,339,47,1*42
$GAGSV,1,1,04,07,,,37,27,,,36,29,,,42,33,,,44,7*79
$GBGSV,2,1,05,01,35,326,41,03,15,292,40,20,,,42,32,,,41,1*7F
$GBGSV,2,2,05,37,,,42,1*71
$GNGLL,4440.56691,S,16910.98435,E,074401.00,A,A*69

$GNRMC,074402.00,A,4440.56689,S,16910.98438,E,0.021,,150125,,,A,V*0C
$GNVTG,,T,,M,0.021,N,0.039,K,A*34
$GNGGA,074402.00,4440.56689,S,16910.98438,E,1,12,0.78,291.7,M,4.7,M,,*69
$GNGSA,A,3,02,03,16,26,31,04,,,,,,,1.24,0.78,0.96,1*02
$GNGSA,A,3,78,79,67,66,77,69,,,,,,,1.24,0.78,0.96,2*0A
$GNGSA,A,3,,,,,,,,,,,,,1.24,0.78,0.96,3*04
$GNGSA,A,3,01,03,,,,,,,,,,,1.24,0.78,0.96,4*01
$GPGSV,3,1,10,01,,,46,02,06,312,39,03,63,261,43,04,35,246,39,1*56
$GPGSV,3,2,10,06,,,27,16,29,018,44,26,51,044,39,31,74,130,40,1*5F
$GPGSV,3,3,10,46,11,069,43,50,33,327,39,1*66
$GLGSV,2,1,07,66,11,060,37,67,61,084,33,69,09,229,36,76,10,150,24,1*7C
$GLGSV,2,2,07,77,54,133,35,78,55,357,42,79,06,339,47,1*43
$GAGSV,1,1,04,07,,,37,27,,,35,29,,,42,33,,,44,7*7A
$GBGSV,2,1,06,01,35,326,41,03,15,292,40,16,,,40,20,,,42,1*7B
$GBGSV,2,2,06,32,,,41,37,,,42,1*76
$GNGLL,4440.56689,S,16910.98438,E,074402.00,A,A*6E

$GNRMC,074403.00,A,4440.56685,S,16910.98439,E,0.098,,150125,,,A,V*02
$GNVTG,,T,,M,0.098,N,0.181,K,A*34
$GNGGA,074403.00,4440.56685,S,16910.98439,E,1,12,0.77,291.6,M,4.7,M,,*6B
$GNGSA,A,3,02,03,16,26,31,04,,,,,,,1.22,0.77,0.95,1*08
$GNGSA,A,3,78,79,67,66,77,69,,,,,,,1.22,0.77,0.95,2*00
$GNGSA,A,3,,,,,,,,,,,,,1.22,0.77,0.95,3*0E
$GNGSA,A,3,01,03,20,,,,,,,,,,1.22,0.77,0.95,4*09
$GPGSV,3,1,10,01,,,45,02,05,313,37,03,63,261,42,04,35,246,39,1*58
$GPGSV,3,2,10,06,,,30,16,29,018,44,26,51,044,39,31,74,130,39,1*57
$GPGSV,3,3,10,46,11,069,43,50,33,327,39,1*66
$GLGSV,2,1,07,66,11,060,35,67,61,084,32,69,09,229,33,76,10,150,26,1*78
$GLGSV,2,2,07,77,54,133,33,78,55,357,39,79,06,339,45,1*4B
$GAGSV,1,1,04,07,,,38,27,,,34,29,,,41,33,,,44,7*77
$GBGSV,2,1,06,01,35,326,41,03,15,292,40,16,,,40,20,,,42,1*7B
$GBGSV,2,2,06,32,,,41,37,,,42,1*76
$GNGLL,4440.56685,S,16910.98439,E,074403.00,A,A*62

$GNRMC,074404.00,A,4440.56682,S,16910.98440,E,0.191,,150125,,,A,V*04
$GNVTG,,T,,M,0.191,N,0.354,K,A*36
$GNGGA,074404.00,4440.56682,S,16910.98440,E,1,12,0.77,291.5,M,4.7,M,,*66
$GNGSA,A,3,02,03,16,26,31,04,,,,,,,1.22,0.77,0.95,1*08
$GNGSA,A,3,78,79,67,66,77,69,,,,,,,1.22,0.77,0.95,2*00
$GNGSA,A,3,,,,,,,,,,,,,1.22,0.77,0.95,3*0E
$GNGSA,A,3,01,03,20,,,,,,,,,,1.22,0.77,0.95,4*09
$GPGSV,3,1,10,01,,,45,02,05,313,38,03,63,262,42,04,35,246,39,1*54
$GPGSV,3,2,10,06,,,29,16,29,018,44,26,51,044,39,31,74,130,39,1*5F
$GPGSV,3,3,10,46,11,069,43,50,33,327,39,1*66
$GLGSV,2,1,07,66,11,060,37,67,61,084,33,69,09,229,34,76,10,150,26,1*7C
$GLGSV,2,2,07,77,54,133,33,78,55,357,40,79,06,339,46,1*46
$GAGSV,1,1,04,07,,,38,27,,,35,29,,,42,33,,,44,7*75
$GBGSV,2,1,06,01,35,326,41,03,15,292,40,16,,,40,20,56,232,41,1*48
$GBGSV,2,2,06,32,,,40,37,,,42,1*77
$GNGLL,4440.56682,S,16910.98440,E,074404.00,A,A*6C

$GNRMC,074405.00,A,4440.56679,S,16910.98441,E,0.053,,150125,,,A,V*0F
$GNVTG,,T,,M,0.053,N,0.098,K,A*3A
$GNGGA,074405.00,4440.56679,S,16910.98441,E,1,12,0.77,291.4,M,4.7,M,,*63
$GNGSA,A,3,02,03,16,26,31,04,,,,,,,1.22,0.77,0.95,1*08
$GNGSA,A,3,78,79,67,66,77,69,,,,,,,1.22,0.77,0.95,2*00
$GNGSA,A,3,,,,,,,,,,,,,1.22,0.77,0.95,3*0E
$GNGSA,A,3,01,03,20,,,,,,,,,,1.22,0.77,0.95,4*09
$GPGSV,3,1,10,01,,,45,02,05,313,38,03,63,262,42,04,35,246,39,1*54
$GPGSV,3,2,10,06,,,27,16,29,018,44,26,51,044,39,31,74,130,39,1*51
$GPGSV,3,3,10,46,11,069,43,50,33,327,39,1*66
$GLGSV,2,1,07,66,11,060,37,67,61,084,33,69,09,229,34,76,10,150,24,1*7E
$GLGSV,2,2,07,77,54,133,34,78,55,357,40,79,06,339,46,1*41
$GAGSV,1,1,04,07,,,38,27,,,35,29,,,42,33,,,44,7*75
$GBGSV,2,1,06,01,35,326,41,03,15,292,40,16,,,40,20,56,232,41,1*48
$GBGSV,2,2,06,32,,,41,37,,,42,1*76
$GNGLL,4440.56679,S,16910.98441,E,074405.00,A,A*68

$GNRMC,074406.00,A,4440.56676,S,16910.98442,E,0.048,,150125,,,A,V*0A
$GNVTG,,T,,M,0.048,N,0.089,K,A*30
$GNGGA,074406.00,4440.56676,S,16910.98442,E,1,12,0.77,291.3,M,4.7,M,,*6B
$GNGSA,A,3,02,03,16,26,31,04,,,,,,,1.22,0.77,0.95,1*08
$GNGSA,A,3,78,79,67,66,77,69,,,,,,,1.22,0.77,0.95,2*00
$GNGSA,A,3,,,,,,,,,,,,,1.22,0.77,0.95,3*0E
$GNGSA,A,3,01,03,20,,,,,,,,,,1.22,0.77,0.95,4*09
$GPGSV,3,1,10,01,,,45,02,05,313,38,03,63,262,42,04,35,246,39,1*54
$GPGSV,3,2,10,06,,,26,16,29,018,44,26,51,044,39,31,74,130,40,1*5E
$GPGSV,3,3,10,46,11,069,43,50,33,327,39,1*66
$GLGSV,2,1,07,66,11,060,37,67,61,084,34,69,09,229,34,76,10,150,24,1*79
$GLGSV,2,2,07,77,54,133,34,78,55,357,41,79,06,339,46,1*40
$GAGSV,1,1,04,07,,,38,27,,,35,29,,,42,33,,,44,7*75
$GBGSV,2,1,06,01,35,326,41,03,15,292,40,16,,,40,20,56,232,41,1*48
$GBGSV,2,2,06,32,,,41,37,,,42,1*76
$GNGLL,4440.56676,S,16910.98442,E,074406.00,A,A*67

$GNRMC,074407.00,A,4440.56673,S,16910.98443,E,0.032,,150125,,,A,V*02
$GNVTG,,T,,M,0.032,N,0.060,K,A*3A
$GNGGA,074407.00,4440.56673,S,16910.98443,E,1,12,0.77,291.2,M,4.7,M,,*6F
$GNGSA,A,3,02,03,16,26,31,04,,,,,,,1.22,0.77,0.95,1*08
$GNGSA,A,3,78,79,67,66,77,69,,,,,,,1.22,0.77,0.95,2*00
$GNGSA,A,3,,,,,,,,,,,,,1.22,0.77,0.95,3*0E
$GNGSA,A,3,01,03,20,,,,,,,,,,1.22,0.77,0.95,4*09
$GPGSV,3,1,10,01,,,45,02,05,313,38,03,63,262,42,04,35,246,39,1*54
$GPGSV,3,2,10,06,,,26,16,29,018,44,26,51,044,40,31,74,130,40,1*50
$GPGSV,3,3,10,46,11,069,43,50,33,327,39,1*66
$GLGSV,2,1,07,66,11,060,38,67,61,084,34,69,09,229,35,76,10,150,24,1*77
$GLGSV,2,2,07,77,54,133,34,78,55,357,41,79,06,339,47,1*41
$GAGSV,1,1,04,07,,,38,27,,,35,29,,,42,33,,,44,7*75
$GBGSV,2,1,06,01,35,326,41,03,15,292,40,16,,,40,20,56,232,41,1*48
$GBGSV,2,2,06,32,,,41,37,,,42,1*76
$GNGLL,4440.56673,S,16910.98443,E,074407.00,A,A*62

$GNRMC,074408.00,A,4440.56669,S,16910.98442,E,0.040,,150125,,,A,V*02
$GNVTG,,T,,M,0.040,N,0.075,K,A*3B
$GNGGA,074408.00,4440.56669,S,16910.98442,E,1,12,0.77,291.1,M,4.7,M,,*69
$GNGSA,A,3,02,03,16,26,31,04,,,,,,,1.22,0.77,0.95,1*08
$GNGSA,A,3,78,79,67,66,77,69,,,,,,,1.22,0.77,0.95,2*00
$GNGSA,A,3,,,,,,,,,,,,,1.22,0.77,0.95,3*0E
$GNGSA,A,3,01,03,20,,,,,,,,,,1.22,0.77,0.95,4*09
$GPGSV,3,1,10,01,,,46,02,05,313,38,03,63,262,42,04,35,246,39,1*57
$GPGSV,3,2,10,06,,,25,16,29,018,44,26,52,045,39,31,74,130,39,1*51
$GPGSV,3,3,10,46,11,069,43,50,33,327,39,1*66
$GLGSV,2,1,07,66,11,060,38,67,61,084,33,69,09,229,36,76,10,150,24,1*73
$GLGSV,2,2,07,77,54,133,35,78,55,357,41,79,06,339,47,1*40
$GAGSV,1,1,04,07,,,37,27,,,36,29,,,42,33,,,44,7*79
$GBGSV,2,1,06,01,35,326,41,03,15,292,40,16,,,40,20,56,232,41,1*48
$GBGSV,2,2,06,32,,,41,37,,,42,1*76
$GNGLL,4440.56669,S,16910.98442,E,074408.00,A,A*67

$GNRMC,074409.00,A,4440.56668,S,16910.98441,E,0.039,,150125,,,A,V*0F
$GNVTG,,T,,M,0.039,N,0.073,K,A*33
$GNGGA,074409.00,4440.56668,S,16910.98441,E,1,12,0.75,291.0,M,4.7,M,,*69
$GNGSA,A,3,02,03,16,26,31,04,,,,,,,1.16,0.75,0.89,1*00
$GNGSA,A,3,78,79,67,66,77,69,,,,,,,1.16,0.75,0.89,2*08
$GNGSA,A,3,,,,,,,,,,,,,1.16,0.75,0.89,3*06
$GNGSA,A,3,01,03,32,37,20,,,,,,,,1.16,0.75,0.89,4*04
$GPGSV,3,1,10,01,,,46,02,05,313,38,03,63,262,42,04,35,246,39,1*57
$GPGSV,3,2,10,06,,,25,16,29,018,44,26,52,045,39,31,73,130,39,1*56
$GPGSV,3,3,10,46,11,069,43,50,33,327,39,1*66
$GLGSV,2,1,07,66,11,060,37,67,61,084,32,69,09,229,36,76,10,150,25,1*7C
$GLGSV,2,2,07,77,54,133,35,78,55,357,41,79,06,339,47,1*40
$GAGSV,1,1,04,07,,,37,27,,,36,29,,,42,33,,,44,7*79
$GBGSV,2,1,06,01,35,326,41,03,15,292,40,16,,,40,20,56,232,42,1*4B
$GBGSV,2,2,06,32,,,41,37,,,42,1*76
$GNGLL,4440.56668,S,16910.98441,E,074409.00,A,A*64

$GNRMC,074410.00,A,4440.56667,S,16910.98440,E,0.020,,150125,,,A,V*01
$GNVTG,,T,,M,0.020,N,0.037,K,A*3B
$GNGGA,074410.00,4440.56667,S,16910.98440,E,1,12,0.75,290.8,M,4.7,M,,*66
$GNGSA,A,3,02,03,16,26,31,04,,,,,,,1.16,0.75,0.89,1*00
$GNGSA,A,3,78,79,67,66,77,69,,,,,,,1.16,0.75,0.89,2*08
$GNGSA,A,3,,,,,,,,,,,,,1.16,0.75,0.89,3*06
$GNGSA,A,3,01,03,32,37,20,,,,,,,,1.16,0.75,0.89,4*04
$GPGSV,3,1,10,01,,,46,02,05,313,38,03,63,262,41,04,35,246,39,1*54
$GPGSV,3,2,10,06,,,24,16,29,018,44,26,52,045,39,31,73,130,40,1*59
$GPGSV,3,3,10,46,11,069,43,50,33,327,39,1*66
$GLGSV,2,1,07,66,11,060,36,67,61,084,32,69,09,229,35,76,10,150,25,1*7E
$GLGSV,2,2,07,77,54,133,35,78,55,357,42,79,06,339,47,1*43
$GAGSV,1,1,04,07,,,37,27,,,36,29,,,42,33,,,44,7*79
$GBGSV,2,1,06,01,35,326,41,03,15,292,40,16,,,40,20,56,232,42,1*4B
$GBGSV,2,2,06,32,62,048,41,37,62,354,42,1*78
$GNGLL,4440.56667,S,16910.98440,E,074410.00,A,A*62

$GNRMC,081741.00,V,,,,,,,150125,,,N,V*10
$GNVTG,,,,,,,,,N*2E
$GNGGA,081741.00,,,,,0,00,99.99,,,,,,*73
$GNGSA,A,1,,,,,,,,,,,,,99.99,99.99,99.99,1*33
$GNGSA,A,1,,,,,,,,,,,,,99.99,99.99,99.99,2*30
$GNGSA,A,1,,,,,,,,,,,,,99.99,99.99,99.99,3*31
$GNGSA,A,1,,,,,,,,,,,,,99.99,99.99,99.99,4*36
$GPGSV,2,1,08,03,,,44,04,,,36,06,,,37,09,,,41,1*63
$GPGSV,2,2,08,16,,,43,26,,,41,31,,,40,46,,,44,1*69
$GLGSV,1,1,04,68,,,42,69,,,43,78,,,44,79,,,50,1*78
$GAGSV,1,1,00,7*73
$GBGSV,1,1,00,1*76
$GNGLL,,,,,081741.00,V,N*5F

$GNRMC,081742.00,V,,,,,,,150125,,,N,V*13
$GNVTG,,,,,,,,,N*2E
$GNGGA,081742.00,,,,,0,00,99.99,,,,,,*70
$GNGSA,A,1,,,,,,,,,,,,,99.99,99.99,99.99,1*33
$GNGSA,A,1,,,,,,,,,,,,,99.99,99.99,99.99,2*30
$GNGSA,A,1,,,,,,,,,,,,,99.99,99.99,99.99,3*31
$GNGSA,A,1,,,,,,,,,,,,,99.99,99.99,99.99,4*36
$GPGSV,2,1,08,03,,,45,04,,,36,06,,,37,09,,,41,1*62
$GPGSV,2,2,08,16,,,43,26,,,41,31,,,40,46,,,44,1*69
$GLGSV,1,1,04,68,,,41,69,,,43,78,,,44,79,,,50,1*7B
$GAGSV,1,1,00,7*73
$GBGSV,1,1,00,1*76
$GNGLL,,,,,081742.00,V,N*5C

$GNRMC,081743.00,V,,,,,,,150125,,,N,V*12
$GNVTG,,,,,,,,,N*2E
$GNGGA,081743.00,,,,,0,00,99.99,,,,,,*71
$GNGSA,A,1,,,,,,,,,,,,,99.99,99.99,99.99,1*33
$GNGSA,A,1,,,,,,,,,,,,,99.99,99.99,99.99,2*30
$GNGSA,A,1,,,,,,,,,,,,,99.99,99.99,99.99,3*31
$GNGSA,A,1,,,,,,,,,,,,,99.99,99.99,99.99,4*36
$GPGSV,2,1,08,03,,,45,04,,,36,06,,,37,09,,,41,1*62
$GPGSV,2,2,08,16,,,43,26,,,41,31,,,40,46,,,44,1*69
$GLGSV,1,1,04,68,,,41,69,,,43,78,,,43,79,,,50,1*7C
$GAGSV,1,1,00,7*73
$GBGSV,1,1,00,1*76
$GNGLL,,,,,081743.00,V,N*5D

$GNRMC,081744.00,V,,,,,,,150125,,,N,V*15
$GNVTG,,,,,,,,,N*2E
$GNGGA,081744.00,,,,,0,00,99.99,,,,,,*76
$GNGSA,A,1,,,,,,,,,,,,,99.99,99.99,99.99,1*33
$GNGSA,A,1,,,,,,,,,,,,,99.99,99.99,99.99,2*30
$GNGSA,A,1,,,,,,,,,,,,,99.99,99.99,99.99,3*31
$GNGSA,A,1,,,,,,,,,,,,,99.99,99.99,99.99,4*36
$GPGSV,2,1,08,03,,,45,04,,,36,06,,,37,09,,,41,1*62
$GPGSV,2,2,08,16,,,43,26,,,41,31,,,40,46,,,43,1*6E
$GLGSV,1,1,04,68,,,42,69,,,43,78,,,43,79,,,50,1*7F
$GAGSV,1,1,00,7*73
$GBGSV,1,1,00,1*76
$GNGLL,,,,,081744.00,V,N*5A

$GNRMC,081745.00,V,,,,,,,150125,,,N,V*14
$GNVTG,,,,,,,,,N*2E
$GNGGA,081745.00,,,,,0,00,99.99,,,,,,*77
$GNGSA,A,1,,,,,,,,,,,,,99.99,99.99,99.99,1*33
$GNGSA,A,1,,,,,,,,,,,,,99.99,99.99,99.99,2*30
$GNGSA,A,1,,,,,,,,,,,,,99.99,99.99,99.99,3*31
$GNGSA,A,1,,,,,,,,,,,,,99.99,99.99,99.99,4*36
$GPGSV,2,1,08,03,,,45,04,,,36,06,,,36,09,,,41,1*63
$GPGSV,2,2,08,16,,,43,26,,,40,31,,,40,46,,,44,1*68
$GLGSV,1,1,04,68,,,42,69,,,43,78,,,43,79,,,50,1*7F
$GAGSV,1,1,00,7*73
$GBGSV,1,1,01,20,,,43,1*72
$GNGLL,,,,,081745.00,V,N*5B

$GNRMC,081746.00,V,,,,,,,150125,,,N,V*17
$GNVTG,,,,,,,,,N*2E
$GNGGA,081746.00,,,,,0,00,99.99,,,,,,*74
$GNGSA,A,1,,,,,,,,,,,,,99.99,99.99,99.99,1*33
$GNGSA,A,1,,,,,,,,,,,,,99.99,99.99,99.99,2*30
$GNGSA,A,1,,,,,,,,,,,,,99.99,99.99,99.99,3*31
$GNGSA,A,1,,,,,,,,,,,,,99.99,99.99,99.99,4*36
$GPGSV,2,1,08,03,,,45,04,,,36,06,,,36,09,,,41,1*63
$GPGSV,2,2,08,16,,,44,26,,,40,31,,,40,46,,,44,1*6F
$GLGSV,1,1,04,68,,,41,69,,,43,78,,,43,79,,,50,1*7C
$GAGSV,1,1,00,7*73
$GBGSV,1,1,01,20,,,43,1*72
$GNGLL,,,,,081746.00,V,N*58

$GNRMC,081747.00,V,,,,,,,150125,,,N,V*16
$GNVTG,,,,,,,,,N*2E
$GNGGA,081747.00,,,,,0,00,99.99,,,,,,*75
$GNGSA,A,1,,,,,,,,,,,,,99.99,99.99,99.99,1*33
$GNGSA,A,1,,,,,,,,,,,,,99.99,99.99,99.99,2*30
$GNGSA,A,1,,,,,,,,,,,,,99.99,99.99,99.99,3*31
$GNGSA,A,1,,,,,,,,,,,,,99.99,99.99,99.99,4*36
$GPGSV,2,1,08,03,,,45,04,,,36,06,,,36,09,,,40,1*62
$GPGSV,2,2,08,16,,,44,26,,,40,31,,,40,46,,,44,1*6F
$GLGSV,2,1,05,68,,,41,69,,,43,78,,,43,79,,,50,1*7E
$GLGSV,2,2,05,,,,44,1*7D
$GAGSV,1,1,00,7*73
$GBGSV,1,1,01,20,,,43,1*72
$GNGLL,,,,,081747.00,V,N*59

$GNRMC,081748.00,V,,,,,,,150125,,,N,V*19
$GNVTG,,,,,,,,,N*2E
$GNGGA,081748.00,,,,,0,00,99.99,,,,,,*7A
$GNGSA,A,1,,,,,,,,,,,,,99.99,99.99,99.99,1*33
$GNGSA,A,1,,,,,,,,,,,,,99.99,99.99,99.99,2*30
$GNGSA,A,1,,,,,,,,,,,,,99.99,99.99,99.99,3*31
$GNGSA,A,1,,,,,,,,,,,,,99.99,99.99,99.99,4*36
$GPGSV,2,1,08,03,,,45,04,,,36,06,,,36,09,,,40,1*62
$GPGSV,2,2,08,16,,,44,26,,,40,31,,,40,46,,,44,1*6F
$GLGSV,2,1,05,68,,,41,69,,,43,78,,,43,79,,,50,1*7E
$GLGSV,2,2,05,,,,45,1*7C
$GAGSV,1,1,00,7*73
$GBGSV,1,1,01,20,,,44,1*75
$GNGLL,,,,,081748.00,V,N*56

$GNRMC,081749.00,V,,,,,,,150125,,,N,V*18
$GNVTG,,,,,,,,,N*2E
$GNGGA,081749.00,,,,,0,00,99.99,,,,,,*7B
$GNGSA,A,1,,,,,,,,,,,,,99.99,99.99,99.99,1*33
$GNGSA,A,1,,,,,,,,,,,,,99.99,99.99,99.99,2*30
$GNGSA,A,1,,,,,,,,,,,,,99.99,99.99,99.99,3*31
$GNGSA,A,1,,,,,,,,,,,,,99.99,99.99,99.99,4*36
$GPGSV,2,1,08,03,,,45,04,,,36,06,,,36,09,,,40,1*62
$GPGSV,2,2,08,16,,,44,26,,,40,31,,,40,46,,,44,1*6F
$GLGSV,2,1,06,68,,,41,69,,,43,78,,,43,79,,,50,1*7D
$GLGSV,2,2,06,,,,46,,,,32,1*7D
$GAGSV,1,1,00,7*73
$GBGSV,1,1,01,20,,,44,1*75
$GNGLL,,,,,081749.00,V,N*57

$GNRMC,081750.00,V,,,,,,,150125,,,N,V*10
$GNVTG,,,,,,,,,N*2E
$GNGGA,081750.00,,,,,0,00,99.99,,,,,,*73
$GNGSA,A,1,,,,,,,,,,,,,99.99,99.99,99.99,1*33
$GNGSA,A,1,,,,,,,,,,,,,99.99,99.99,99.99,2*30
$GNGSA,A,1,,,,,,,,,,,,,99.99,99.99,99.99,3*31
$GNGSA,A,1,,,,,,,,,,,,,99.99,99.99,99.99,4*36
$GPGSV,2,1,08,03,,,45,04,,,36,06,,,36,09,,,40,1*62
$GPGSV,2,2,08,16,,,44,26,,,40,31,,,40,46,,,44,1*6F
$GLGSV,2,1,06,68,,,41,69,,,43,78,,,43,79,,,50,1*7D
$GLGSV,2,2,06,,,,46,,,,32,1*7D
$GAGSV,1,1,00,7*73
$GBGSV,1,1,02,20,,,44,32,,,43,1*70
$GNGLL,,,,,081750.00,V,N*5F

$GNRMC,081751.00,V,,,,,,,150125,,,N,V*11
$GNVTG,,,,,,,,,N*2E
$GNGGA,081751.00,,,,,0,00,99.99,,,,,,*72
$GNGSA,A,1,,,,,,,,,,,,,99.99,99.99,99.99,1*33
$GNGSA,A,1,,,,,,,,,,,,,99.99,99.99,99.99,2*30
$GNGSA,A,1,,,,,,,,,,,,,99.99,99.99,99.99,3*31
$GNGSA,A,1,,,,,,,,,,,,,99.99,99.99,99.99,4*36
$GPGSV,2,1,08,03,,,45,04,,,36,06,,,36,09,,,40,1*62
$GPGSV,2,2,08,16,,,44,26,,,39,31,,,40,46,,,44,1*61
$GLGSV,2,1,06,68,,,41,69,,,43,78,,,43,79,,,50,1*7D
$GLGSV,2,2,06,,,,46,,,,32,1*7D
$GAGSV,1,1,00,7*73
$GBGSV,1,1,04,01,,,40,03,,,40,20,,,44,32,,,42,1*75
$GNGLL,,,,,081751.00,V,N*5E

$GNRMC,081752.00,V,,,,,,,150125,,,N,V*12
$GNVTG,,,,,,,,,N*2E
$GNGGA,081752.00,,,,,0,00,99.99,,,,,,*71
$GNGSA,A,1,,,,,,,,,,,,,99.99,99.99,99.99,1*33
$GNGSA,A,1,,,,,,,,,,,,,99.99,99.99,99.99,2*30
$GNGSA,A,1,,,,,,,,,,,,,99.99,99.99,99.99,3*31
$GNGSA,A,1,,,,,,,,,,,,,99.99,99.99,99.99,4*36
$GPGSV,2,1,08,03,,,45,04,,,36,06,,,36,09,,,40,1*62
$GPGSV,2,2,08,16,,,44,26,,,39,31,,,40,46,,,44,1*61
$GLGSV,2,1,06,68,,,41,69,,,43,78,,,43,79,,,50,1*7D
$GLGSV,2,2,06,,,,46,,,,32,1*7D
$GAGSV,1,1,00,7*73
$GBGSV,1,1,04,01,,,41,03,,,40,20,,,44,32,,,42,1*74
$GNGLL,,,,,081752.00,V,N*5D

$GNRMC,081753.00,V,,,,,,,150125,,,N,V*13
$GNVTG,,,,,,,,,N*2E
$GNGGA,081753.00,,,,,0,00,99.99,,,,,,*70
$GNGSA,A,1,,,,,,,,,,,,,99.99,99.99,99.99,1*33
$GNGSA,A,1,,,,,,,,,,,,,99.99,99.99,99.99,2*30
$GNGSA,A,1,,,,,,,,,,,,,99.99,99.99,99.99,3*31
$GNGSA,A,1,,,,,,,,,,,,,99.99,99.99,99.99,4*36
$GPGSV,2,1,08,03,,,45,04,,,36,06,,,37,09,,,40,1*63
$GPGSV,2,2,08,16,,,45,26,,,39,31,,,41,46,,,44,1*61
$GLGSV,2,1,06,68,,,41,69,,,43,78,,,43,79,,,50,1*7D
$GLGSV,2,2,06,,,,46,,,,32,1*7D
$GAGSV,1,1,00,7*73
$GBGSV,2,1,06,01,,,41,03,,,40,08,,,36,16,,,41,1*7F
$GBGSV,2,2,06,20,,,44,32,,,42,1*75
$GNGLL,,,,,081753.00,V,N*5C

$GNRMC,081754.00,V,,,,,,,150125,,,N,V*14
$GNVTG,,,,,,,,,N*2E
$GNGGA,081754.00,,,,,0,00,99.99,,,,,,*77
$GNGSA,A,1,,,,,,,,,,,,,99.99,99.99,99.99,1*33
$GNGSA,A,1,,,,,,,,,,,,,99.99,99.99,99.99,2*30
$GNGSA,A,1,,,,,,,,,,,,,99.99,99.99,99.99,3*31
$GNGSA,A,1,,,,,,,,,,,,,99.99,99.99,99.99,4*36
$GPGSV,2,1,08,03,,,45,04,,,36,06,,,36,09,,,40,1*62
$GPGSV,2,2,08,16,,,45,26,,,39,31,,,41,46,,,43,1*66
$GLGSV,2,1,06,68,,,41,69,,,43,78,,,43,79,,,50,1*7D
$GLGSV,2,2,06,,,,46,,,,32,1*7D
$GAGSV,1,1,00,7*73
$GBGSV,2,1,07,01,,,41,03,,,40,08,,,36,13,,,37,1*7A
$GBGSV,2,2,07,16,,,41,20,,,44,32,,,42,1*76
$GNGLL,,,,,081754.00,V,N*5B

$GNRMC,081755.00,V,,,,,,,150125,,,N,V*15
$GNVTG,,,,,,,,,N*2E
$GNGGA,081755.00,,,,,0,00,99.99,,,,,,*76
$GNGSA,A,1,,,,,,,,,,,,,99.99,99.99,99.99,1*33
$GNGSA,A,1,,,,,,,,,,,,,99.99,99.99,99.99,2*30
$GNGSA,A,1,,,,,,,,,,,,,99.99,99.99,99.99,3*31
$GNGSA,A,1,,,,,,,,,,,,,99.99,99.99,99.99,4*36
$GPGSV,2,1,08,03,,,45,04,,,36,06,,,36,09,,,40,1*62
$GPGSV,2,2,08,16,,,45,26,,,39,31,,,41,46,,,43,1*66
$GLGSV,2,1,06,68,,,41,69,,,43,78,,,43,79,,,50,1*7D
$GLGSV,2,2,06,,,,46,,,,32,1*7D
$GAGSV,1,1,00,7*73
$GBGSV,2,1,07,01,,,41,03,,,40,08,,,36,13,,,37,1*7A
$GBGSV,2,2,07,16,,,42,20,,,44,32,,,42,1*75
$GNGLL,,,,,081755.00,V,N*5A

$GNRMC,081756.00,V,,,,,,,150125,,,N,V*16
$GNVTG,,,,,,,,,N*2E
$GNGGA,081756.00,,,,,0,00,99.99,,,,,,*75
$GNGSA,A,1,,,,,,,,,,,,,99.99,99.99,99.99,1*33
$GNGSA,A,1,,,,,,,,,,,,,99.99,99.99,99.99,2*30
$GNGSA,A,1,,,,,,,,,,,,,99.99,99.99,99.99,3*31
$GNGSA,A,1,,,,,,,,,,,,,99.99,99.99,99.99,4*36
$GPGSV,3,1,09,03,,,45,04,,,36,06,,,36,08,,,24,1*61
$GPGSV,3,2,09,09,,,40,16,,,45,26,,,38,31,,,41,1*6F
$GPGSV,3,3,09,46,,,43,1*68
$GLGSV,2,1,06,68,,,41,69,,,43,78,,,43,79,,,50,1*7D
$GLGSV,2,2,06,,,,45,,,,32,1*7E
$GAGSV,1,1,00,7*73
$GBGSV,2,1,07,01,,,41,03,,,40,08,,,36,13,,,37,1*7A
$GBGSV,2,2,07,16,,,42,20,,,44,32,,,42,1*75
$GNGLL,,,,,081756.00,V,N*59

$GNRMC,081757.00,V,,,,,,,150125,,,N,V*17
$GNVTG,,,,,,,,,N*2E
$GNGGA,081757.00,,,,,0,00,99.99,,,,,,*74
$GNGSA,A,1,,,,,,,,,,,,,99.99,99.99,99.99,1*33
$GNGSA,A,1,,,,,,,,,,,,,99.99,99.99,99.99,2*30
$GNGSA,A,1,,,,,,,,,,,,,99.99,99.99,99.99,3*31
$GNGSA,A,1,,,,,,,,,,,,,99.99,99.99,99.99,4*36
$GPGSV,2,1,08,03,,,45,04,,,35,06,,,36,09,,,40,1*61
$GPGSV,2,2,08,16,,,45,26,,,39,31,,,41,46,,,43,1*66
$GLGSV,2,1,06,68,,,41,69,,,43,78,,,43,79,,,50,1*7D
$GLGSV,2,2,06,,,,45,,,,32,1*7E
$GAGSV,1,1,01,27,,,42,7*71
$GBGSV,2,1,07,01,,,41,03,,,40,08,,,36,13,,,37,1*7A
$GBGSV,2,2,07,16,,,42,20,,,44,32,,,42,1*75
$GNGLL,,,,,081757.00,V,N*58

$GNRMC,081758.00,V,,,,,,,150125,,,N,V*18
$GNVTG,,,,,,,,,N*2E
$GNGGA,081758.00,,,,,0,00,99.99,,,,,,*7B
$GNGSA,A,1,,,,,,,,,,,,,99.99,99.99,99.99,1*33
$GNGSA,A,1,,,,,,,,,,,,,99.99,99.99,99.99,2*30
$GNGSA,A,1,,,,,,,,,,,,,99.99,99.99,99.99,3*31
$GNGSA,A,1,,,,,,,,,,,,,99.99,99.99,99.99,4*36
$GPGSV,2,1,08,03,,,45,04,,,36,06,,,37,09,,,40,1*63
$GPGSV,2,2,08,16,,,44,26,,,39,31,,,41,46,,,43,1*67
$GLGSV,2,1,06,68,,,41,69,,,43,78,,,42,79,,,49,1*74
$GLGSV,2,2,06,,,,45,,,,32,1*7E
$GAGSV,1,1,01,27,,,42,7*71
$GBGSV,2,1,07,01,,,41,03,,,40,08,,,36,13,,,37,1*7A
$GBGSV,2,2,07,16,,,41,20,,,44,32,,,42,1*76
$GNGLL,,,,,081758.00,V,N*57

$GNRMC,081759.00,V,,,,,,,150125,,,N,V*19
$GNVTG,,,,,,,,,N*2E
$GNGGA,081759.00,,,,,0,00,99.99,,,,,,*7A
$GNGSA,A,1,,,,,,,,,,,,,99.99,99.99,99.99,1*33
$GNGSA,A,1,,,,,,,,,,,,,99.99,99.99,99.99,2*30
$GNGSA,A,1,,,,,,,,,,,,,99.99,99.99,99.99,3*31
$GNGSA,A,1,,,,,,,,,,,,,99.99,99.99,99.99,4*36
$GPGSV,2,1,08,03,,,45,04,,,36,06,,,37,09,,,40,1*63
$GPGSV,2,2,08,16,,,44,26,,,39,31,,,41,46,,,43,1*67
$GLGSV,2,1,06,68,,,41,69,,,43,78,,,42,79,,,49,1*74
$GLGSV,2,2,06,,,,45,,,,32,1*7E
$GAGSV,1,1,01,27,,,42,7*71
$GBGSV,2,1,07,01,,,41,03,,,40,08,,,36,13,,,36,1*7B
$GBGSV,2,2,07,16,,,41,20,,,44,32,,,41,1*75
$GNGLL,,,,,081759.00,V,N*56

$GNRMC,081800.00,A,4440.56616,S,16910.98147,E,0.055,,150125,,,A,V*00
$GNVTG,,T,,M,0.055,N,0.102,K,A*3E
$GNGGA,081800.00,4440.56616,S,16910.98147,E,1,09,1.22,296.4,M,4.7,M,,*66
$GNGSA,A,3,03,06,09,16,04,26,31,,,,,,2.02,1.22,1.61,1*0F
$GNGSA,A,3,78,79,,,,,,,,,,,2.02,1.22,1.61,2*04
$GNGSA,A,3,,,,,,,,,,,,,2.02,1.22,1.61,3*04
$GNGSA,A,3,,,,,,,,,,,,,2.02,1.22,1.61,4*03
$GPGSV,2,1,08,03,,,45,04,,,35,06,,,37,09,,,40,1*60
$GPGSV,2,2,08,16,,,44,26,,,39,31,,,41,46,,,43,1*67
$GLGSV,2,1,06,68,,,41,69,,,43,78,,,42,79,,,49,1*74
$GLGSV,2,2,06,,,,45,,,,32,1*7E
$GAGSV,1,1,01,27,,,42,7*71
$GBGSV,2,1,07,01,,,41,03,,,40,08,,,36,13,,,36,1*7B
$GBGSV,2,2,07,16,,,41,20,,,44,32,,,41,1*75
$GNGLL,4440.56616,S,16910.98147,E,081800.00,A,A*61

$GNRMC,081801.00,A,4440.56581,S,16910.98109,E,0.076,,150125,,,A,V*07
$GNVTG,,T,,M,0.076,N,0.140,K,A*39
$GNGGA,081801.00,4440.56581,S,16910.98109,E,1,09,1.08,296.1,M,4.7,M,,*6D
$GNGSA,A,3,03,06,09,16,04,26,31,,,,,,1.66,1.08,1.27,1*04
$GNGSA,A,3,78,79,,,,,,,,,,,1.66,1.08,1.27,2*0F
$GNGSA,A,3,,,,,,,,,,,,,1.66,1.08,1.27,3*0F
$GNGSA,A,3,,,,,,,,,,,,,1.66,1.08,1.27,4*08
$GPGSV,2,1,08,03,62,299,45,04,48,237,36,06,09,219,37,09,19,242,40,1*60
$GPGSV,2,2,08,16,44,024,44,26,60,069,39,31,58,127,41,46,11,069,43,1*6E
$GLGSV,2,1,06,68,,,41,69,,,43,78,76,000,42,79,23,333,49,1*77
$GLGSV,2,2,06,,,,45,,,,32,1*7E
$GAGSV,1,1,01,27,,,42,7*71
$GBGSV,2,1,07,01,,,41,03,,,40,08,,,36,13,,,36,1*7B
$GBGSV,2,2,07,16,,,41,20,,,44,32,,,41,1*75
$GNGLL,4440.56581,S,16910.98109,E,081801.00,A,A*67

$GNRMC,081802.00,A,4440.56571,S,16910.98106,E,0.085,,150125,,,A,V*08
$GNVTG,,T,,M,0.085,N,0.157,K,A*33
$GNGGA,081802.00,4440.56571,S,16910.98106,E,1,09,1.08,296.0,M,4.7,M,,*6F
$GNGSA,A,3,03,06,09,16,04,26,31,,,,,,1.66,1.08,1.27,1*04
$GNGSA,A,3,78,79,,,,,,,,,,,1.66,1.08,1.27,2*0F
$GNGSA,A,3,,,,,,,,,,,,,1.66,1.08,1.27,3*0F
$GNGSA,A,3,,,,,,,,,,,,,1.66,1.08,1.27,4*08
$GPGSV,3,1,09,03,62,299,45,04,48,237,35,06,09,219,36,09,19,242,39,1*6C
$GPGSV,3,2,09,16,44,024,44,26,60,069,39,31,58,127,41,46,11,069,43,1*6E
$GPGSV,3,3,09,50,33,327,36,1*5B
$GLGSV,2,1,06,68,,,41,69,,,43,78,76,000,42,79,23,333,49,1*77
$GLGSV,2,2,06,,,,45,,,,32,1*7E
$GAGSV,1,1,01,27,,,42,7*71
$GBGSV,2,1,07,01,,,41,03,,,40,08,,,36,13,,,36,1*7B
$GBGSV,2,2,07,16,,,41,20,,,44,32,,,41,1*75
$GNGLL,4440.56571,S,16910.98106,E,081802.00,A,A*64

$GNRMC,081803.00,A,4440.56567,S,16910.98099,E,0.101,,150125,,,A,V*04
$GNVTG,,T,,M,0.101,N,0.187,K,A*33
$GNGGA,081803.00,4440.56567,S,16910.98099,E,1,11,1.04,295.7,M,4.7,M,,*6F
$GNGSA,A,3,03,06,09,16,04,26,31,,,,,,1.60,1.04,1.21,1*08
$GNGSA,A,3,78,79,69,68,,,,,,,,,1.60,1.04,1.21,2*02
$GNGSA,A,3,,,,,,,,,,,,,1.60,1.04,1.21,3*03
$GNGSA,A,3,,,,,,,,,,,,,1.60,1.04,1.21,4*04
$GPGSV,3,1,09,03,62,299,45,04,48,237,35,06,09,219,36,09,19,242,39,1*6C
$GPGSV,3,2,09,16,44,024,44,26,60,069,39,31,58,127,41,46,11,069,44,1*69
$GPGSV,3,3,09,50,33,327,39,1*54
$GLGSV,2,1,06,68,,,41,69,,,43,78,76,000,42,79,23,333,49,1*77
$GLGSV,2,2,06,,,,45,,,,32,1*7E
$GAGSV,1,1,01,27,,,42,7*71
$GBGSV,2,1,07,01,,,41,03,,,40,08,,,36,13,,,36,1*7B
$GBGSV,2,2,07,16,,,41,20,,,44,32,,,41,1*75
$GNGLL,4440.56567,S,16910.98099,E,081803.00,A,A*65

$GNRMC,081804.00,A,4440.56563,S,16910.98097,E,0.019,,150125,,,A,V*01
$GNVTG,,T,,M,0.019,N,0.035,K,A*33
$GNGGA,081804.00,4440.56563,S,16910.98097,E,1,11,1.04,295.3,M,4.7,M,,*66
$GNGSA,A,3,03,06,09,16,04,26,31,,,,,,1.60,1.04,1.21,1*08
$GNGSA,A,3,78,79,69,68,,,,,,,,,1.60,1.04,1.21,2*02
$GNGSA,A,3,,,,,,,,,,,,,1.60,1.04,1.21,3*03
$GNGSA,A,3,,,,,,,,,,,,,1.60,1.04,1.21,4*04
$GPGSV,3,1,09,03,62,299,45,04,48,237,35,06,09,219,36,09,19,242,39,1*6C
$GPGSV,3,2,09,16,44,024,43,26,60,069,39,31,58,127,41,46,11,069,44,1*6E
$GPGSV,3,3,09,50,33,327,39,1*54
$GLGSV,2,1,06,68,73,188,41,69,24,221,43,78,76,000,42,79,23,333,49,1*75
$GLGSV,2,2,06,,,,45,,,,32,1*7E
$GAGSV,1,1,02,07,,,40,27,,,42,7*71
$GBGSV,2,1,07,01,,,41,03,,,40,08,,,36,13,,,36,1*7B
$GBGSV,2,2,07,16,,,41,20,,,44,32,,,41,1*75
$GNGLL,4440.56563,S,16910.98097,E,081804.00,A,A*68

$GNRMC,081805.00,A,4440.56557,S,16910.98098,E,0.066,,150125,,,A,V*00
$GNVTG,,T,,M,0.066,N,0.122,K,A*3C
$GNGGA,081805.00,4440.56557,S,16910.98098,E,1,11,1.04,295.0,M,4.7,M,,*6C
$GNGSA,A,3,03,06,09,16,04,26,31,,,,,,1.60,1.04,1.21,1*08
$GNGSA,A,3,78,79,69,68,,,,,,,,,1.60,1.04,1.21,2*02
$GNGSA,A,3,,,,,,,,,,,,,1.60,1.04,1.21,3*03
$GNGSA,A,3,,,,,,,,,,,,,1.60,1.04,1.21,4*04
$GPGSV,3,1,09,03,62,299,46,04,48,237,35,06,09,219,36,09,19,242,39,1*6F
$GPGSV,3,2,09,16,44,024,43,26,60,069,39,31,58,127,41,46,11,069,44,1*6E
$GPGSV,3,3,09,50,33,327,40,1*5A
$GLGSV,2,1,06,68,73,188,41,69,24,221,43,78,76,000,42,79,23,333,49,1*75
$GLGSV,2,2,06,,,,44,,,,32,1*7F
$GAGSV,1,1,02,07,,,40,27,,,42,7*71
$GBGSV,2,1,07,01,,,41,03,,,40,08,,,36,13,,,36,1*7B
$GBGSV,2,2,07,16,,,41,20,,,44,32,,,41,1*75
$GNGLL,4440.56557,S,16910.98098,E,081805.00,A,A*61

$GNRMC,081806.00,A,4440.56556,S,16910.98098,E,0.066,,150125,,,A,V*02
$GNVTG,,T,,M,0.066,N,0.122,K,A*3C
$GNGGA,081806.00,4440.56556,S,16910.98098,E,1,11,1.04,294.8,M,4.7,M,,*67
$GNGSA,A,3,03,06,09,16,04,26,31,,,,,,1.60,1.04,1.21,1*08
$GNGSA,A,3,78,79,69,68,,,,,,,,,1.60,1.04,1.21,2*02
$GNGSA,A,3,,,,,,,,,,,,,1.60,1.04,1.21,3*03
$GNGSA,A,3,,,,,,,,,,,,,1.60,1.04,1.21,4*04
$GPGSV,3,1,09,03,62,299,46,04,48,237,35,06,09,219,36,09,19,242,39,1*6F
$GPGSV,3,2,09,16,44,024,43,26,60,069,39,31,58,127,41,46,11,069,44,1*6E
$GPGSV,3,3,09,50,33,327,40,1*5A
$GLGSV,2,1,06,68,73,188,41,69,24,221,43,78,76,000,42,79,23,333,49,1*75
$GLGSV,2,2,06,,,,44,,,,32,1*7F
$GAGSV,1,1,02,07,,,40,27,,,42,7*71
$GBGSV,2,1,07,01,,,41,03,,,40,08,,,36,13,,,37,1*7A
$GBGSV,2,2,07,16,,,41,20,,,44,32,,,41,1*75
$GNGLL,4440.56556,S,16910.98098,E,081806.00,A,A*63

$GNRMC,081807.00,A,4440.56553,S,16910.98098,E,0.020,,150125,,,A,V*04
$GNVTG,,T,,M,0.020,N,0.038,K,A*34
$GNGGA,081807.00,4440.56553,S,16910.98098,E,1,11,1.04,294.7,M,4.7,M,,*6C
$GNGSA,A,3,03,06,09,16,04,26,31,,,,,,1.60,1.04,1.21,1*08
$GNGSA,A,3,78,79,69,68,,,,,,,,,1.60,1.04,1.21,2*02
$GNGSA,A,3,,,,,,,,,,,,,1.60,1.04,1.21,3*03
$GNGSA,A,3,,,,,,,,,,,,,1.60,1.04,1.21,4*04
$GPGSV,3,1,09,03,62,299,46,04,48,237,35,06,09,219,36,09,19,242,39,1*6F
$GPGSV,3,2,09,16,44,025,43,26,60,069,39,31,58,127,41,46,11,069,44,1*6F
$GPGSV,3,3,09,50,33,327,40,1*5A
$GLGSV,2,1,06,68,73,188,41,69,24,221,43,78,76,000,42,79,23,333,49,1*75
$GLGSV,2,2,06,,,,44,,,,32,1*7F
$GAGSV,1,1,02,07,,,40,27,,,41,7*72
$GBGSV,2,1,07,01,,,41,03,,,40,08,,,36,13,,,36,1*7B
$GBGSV,2,2,07,16,,,41,20,,,43,32,,,41,1*72
$GNGLL,4440.56553,S,16910.98098,E,081807.00,A,A*67

$GNRMC,081808.00,A,4440.56550,S,16910.98098,E,0.073,,150125,,,A,V*0E
$GNVTG,,T,,M,0.073,N,0.136,K,A*3D
$GNGGA,081808.00,4440.56550,S,16910.98098,E,1,11,1.04,294.6,M,4.7,M,,*61
$GNGSA,A,3,03,06,09,16,04,26,31,,,,,,1.60,1.04,1.21,1*08
$GNGSA,A,3,78,79,69,68,,,,,,,,,1.60,1.04,1.21,2*02
$GNGSA,A,3,,,,,,,,,,,,,1.60,1.04,1.21,3*03
$GNGSA,A,3,,,,,,,,,,,,,1.60,1.04,1.21,4*04
$GPGSV,3,1,09,03,62,299,46,04,48,237,36,06,09,219,36,09,19,242,39,1*6C
$GPGSV,3,2,09,16,44,025,43,26,60,070,39,31,58,127,41,46,11,069,44,1*67
$GPGSV,3,3,09,50,33,327,40,1*5A
$GLGSV,2,1,06,68,73,188,41,69,24,221,43,78,76,000,42,79,23,333,49,1*75
$GLGSV,2,2,06,,,,44,,,,32,1*7F
$GAGSV,1,1,02,07,,,40,27,,,41,7*72
$GBGSV,2,1,07,01,,,41,03,,,40,08,,,36,13,,,36,1*7B
$GBGSV,2,2,07,16,,,41,20,,,44,32,,,41,1*75
$GNGLL,4440.56550,S,16910.98098,E,081808.00,A,A*6B

$GNRMC,081809.00,A,4440.56551,S,16910.98102,E,0.138,,150125,,,A,V*02
$GNVTG,,T,,M,0.138,N,0.255,K,A*35
$GNGGA,081809.00,4440.56551,S,16910.98102,E,1,12,0.82,294.4,M,4.7,M,,*6D
$GNGSA,A,3,03,06,09,16,04,26,31,,,,,,1.38,0.82,1.11,1*09
$GNGSA,A,3,78,79,69,68,67,77,,,,,,,1.38,0.82,1.11,2*02
$GNGSA,A,3,,,,,,,,,,,,,1.38,0.82,1.11,3*02
$GNGSA,A,3,,,,,,,,,,,,,1.38,0.82,1.11,4*05
$GPGSV,3,1,09,03,62,299,46,04,48,237,36,06,09,219,35,09,19,242,39,1*6F
$GPGSV,3,2,09,16,44,025,44,26,60,070,39,31,58,127,41,46,11,069,43,1*67
$GPGSV,3,3,09,50,33,327,40,1*5A
$GLGSV,2,1,06,67,,,44,68,73,188,41,69,24,221,43,77,,,32,1*7C
$GLGSV,2,2,06,78,76,000,42,79,23,333,49,1*77
$GAGSV,1,1,02,07,,,41,27,,,41,7*73
$GBGSV,2,1,07,01,,,41,03,,,40,08,,,36,13,,,37,1*7A
$GBGSV,2,2,07,16,,,41,20,,,44,32,,,41,1*75
$GNGLL,4440.56551,S,16910.98102,E,081809.00,A,A*69

$GNRMC,081810.00,A,4440.56552,S,16910.98103,E,0.007,,150125,,,A,V*05
$GNVTG,,T,,M,0.007,N,0.013,K,A*38
$GNGGA,081810.00,4440.56552,S,16910.98103,E,1,12,0.82,294.4,M,4.7,M,,*67
$GNGSA,A,3,03,06,09,16,04,26,31,,,,,,1.38,0.82,1.11,1*09
$GNGSA,A,3,78,79,69,68,67,77,,,,,,,1.38,0.82,1.11,2*02
$GNGSA,A,3,,,,,,,,,,,,,1.38,0.82,1.11,3*02
$GNGSA,A,3,,,,,,,,,,,,,1.38,0.82,1.11,4*05
$GPGSV,3,1,09,03,62,299,46,04,48,237,35,06,09,219,35,09,19,242,39,1*6C
$GPGSV,3,2,09,16,44,025,44,26,60,070,39,31,58,127,41,46,11,069,43,1*67
$GPGSV,3,3,09,50,33,327,40,1*5A
$GLGSV,2,1,06,67,47,059,44,68,73,188,40,69,24,221,43,77,37,143,32,1*70
$GLGSV,2,2,06,78,76,000,42,79,23,333,49,1*77
$GAGSV,1,1,02,07,,,41,27,,,41,7*73
$GBGSV,2,1,07,01,,,41,03,,,40,08,,,36,13,,,37,1*7A
$GBGSV,2,2,07,16,,,41,20,,,43,32,,,41,1*72
$GNGLL,4440.56552,S,16910.98103,E,081810.00,A,A*63

$GNRMC,081811.00,A,4440.56552,S,16910.98102,E,0.007,,150125,,,A,V*05
$GNVTG,,T,,M,0.007,N,0.013,K,A*38
$GNGGA,081811.00,4440.56552,S,16910.98102,E,1,12,0.82,294.3,M,4.7,M,,*60
$GNGSA,A,3,03,06,09,16,04,26,31,,,,,,1.38,0.82,1.11,1*09
$GNGSA,A,3,78,79,69,68,67,77,,,,,,,1.38,0.82,1.11,2*02
$GNGSA,A,3,,,,,,,,,,,,,1.38,0.82,1.11,3*02
$GNGSA,A,3,,,,,,,,,,,,,1.38,0.82,1.11,4*05
$GPGSV,3,1,09,03,62,299,46,04,48,237,36,06,09,219,35,09,19,242,39,1*6F
$GPGSV,3,2,09,16,44,025,44,26,60,070,39,31,58,127,41,46,11,069,43,1*67
$GPGSV,3,3,09,50,33,327,39,1*54
$GLGSV,2,1,06,67,47,059,44,68,73,188,40,69,24,221,43,77,37,143,32,1*70
$GLGSV,2,2,06,78,76,000,42,79,23,333,49,1*77
$GAGSV,1,1,02,07,,,41,27,,,41,7*73
$GBGSV,2,1,07,01,,,41,03,,,40,08,,,36,13,,,37,1*7A
$GBGSV,2,2,07,16,,,41,20,,,43,32,,,41,1*72
$GNGLL,4440.56552,S,16910.98102,E,081811.00,A,A*63

$GNRMC,081812.00,A,4440.56553,S,16910.98101,E,0.021,,150125,,,A,V*00
$GNVTG,,T,,M,0.021,N,0.039,K,A*34
$GNGGA,081812.00,4440.56553,S,16910.98101,E,1,12,0.82,294.2,M,4.7,M,,*60
$GNGSA,A,3,03,06,09,16,04,26,31,,,,,,1.38,0.82,1.11,1*09
$GNGSA,A,3,78,79,69,68,67,77,,,,,,,1.38,0.82,1.11,2*02
$GNGSA,A,3,,,,,,,,,,,,,1.38,0.82,1.11,3*02
$GNGSA,A,3,,,,,,,,,,,,,1.38,0.82,1.11,4*05
$GPGSV,3,1,09,03,62,299,46,04,48,237,36,06,09,219,35,09,19,242,39,1*6F
$GPGSV,3,2,09,16,44,025,44,26,60,070,40,31,58,127,41,46,11,069,43,1*69
$GPGSV,3,3,09,50,33,327,40,1*5A
$GLGSV,2,1,06,67,47,059,44,68,73,188,40,69,24,221,43,77,37,143,32,1*70
$GLGSV,2,2,06,78,76,000,42,79,23,333,48,1*76
$GAGSV,1,1,02,07,,,41,27,,,41,7*73
$GBGSV,2,1,07,01,,,41,03,,,40,08,,,36,13,,,37,1*7A
$GBGSV,2,2,07,16,,,41,20,,,43,32,,,41,1*72
$GNGLL,4440.56553,S,16910.98101,E,081812.00,A,A*62

$GNRMC,081813.00,A,4440.56553,S,16910.98099,E,0.023,,150125,,,A,V*03
$GNVTG,,T,,M,0.023,N,0.043,K,A*3B
$GNGGA,081813.00,4440.56553,S,16910.98099,E,1,12,0.82,294.2,M,4.7,M,,*61
$GNGSA,A,3,03,06,09,16,04,26,31,,,,,,1.38,0.82,1.11,1*09
$GNGSA,A,3,78,79,69,68,67,77,,,,,,,1.38,0.82,1.11,2*02
$GNGSA,A,3,,,,,,,,,,,,,1.38,0.82,1.11,3*02
$GNGSA,A,3,,,,,,,,,,,,,1.38,0.82,1.11,4*05
$GPGSV,3,1,09,03,62,299,46,04,48,237,36,06,09,219,34,09,19,242,39,1*6E
$GPGSV,3,2,09,16,44,025,44,26,60,070,40,31,58,127,41,46,11,069,43,1*69
$GPGSV,3,3,09,50,33,327,39,1*54
$GLGSV,2,1,06,67,47,059,44,68,73,188,40,69,24,221,43,77,37,143,31,1*73
$GLGSV,2,2,06,78,76,000,42,79,23,333,48,1*76
$GAGSV,1,1,02,07,,,41,27,,,41,7*73
$GBGSV,2,1,07,01,,,41,03,,,40,08,,,36,13,,,37,1*7A
$GBGSV,2,2,07,16,,,41,20,,,43,32,,,41,1*72
$GNGLL,4440.56553,S,16910.98099,E,081813.00,A,A*63

$GNRMC,081814.00,A,4440.56555,S,16910.98098,E,0.029,,150125,,,A,V*09
$GNVTG,,T,,M,0.029,N,0.053,K,A*30
$GNGGA,081814.00,4440.56555,S,16910.98098,E,1,12,0.82,294.1,M,4.7,M,,*62
$GNGSA,A,3,03,06,09,16,04,26,31,,,,,,1.38,0.82,1.11,1*09
$GNGSA,A,3,78,79,69,68,67,77,,,,,,,1.38,0.82,1.11,2*02
$GNGSA,A,3,,,,,,,,,,,,,1.38,0.82,1.11,3*02
$GNGSA,A,3,,,,,,,,,,,,,1.38,0.82,1.11,4*05
$GPGSV,3,1,09,03,62,299,46,04,48,237,36,06,09,219,34,09,19,242,38,1*6F
$GPGSV,3,2,09,16,44,025,44,26,60,070,40,31,58,127,41,46,11,069,43,1*69
$GPGSV,3,3,09,50,33,327,39,1*54
$GLGSV,2,1,06,67,47,059,44,68,73,188,40,69,24,221,43,77,37,143,32,1*70
$GLGSV,2,2,06,78,76,000,42,79,23,333,49,1*77
$GAGSV,1,1,02,07,,,41,27,,,41,7*73
$GBGSV,2,1,07,01,,,41,03,,,40,08,,,36,13,,,37,1*7A
$GBGSV,2,2,07,16,,,41,20,,,43,32,,,41,1*72
$GNGLL,4440.56555,S,16910.98098,E,081814.00,A,A*63

$GNRMC,081815.00,A,4440.56556,S,16910.98098,E,0.011,,150125,,,A,V*00
$GNVTG,,T,,M,0.011,N,0.021,K,A*3E
$GNGGA,081815.00,4440.56556,S,16910.98098,E,1,12,0.73,294.1,M,4.7,M,,*6E
$GNGSA,A,3,03,06,09,16,04,26,31,,,,,,1.21,0.73,0.97,1*00
$GNGSA,A,3,78,79,69,68,67,77,,,,,,,1.21,0.73,0.97,2*0B
$GNGSA,A,3,,,,,,,,,,,,,1.21,0.73,0.97,3*0B
$GNGSA,A,3,20,32,08,16,13,,,,,,,,1.21,0.73,0.97,4*02
$GPGSV,3,1,09,03,62,299,46,04,48,237,35,06,09,219,34,09,19,242,38,1*6C
$GPGSV,3,2,09,16,44,025,44,26,60,070,40,31,58,127,41,46,11,069,43,1*69
$GPGSV,3,3,09,50,33,327,40,1*5A
$GLGSV,2,1,06,67,47,059,44,68,73,188,41,69,24,221,44,77,37,143,31,1*75
$GLGSV,2,2,06,78,76,000,42,79,23,333,49,1*77
$GAGSV,1,1,02,07,,,40,27,,,41,7*72
$GBGSV,2,1,07,01,,,41,03,,,40,08,,,36,13,,,37,1*7A
$GBGSV,2,2,07,16,,,41,20,,,43,32,,,41,1*72
$GNGLL,4440.56556,S,16910.98098,E,081815.00,A,A*61

$GNRMC,081816.00,A,4440.56558,S,16910.98098,E,0.028,,150125,,,A,V*07
$GNVTG,,T,,M,0.028,N,0.052,K,A*30
$GNGGA,081816.00,4440.56558,S,16910.98098,E,1,12,0.73,294.1,M,4.7,M,,*63
$GNGSA,A,3,03,06,09,16,04,26,31,,,,,,1.21,0.73,0.97,1*00
$GNGSA,A,3,78,79,69,68,67,77,,,,,,,1.21,0.73,0.97,2*0B
$GNGSA,A,3,,,,,,,,,,,,,1.21,0.73,0.97,3*0B
$GNGSA,A,3,20,32,08,16,13,,,,,,,,1.21,0.73,0.97,4*02
$GPGSV,3,1,09,03,62,299,46,04,48,237,35,06,09,219,33,09,19,242,38,1*6B
$GPGSV,3,2,09,16,44,025,44,26,60,070,39,31,58,127,41,46,11,069,43,1*67
$GPGSV,3,3,09,50,33,327,40,1*5A
$GLGSV,2,1,06,67,47,059,44,68,73,188,41,69,24,221,44,77,37,143,31,1*75
$GLGSV,2,2,06,78,76,000,42,79,23,333,48,1*76
$GAGSV,1,1,02,07,,,40,27,,,41,7*72
$GBGSV,2,1,07,01,,,41,03,,,40,08,55,244,36,13,48,238,36,1*7C
$GBGSV,2,2,07,16,12,291,41,20,70,241,43,32,48,037,41,1*43
$GNGLL,4440.56558,S,16910.98098,E,081816.00,A,A*6C

$GNRMC,081817.00,A,4440.56560,S,16910.98101,E,0.049,,150125,,,A,V*0B
$GNVTG,,T,,M,0.049,N,0.091,K,A*38
$GNGGA,081817.00,4440.56560,S,16910.98101,E,1,12,0.73,294.0,M,4.7,M,,*69
$GNGSA,A,3,03,06,09,16,04,26,31,,,,,,1.21,0.73,0.97,1*00
$GNGSA,A,3,78,79,69,68,67,77,,,,,,,1.21,0.73,0.97,2*0B
$GNGSA,A,3,,,,,,,,,,,,,1.21,0.73,0.97,3*0B
$GNGSA,A,3,20,32,08,16,13,,,,,,,,1.21,0.73,0.97,4*02
$GPGSV,3,1,09,03,62,299,46,04,48,237,35,06,09,219,33,09,19,242,38,1*6B
$GPGSV,3,2,09,16,44,025,44,26,60,070,39,31,58,127,41,46,11,069,43,1*67
$GPGSV,3,3,09,50,33,327,39,1*54
$GLGSV,2,1,06,67,47,059,44,68,73,188,41,69,24,221,44,77,37,143,31,1*75
$GLGSV,2,2,06,78,76,000,42,79,23,333,48,1*76
$GAGSV,1,1,02,07,,,40,27,,,41,7*72
$GBGSV,2,1,07,01,,,41,03,,,40,08,55,244,36,13,48,238,37,1*7D
$GBGSV,2,2,07,16,12,291,41,20,70,241,43,32,48,037,41,1*43
$GNGLL,4440.56560,S,16910.98101,E,081817.00,A,A*67

$GNRMC,081818.00,A,4440.56561,S,16910.98099,E,0.073,,150125,,,A,V*0C
$GNVTG,,T,,M,0.073,N,0.135,K,A*3E
$GNGGA,081818.00,4440.56561,S,16910.98099,E,1,12,0.73,294.1,M,4.7,M,,*66
$GNGSA,A,3,03,06,09,16,04,26,31,,,,,,1.21,0.73,0.97,1*00
$GNGSA,A,3,78,79,69,68,67,77,,,,,,,1.21,0.73,0.97,2*0B
$GNGSA,A,3,,,,,,,,,,,,,1.21,0.73,0.97,3*0B
$GNGSA,A,3,20,32,08,16,13,,,,,,,,1.21,0.73,0.97,4*02
$GPGSV,3,1,09,03,62,299,46,04,48,237,35,06,09,219,32,09,19,242,38,1*6A
$GPGSV,3,2,09,16,44,025,44,26,60,070,39,31,58,127,41,46,11,069,43,1*67
$GPGSV,3,3,09,50,33,327,39,1*54
$GLGSV,2,1,06,67,47,059,44,68,73,188,41,69,24,221,44,77,37,143,31,1*75
$GLGSV,2,2,06,78,76,000,42,79,23,333,48,1*76
$GAGSV,1,1,02,07,,,40,27,,,41,7*72
$GBGSV,2,1,07,01,,,41,03,,,40,08,55,244,36,13,48,238,37,1*7D
$GBGSV,2,2,07,16,12,291,41,20,70,241,43,32,48,037,41,1*43
$GNGLL,4440.56561,S,16910.98099,E,081818.00,A,A*69

$GNRMC,081819.00,A,4440.56562,S,16910.98098,E,0.024,,150125,,,A,V*0D
$GNVTG,,T,,M,0.024,N,0.045,K,A*3A
$GNGGA,081819.00,4440.56562,S,16910.98098,E,1,12,0.71,294.1,M,4.7,M,,*67
